[{"speciesCode": "rebwoo", "comName": "Red-bellied Woodpecker", "sciName": "Melanerpes carolinus", "locId": "L9864089", "locName": "62675, Petersburg US-IL (39.9205,-89.8169)", "obsDt": "2025-12-30 11:51", "howMany": 1, "lat": 39.920482, "lng": -89.816947, "obsValid": true, "obsReviewed": false, "locationPrivate": true, "subId": "S291214416"}, {"speciesCode": "haiwoo", "comName": "Hairy Woodpecker", "sciName": "Leuconotopicus villosus", "locId": "L9864089", "locName": "62675, Petersburg US-IL (39.9205,-89.8169)", "obsDt": "2025-12-30 11:51", "howMany": 1, "lat": 39.920482, "lng": -89.816947, "obsValid": true, "obsReviewed": false, "locationPrivate": true, "subId": "S291214416"}, {"speciesCode": "blujay", "comName": "Blue Jay", "sciName": "Cyanocitta cristata", "locId": "L9864089", "locName": "62675, Petersburg US-IL (39.9205,-89.8169)", "obsDt": "2025-12-30 11:51", "howMany": 2, "lat": 39.920482, "lng": -89.816947, "obsValid": true, "obsReviewed": false, "locationPrivate": true, "subId": "S291214416"}, {"speciesCode": "bkcchi", "comName": "Black-capped Chickadee", "sciName": "Poecile atricapillus", "locId": "L9864089", "locName": "62675, Petersburg US-IL (39.9205,-89.8169)", "obsDt": "2025-12-30 11:51", "howMany": 1, "lat": 39.920482, "lng": -89.816947, "obsValid": true, "obsReviewed": false, "locationPrivate": true, "subId": "S291214416"}, {"speciesCode": "dowwoo", "comName": "Downy Woodpecker", "sciName": "Dryobates pubescens", "locId": "L3601167", "locName": "39.9208x-89.8169 - Apr 29, 2015, 22:26", "obsDt": "2025-12-30 11:48", "howMany": 1, "lat": 39.9208, "lng": -89.816946, "obsValid": true, "obsReviewed": false, "locationPrivate": true, "subId": "S291213912"}, {"speciesCode": "norfli", "comName": "Northern Flicker", "sciName": "Colaptes auratus", "locId": "L3601167", "locName": "39.9208x-89.8169 - Apr 29, 2015, 22:26", "obsDt": "2025-12-30 11:48", "howMany": 1, "lat": 39.9208, "lng": -89.816946, "obsValid": true, "obsReviewed": false, "locationPrivate": true, "subId": "S291213912"}, {"speciesCode": "daejun", "comName": "Dark-eyed Junco", "sciName": "Junco hyemalis", "locId": "L3601167", "locName": "39.9208x-89.8169 - Apr 29, 2015, 22:26", "obsDt": "2025-12-30 11:48", "howMany": 3, "lat": 39.9208, "lng": -89.816946, "obsValid": true, "obsReviewed": false, "locationPrivate": true, "subId": "S291213912"}, {"speciesCode": "whtspa", "comName": "White-throated Sparrow", "sciName": "Zonotrichia albicollis", "locId": "L3601167", "locName": "39.9208x-89.8169 - Apr 29, 2015, 22:26", "obsDt": "2025-12-30 11:48", "howMany": 2, "lat": 39.9208, "lng": -89.816946, "obsValid": true, "obsReviewed": false, "locationPrivate": true, "subId": "S291213912"}, {"speciesCode": "nswowl", "comName": "Northern Saw-whet Owl", "sciName": "Aegolius acadicus", "locId": "L14029273", "locName": "62675, Petersburg US-IL 39.92149, -89.81701", "obsDt": "2025-12-30 11:45", "howMany": 1, "lat": 39.921495, "lng": -89.817009, "obsValid": true, "obsReviewed": false, "locationPrivate": true, "subId": "S291213528"}, {"speciesCode": "gockin", "comName": "Golden-crowned Kinglet", "sciName": "Regulus satrapa", "locId": "L14029273", "locName": "62675, Petersburg US-IL 39.92149, -89.81701", "obsDt": "2025-12-30 11:45", "howMany": 1, "lat": 39.921495, "lng": -89.817009, "obsValid": true, "obsReviewed": false, "locationPrivate": true, "subId": "S291213528"}, {"speciesCode": "brncre", "comName": "Brown Creeper", "sciName": "Certhia americana", "locId": "L8542708", "locName": "62675, Petersburg US-IL (39.9220,-89.8176)", "obsDt": "2025-12-30 11:37", "howMany": 1, "lat": 39.922043, "lng": -89.817574, "obsValid": true, "obsReviewed": false, "locationPrivate": true, "subId": "S291212164"}, {"speciesCode": "carwre", "comName": "Carolina Wren", "sciName": "Thryothorus ludovicianus", "locId": "L8542708", "locName": "62675, Petersburg US-IL (39.9220,-89.8176)", "obsDt": "2025-12-30 11:28", "howMany": 1, "lat": 39.922043, "lng": -89.817574, "obsValid": true, "obsReviewed": false, "locationPrivate": true, "subId": "S291210322"}, {"speciesCode": "norcar", "comName": "Northern Cardinal", "sciName": "Cardinalis cardinalis", "locId": "L55182035", "locName": "19200\u201319524 Hunt Rd, Petersburg US-IL (39.9226,-89.8204)", "obsDt": "2025-12-30 11:17", "howMany": 2, "lat": 39.922609, "lng": -89.820441, "obsValid": true, "obsReviewed": false, "locationPrivate": true, "subId": "S291208293"}, {"speciesCode": "reshaw", "comName": "Red-shouldered Hawk", "sciName": "Buteo lineatus", "locId": "L50272604", "locName": "62675, Petersburg US-IL (39.9189,-89.8192)", "obsDt": "2025-12-30 10:52", "howMany": 1, "lat": 39.918948, "lng": -89.819214, "obsValid": true, "obsReviewed": false, "locationPrivate": true, "subId": "S291203975"}, {"speciesCode": "amecro", "comName": "American Crow", "sciName": "Corvus brachyrhynchos", "locId": "L50272604", "locName": "62675, Petersburg US-IL (39.9189,-89.8192)", "obsDt": "2025-12-30 10:52", "howMany": 1, "lat": 39.918948, "lng": -89.819214, "obsValid": true, "obsReviewed": false, "locationPrivate": true, "subId": "S291203975"}, {"speciesCode": "turvul", "comName": "Turkey Vulture", "sciName": "Cathartes aura", "locId": "L7637024", "locName": "62675, Petersburg US-IL (39.9206,-89.8193)", "obsDt": "2025-12-30 10:48", "howMany": 8, "lat": 39.920587, "lng": -89.819332, "obsValid": true, "obsReviewed": false, "locationPrivate": true, "subId": "S291203300"}, {"speciesCode": "houspa", "comName": "House Sparrow", "sciName": "Passer domesticus", "locId": "L3721325", "locName": "US-IL-Tallula-10901\u201310999 Knoles Rd - 39.9192x-89.8173", "obsDt": "2025-12-30 10:44", "howMany": 3, "lat": 39.919189, "lng": -89.817349, "obsValid": true, "obsReviewed": false, "locationPrivate": true, "subId": "S291202460", "exoticCategory": "N"}, {"speciesCode": "cangoo", "comName": "Canada Goose", "sciName": "Branta canadensis", "locId": "L3836353", "locName": "US-IL-Tallula-10901-10999 Knoles Rd - 39.9203x-89.8162 - Aug 8, 2015, 08:15", "obsDt": "2025-12-30 08:13", "howMany": 2, "lat": 39.920296, "lng": -89.816186, "obsValid": true, "obsReviewed": false, "locationPrivate": true, "subId": "S291175994"}, {"speciesCode": "eursta", "comName": "European Starling", "sciName": "Sturnus vulgaris", "locId": "L3836353", "locName": "US-IL-Tallula-10901-10999 Knoles Rd - 39.9203x-89.8162 - Aug 8, 2015, 08:15", "obsDt": "2025-12-30 08:13", "howMany": 1, "lat": 39.920296, "lng": -89.816186, "obsValid": true, "obsReviewed": false, "locationPrivate": true, "subId": "S291175994", "exoticCategory": "N"}, {"speciesCode": "amerob", "comName": "American Robin", "sciName": "Turdus migratorius", "locId": "L3836353", "locName": "US-IL-Tallula-10901-10999 Knoles Rd - 39.9203x-89.8162 - Aug 8, 2015, 08:15", "obsDt": "2025-12-30 08:13", "howMany": 1, "lat": 39.920296, "lng": -89.816186, "obsValid": true, "obsReviewed": false, "locationPrivate": true, "subId": "S291175994"}, {"speciesCode": "eutspa", "comName": "Eurasian Tree Sparrow", "sciName": "Passer montanus", "locId": "L3836353", "locName": "US-IL-Tallula-10901-10999 Knoles Rd - 39.9203x-89.8162 - Aug 8, 2015, 08:15", "obsDt": "2025-12-30 08:13", "howMany": 2, "lat": 39.920296, "lng": -89.816186, "obsValid": true, "obsReviewed": false, "locationPrivate": true, "subId": "S291175994", "exoticCategory": "N"}, {"speciesCode": "houfin", "comName": "House Finch", "sciName": "Haemorhous mexicanus", "locId": "L3836353", "locName": "US-IL-Tallula-10901-10999 Knoles Rd - 39.9203x-89.8162 - Aug 8, 2015, 08:15", "obsDt": "2025-12-30 08:13", "howMany": 2, "lat": 39.920296, "lng": -89.816186, "obsValid": true, "obsReviewed": false, "locationPrivate": true, "subId": "S291175994", "exoticCategory": "N"}, {"speciesCode": "amegfi", "comName": "American Goldfinch", "sciName": "Spinus tristis", "locId": "L3836353", "locName": "US-IL-Tallula-10901-10999 Knoles Rd - 39.9203x-89.8162 - Aug 8, 2015, 08:15", "obsDt": "2025-12-30 08:13", "howMany": 4, "lat": 39.920296, "lng": -89.816186, "obsValid": true, "obsReviewed": false, "locationPrivate": true, "subId": "S291175994"}, {"speciesCode": "tuftit", "comName": "Tufted Titmouse", "sciName": "Baeolophus bicolor", "locId": "L15123670", "locName": "11096 Knoles Rd, Petersburg US-IL 39.91980, -89.81625", "obsDt": "2025-12-30 07:50", "howMany": 1, "lat": 39.919798, "lng": -89.816249, "obsValid": true, "obsReviewed": false, "locationPrivate": true, "subId": "S291171938"}]