[{"speciesCode": "rebwoo", "comName": "Red-bellied Woodpecker", "sciName": "Melanerpes carolinus", "locId": "L152728", "locName": "Thorn Creek Nature Preserve", "obsDt": "2025-12-26 15:46", "howMany": 1, "lat": 41.4629, "lng": -87.6921, "obsValid": true, "obsReviewed": false, "locationPrivate": false, "subId": "S290416070"}, {"speciesCode": "dowwoo", "comName": "Downy Woodpecker", "sciName": "Dryobates pubescens", "locId": "L152728", "locName": "Thorn Creek Nature Preserve", "obsDt": "2025-12-26 15:46", "howMany": 1, "lat": 41.4629, "lng": -87.6921, "obsValid": true, "obsReviewed": false, "locationPrivate": false, "subId": "S290416070"}, {"speciesCode": "haiwoo", "comName": "Hairy Woodpecker", "sciName": "Leuconotopicus villosus", "locId": "L152728", "locName": "Thorn Creek Nature Preserve", "obsDt": "2025-12-26 15:46", "howMany": 1, "lat": 41.4629, "lng": -87.6921, "obsValid": true, "obsReviewed": false, "locationPrivate": false, "subId": "S290416070"}, {"speciesCode": "whtspa", "comName": "White-throated Sparrow", "sciName": "Zonotrichia albicollis", "locId": "L152728", "locName": "Thorn Creek Nature Preserve", "obsDt": "2025-12-26 15:46", "howMany": 5, "lat": 41.4629, "lng": -87.6921, "obsValid": true, "obsReviewed": false, "locationPrivate": false, "subId": "S290416070"}, {"speciesCode": "norcar", "comName": "Northern Cardinal", "sciName": "Cardinalis cardinalis", "locId": "L152728", "locName": "Thorn Creek Nature Preserve", "obsDt": "2025-12-26 15:46", "howMany": 1, "lat": 41.4629, "lng": -87.6921, "obsValid": true, "obsReviewed": false, "locationPrivate": false, "subId": "S290416070"}, {"speciesCode": "moudov", "comName": "Mourning Dove", "sciName": "Zenaida macroura", "locId": "L1807949", "locName": "Mather Woods Forest Preserve", "obsDt": "2025-12-26 15:43", "howMany": 1, "lat": 41.594433, "lng": -88.228072, "obsValid": true, "obsReviewed": false, "locationPrivate": false, "subId": "S291030618"}, {"speciesCode": "norfli", "comName": "Northern Flicker", "sciName": "Colaptes auratus", "locId": "L1807949", "locName": "Mather Woods Forest Preserve", "obsDt": "2025-12-26 15:43", "howMany": 1, "lat": 41.594433, "lng": -88.228072, "obsValid": true, "obsReviewed": false, "locationPrivate": false, "subId": "S291030618"}, {"speciesCode": "amerob", "comName": "American Robin", "sciName": "Turdus migratorius", "locId": "L1807949", "locName": "Mather Woods Forest Preserve", "obsDt": "2025-12-26 15:43", "howMany": 1, "lat": 41.594433, "lng": -88.228072, "obsValid": true, "obsReviewed": false, "locationPrivate": false, "subId": "S291030618"}, {"speciesCode": "amtspa", "comName": "American Tree Sparrow", "sciName": "Spizelloides arborea", "locId": "L1807949", "locName": "Mather Woods Forest Preserve", "obsDt": "2025-12-26 15:43", "howMany": 1, "lat": 41.594433, "lng": -88.228072, "obsValid": true, "obsReviewed": false, "locationPrivate": false, "subId": "S291030618"}, {"speciesCode": "daejun", "comName": "Dark-eyed Junco", "sciName": "Junco hyemalis", "locId": "L1807949", "locName": "Mather Woods Forest Preserve", "obsDt": "2025-12-26 15:43", "howMany": 3, "lat": 41.594433, "lng": -88.228072, "obsValid": true, "obsReviewed": false, "locationPrivate": false, "subId": "S291030618"}, {"speciesCode": "cangoo", "comName": "Canada Goose", "sciName": "Branta canadensis", "locId": "L56694923", "locName": "5400 Dralle Road, University Park, Illinois, US (41.442, -87.744)", "obsDt": "2025-12-26 15:15", "howMany": 12, "lat": 41.4416396, "lng": -87.7443695, "obsValid": true, "obsReviewed": false, "locationPrivate": true, "subId": "S291777252"}, {"speciesCode": "mallar3", "comName": "Mallard", "sciName": "Anas platyrhynchos", "locId": "L56694923", "locName": "5400 Dralle Road, University Park, Illinois, US (41.442, -87.744)", "obsDt": "2025-12-26 15:15", "howMany": 4, "lat": 41.4416396, "lng": -87.7443695, "obsValid": true, "obsReviewed": false, "locationPrivate": true, "subId": "S291777252"}, {"speciesCode": "norshr4", "comName": "Northern Shrike", "sciName": "Lanius borealis", "locId": "L56694923", "locName": "5400 Dralle Road, University Park, Illinois, US (41.442, -87.744)", "obsDt": "2025-12-26 15:15", "howMany": 1, "lat": 41.4416396, "lng": -87.7443695, "obsValid": true, "obsReviewed": false, "locationPrivate": true, "subId": "S291777252"}, {"speciesCode": "amekes", "comName": "American Kestrel", "sciName": "Falco sparverius", "locId": "L56375436", "locName": "12134\u201312230 W County Line Rd, Beecher US-IL 41.29701, -87.64002", "obsDt": "2025-12-26 15:11", "howMany": 1, "lat": 41.297014, "lng": -87.640021, "obsValid": true, "obsReviewed": false, "locationPrivate": true, "subId": "S290401587"}, {"speciesCode": "norhar2", "comName": "Northern Harrier", "sciName": "Circus hudsonius", "locId": "L1216408", "locName": "Midewin Natl Tallgrass Prairie--Iron Bridge Trailhead", "obsDt": "2025-12-26 15:06", "howMany": 4, "lat": 41.3790219, "lng": -88.1230116, "obsValid": true, "obsReviewed": false, "locationPrivate": false, "subId": "S290417359"}, {"speciesCode": "baleag", "comName": "Bald Eagle", "sciName": "Haliaeetus leucocephalus", "locId": "L1216408", "locName": "Midewin Natl Tallgrass Prairie--Iron Bridge Trailhead", "obsDt": "2025-12-26 15:06", "howMany": 1, "lat": 41.3790219, "lng": -88.1230116, "obsValid": true, "obsReviewed": false, "locationPrivate": false, "subId": "S290417359"}, {"speciesCode": "blujay", "comName": "Blue Jay", "sciName": "Cyanocitta cristata", "locId": "L1216408", "locName": "Midewin Natl Tallgrass Prairie--Iron Bridge Trailhead", "obsDt": "2025-12-26 15:06", "howMany": 1, "lat": 41.3790219, "lng": -88.1230116, "obsValid": true, "obsReviewed": false, "locationPrivate": false, "subId": "S290417359"}, {"speciesCode": "rethaw", "comName": "Red-tailed Hawk", "sciName": "Buteo jamaicensis", "locId": "L1399503", "locName": "Black Walnut Creek Preserve", "obsDt": "2025-12-26 15:03", "howMany": 3, "lat": 41.4219182, "lng": -87.6672689, "obsValid": true, "obsReviewed": false, "locationPrivate": false, "subId": "S290447614"}, {"speciesCode": "bkcchi", "comName": "Black-capped Chickadee", "sciName": "Poecile atricapillus", "locId": "L1531418", "locName": "Evergreen Hill Cemetery, Steger", "obsDt": "2025-12-26 14:40", "howMany": 1, "lat": 41.4582062, "lng": -87.6419325, "obsValid": true, "obsReviewed": false, "locationPrivate": false, "subId": "S290404914"}, {"speciesCode": "whbnut", "comName": "White-breasted Nuthatch", "sciName": "Sitta carolinensis", "locId": "L1531418", "locName": "Evergreen Hill Cemetery, Steger", "obsDt": "2025-12-26 14:40", "howMany": 1, "lat": 41.4582062, "lng": -87.6419325, "obsValid": true, "obsReviewed": false, "locationPrivate": false, "subId": "S290404914"}, {"speciesCode": "rebnut", "comName": "Red-breasted Nuthatch", "sciName": "Sitta canadensis", "locId": "L1531418", "locName": "Evergreen Hill Cemetery, Steger", "obsDt": "2025-12-26 14:40", "howMany": 1, "lat": 41.4582062, "lng": -87.6419325, "obsValid": true, "obsReviewed": false, "locationPrivate": false, "subId": "S290404914"}, {"speciesCode": "eursta", "comName": "European Starling", "sciName": "Sturnus vulgaris", "locId": "L1531418", "locName": "Evergreen Hill Cemetery, Steger", "obsDt": "2025-12-26 14:40", "howMany": 1, "lat": 41.4582062, "lng": -87.6419325, "obsValid": true, "obsReviewed": false, "locationPrivate": false, "subId": "S290404914", "exoticCategory": "N"}, {"speciesCode": "easblu", "comName": "Eastern Bluebird", "sciName": "Sialia sialis", "locId": "L1531418", "locName": "Evergreen Hill Cemetery, Steger", "obsDt": "2025-12-26 14:40", "howMany": 1, "lat": 41.4582062, "lng": -87.6419325, "obsValid": true, "obsReviewed": false, "locationPrivate": false, "subId": "S290404914"}, {"speciesCode": "houspa", "comName": "House Sparrow", "sciName": "Passer domesticus", "locId": "L1531418", "locName": "Evergreen Hill Cemetery, Steger", "obsDt": "2025-12-26 14:40", "howMany": 12, "lat": 41.4582062, "lng": -87.6419325, "obsValid": true, "obsReviewed": false, "locationPrivate": false, "subId": "S290404914", "exoticCategory": "N"}, {"speciesCode": "houfin", "comName": "House Finch", "sciName": "Haemorhous mexicanus", "locId": "L1531418", "locName": "Evergreen Hill Cemetery, Steger", "obsDt": "2025-12-26 14:40", "howMany": 16, "lat": 41.4582062, "lng": -87.6419325, "obsValid": true, "obsReviewed": false, "locationPrivate": false, "subId": "S290404914", "exoticCategory": "N"}, {"speciesCode": "pinsis", "comName": "Pine Siskin", "sciName": "Spinus pinus", "locId": "L1531418", "locName": "Evergreen Hill Cemetery, Steger", "obsDt": "2025-12-26 14:40", "howMany": 5, "lat": 41.4582062, "lng": -87.6419325, "obsValid": true, "obsReviewed": false, "locationPrivate": false, "subId": "S290404914"}, {"speciesCode": "shshaw", "comName": "Sharp-shinned Hawk", "sciName": "Accipiter striatus", "locId": "L56372832", "locName": "25168\u201325208 W Eames St, Channahon US-IL 41.43222, -88.22366", "obsDt": "2025-12-26 14:17", "howMany": 1, "lat": 41.432216, "lng": -88.22366, "obsValid": true, "obsReviewed": false, "locationPrivate": true, "subId": "S290391545"}, {"speciesCode": "rehwoo", "comName": "Red-headed Woodpecker", "sciName": "Melanerpes erythrocephalus", "locId": "L152703", "locName": "Raccoon Grove Forest Preserve", "obsDt": "2025-12-26 14:15", "howMany": 5, "lat": 41.3961, "lng": -87.7502, "obsValid": true, "obsReviewed": false, "locationPrivate": false, "subId": "S290448014"}, {"speciesCode": "tuftit", "comName": "Tufted Titmouse", "sciName": "Baeolophus bicolor", "locId": "L152703", "locName": "Raccoon Grove Forest Preserve", "obsDt": "2025-12-26 14:15", "howMany": 1, "lat": 41.3961, "lng": -87.7502, "obsValid": true, "obsReviewed": false, "locationPrivate": false, "subId": "S290448014"}, {"speciesCode": "brncre", "comName": "Brown Creeper", "sciName": "Certhia americana", "locId": "L152703", "locName": "Raccoon Grove Forest Preserve", "obsDt": "2025-12-26 14:15", "howMany": 2, "lat": 41.3961, "lng": -87.7502, "obsValid": true, "obsReviewed": false, "locationPrivate": false, "subId": "S290448014"}, {"speciesCode": "merlin", "comName": "Merlin", "sciName": "Falco columbarius", "locId": "L152669", "locName": "Lockport Prairie Nature Preserve", "obsDt": "2025-12-26 13:51", "howMany": 1, "lat": 41.582082, "lng": -88.0767918, "obsValid": true, "obsReviewed": false, "locationPrivate": false, "subId": "S290798159"}, {"speciesCode": "whcspa", "comName": "White-crowned Sparrow", "sciName": "Zonotrichia leucophrys", "locId": "L152669", "locName": "Lockport Prairie Nature Preserve", "obsDt": "2025-12-26 13:51", "howMany": 3, "lat": 41.582082, "lng": -88.0767918, "obsValid": true, "obsReviewed": false, "locationPrivate": false, "subId": "S290798159"}, {"speciesCode": "swaspa", "comName": "Swamp Sparrow", "sciName": "Melospiza georgiana", "locId": "L152669", "locName": "Lockport Prairie Nature Preserve", "obsDt": "2025-12-26 13:51", "howMany": 1, "lat": 41.582082, "lng": -88.0767918, "obsValid": true, "obsReviewed": false, "locationPrivate": false, "subId": "S290798159"}, {"speciesCode": "mutswa", "comName": "Mute Swan", "sciName": "Cygnus olor", "locId": "L252503", "locName": "Whalon Lake Forest Preserve", "obsDt": "2025-12-26 13:26", "howMany": 1, "lat": 41.7159803, "lng": -88.0946875, "obsValid": true, "obsReviewed": false, "locationPrivate": false, "subId": "S290416436", "exoticCategory": "N"}, {"speciesCode": "buffle", "comName": "Bufflehead", "sciName": "Bucephala albeola", "locId": "L252503", "locName": "Whalon Lake Forest Preserve", "obsDt": "2025-12-26 13:26", "howMany": 1, "lat": 41.7159803, "lng": -88.0946875, "obsValid": true, "obsReviewed": false, "locationPrivate": false, "subId": "S290416436"}, {"speciesCode": "comgol", "comName": "Common Goldeneye", "sciName": "Bucephala clangula", "locId": "L252503", "locName": "Whalon Lake Forest Preserve", "obsDt": "2025-12-26 13:26", "howMany": 2, "lat": 41.7159803, "lng": -88.0946875, "obsValid": true, "obsReviewed": false, "locationPrivate": false, "subId": "S290416436"}, {"speciesCode": "hoomer", "comName": "Hooded Merganser", "sciName": "Lophodytes cucullatus", "locId": "L252503", "locName": "Whalon Lake Forest Preserve", "obsDt": "2025-12-26 13:26", "howMany": 2, "lat": 41.7159803, "lng": -88.0946875, "obsValid": true, "obsReviewed": false, "locationPrivate": false, "subId": "S290416436"}, {"speciesCode": "commer", "comName": "Common Merganser", "sciName": "Mergus merganser", "locId": "L252503", "locName": "Whalon Lake Forest Preserve", "obsDt": "2025-12-26 13:26", "howMany": 2, "lat": 41.7159803, "lng": -88.0946875, "obsValid": true, "obsReviewed": false, "locationPrivate": false, "subId": "S290416436"}, {"speciesCode": "amhgul1", "comName": "American Herring Gull", "sciName": "Larus smithsonianus", "locId": "L252503", "locName": "Whalon Lake Forest Preserve", "obsDt": "2025-12-26 13:26", "howMany": 2, "lat": 41.7159803, "lng": -88.0946875, "obsValid": true, "obsReviewed": false, "locationPrivate": false, "subId": "S290416436"}, {"speciesCode": "gadwal", "comName": "Gadwall", "sciName": "Mareca strepera", "locId": "L1064362", "locName": "McKinley Woods--Moose Island", "obsDt": "2025-12-26 12:55", "howMany": 6, "lat": 41.4124473, "lng": -88.2196999, "obsValid": true, "obsReviewed": false, "locationPrivate": false, "subId": "S290388379"}, {"speciesCode": "rocpig", "comName": "Rock Pigeon", "sciName": "Columba livia", "locId": "L1064362", "locName": "McKinley Woods--Moose Island", "obsDt": "2025-12-26 12:55", "howMany": 2, "lat": 41.4124473, "lng": -88.2196999, "obsValid": true, "obsReviewed": false, "locationPrivate": false, "subId": "S290388379", "exoticCategory": "N"}, {"speciesCode": "ribgul", "comName": "Ring-billed Gull", "sciName": "Larus delawarensis", "locId": "L1064362", "locName": "McKinley Woods--Moose Island", "obsDt": "2025-12-26 12:55", "howMany": 3, "lat": 41.4124473, "lng": -88.2196999, "obsValid": true, "obsReviewed": false, "locationPrivate": false, "subId": "S290388379"}, {"speciesCode": "grbher3", "comName": "Great Blue Heron", "sciName": "Ardea herodias", "locId": "L1064362", "locName": "McKinley Woods--Moose Island", "obsDt": "2025-12-26 12:55", "howMany": 1, "lat": 41.4124473, "lng": -88.2196999, "obsValid": true, "obsReviewed": false, "locationPrivate": false, "subId": "S290388379"}, {"speciesCode": "amecro", "comName": "American Crow", "sciName": "Corvus brachyrhynchos", "locId": "L1064362", "locName": "McKinley Woods--Moose Island", "obsDt": "2025-12-26 12:55", "howMany": 2, "lat": 41.4124473, "lng": -88.2196999, "obsValid": true, "obsReviewed": false, "locationPrivate": false, "subId": "S290388379"}, {"speciesCode": "carwre", "comName": "Carolina Wren", "sciName": "Thryothorus ludovicianus", "locId": "L1064362", "locName": "McKinley Woods--Moose Island", "obsDt": "2025-12-26 12:55", "howMany": 1, "lat": 41.4124473, "lng": -88.2196999, "obsValid": true, "obsReviewed": false, "locationPrivate": false, "subId": "S290388379"}, {"speciesCode": "foxspa", "comName": "Fox Sparrow", "sciName": "Passerella iliaca", "locId": "L3968459", "locName": "O'Hara Woods Nature Preserve", "obsDt": "2025-12-26 12:45", "howMany": 2, "lat": 41.6473533, "lng": -88.1050462, "obsValid": true, "obsReviewed": false, "locationPrivate": false, "subId": "S290588453"}, {"speciesCode": "sonspa", "comName": "Song Sparrow", "sciName": "Melospiza melodia", "locId": "L1399503", "locName": "Black Walnut Creek Preserve", "obsDt": "2025-12-26 12:29", "howMany": 1, "lat": 41.4219182, "lng": -87.6672689, "obsValid": true, "obsReviewed": false, "locationPrivate": false, "subId": "S290372400"}, {"speciesCode": "belkin1", "comName": "Belted Kingfisher", "sciName": "Megaceryle alcyon", "locId": "L505882", "locName": "Knoch Knolls Park, Naperville", "obsDt": "2025-12-26 12:18", "howMany": 1, "lat": 41.7100537, "lng": -88.1433105, "obsValid": true, "obsReviewed": false, "locationPrivate": false, "subId": "S290382696"}, {"speciesCode": "cacgoo1", "comName": "Cackling Goose", "sciName": "Branta hutchinsii", "locId": "L801422", "locName": "Rock Run Rookery Preserve", "obsDt": "2025-12-26 11:24", "howMany": 1, "lat": 41.4689912, "lng": -88.1701026, "obsValid": true, "obsReviewed": false, "locationPrivate": false, "subId": "S290370887"}, {"speciesCode": "redhea", "comName": "Redhead", "sciName": "Aythya americana", "locId": "L801422", "locName": "Rock Run Rookery Preserve", "obsDt": "2025-12-26 11:24", "howMany": 18, "lat": 41.4689912, "lng": -88.1701026, "obsValid": true, "obsReviewed": false, "locationPrivate": false, "subId": "S290370887"}, {"speciesCode": "rinduc", "comName": "Ring-necked Duck", "sciName": "Aythya collaris", "locId": "L801422", "locName": "Rock Run Rookery Preserve", "obsDt": "2025-12-26 11:24", "howMany": 12, "lat": 41.4689912, "lng": -88.1701026, "obsValid": true, "obsReviewed": false, "locationPrivate": false, "subId": "S290370887"}, {"speciesCode": "lessca", "comName": "Lesser Scaup", "sciName": "Aythya affinis", "locId": "L801422", "locName": "Rock Run Rookery Preserve", "obsDt": "2025-12-26 11:24", "howMany": 4, "lat": 41.4689912, "lng": -88.1701026, "obsValid": true, "obsReviewed": false, "locationPrivate": false, "subId": "S290370887"}, {"speciesCode": "greegr", "comName": "Great Egret", "sciName": "Ardea alba", "locId": "L801422", "locName": "Rock Run Rookery Preserve", "obsDt": "2025-12-26 11:24", "howMany": 1, "lat": 41.4689912, "lng": -88.1701026, "obsValid": true, "obsReviewed": false, "locationPrivate": false, "subId": "S290370887"}, {"speciesCode": "gockin", "comName": "Golden-crowned Kinglet", "sciName": "Regulus satrapa", "locId": "L801422", "locName": "Rock Run Rookery Preserve", "obsDt": "2025-12-26 11:24", "howMany": 1, "lat": 41.4689912, "lng": -88.1701026, "obsValid": true, "obsReviewed": false, "locationPrivate": false, "subId": "S290370887"}, {"speciesCode": "cedwax", "comName": "Cedar Waxwing", "sciName": "Bombycilla cedrorum", "locId": "L801422", "locName": "Rock Run Rookery Preserve", "obsDt": "2025-12-26 11:24", "howMany": 1, "lat": 41.4689912, "lng": -88.1701026, "obsValid": true, "obsReviewed": false, "locationPrivate": false, "subId": "S290370887"}, {"speciesCode": "purfin", "comName": "Purple Finch", "sciName": "Haemorhous purpureus", "locId": "L801422", "locName": "Rock Run Rookery Preserve", "obsDt": "2025-12-26 11:24", "howMany": 1, "lat": 41.4689912, "lng": -88.1701026, "obsValid": true, "obsReviewed": false, "locationPrivate": false, "subId": "S290370887"}, {"speciesCode": "amegfi", "comName": "American Goldfinch", "sciName": "Spinus tristis", "locId": "L801422", "locName": "Rock Run Rookery Preserve", "obsDt": "2025-12-26 11:24", "howMany": 3, "lat": 41.4689912, "lng": -88.1701026, "obsValid": true, "obsReviewed": false, "locationPrivate": false, "subId": "S290370887"}, {"speciesCode": "reshaw", "comName": "Red-shouldered Hawk", "sciName": "Buteo lineatus", "locId": "L1522389", "locName": "Crete Bike Trail", "obsDt": "2025-12-26 10:45", "howMany": 1, "lat": 41.4538762, "lng": -87.6177198, "obsValid": true, "obsReviewed": false, "locationPrivate": false, "subId": "S290448084"}, {"speciesCode": "herthr", "comName": "Hermit Thrush", "sciName": "Catharus guttatus", "locId": "L1522389", "locName": "Crete Bike Trail", "obsDt": "2025-12-26 10:45", "howMany": 1, "lat": 41.4538762, "lng": -87.6177198, "obsValid": true, "obsReviewed": false, "locationPrivate": false, "subId": "S290448084"}, {"speciesCode": "pilwoo", "comName": "Pileated Woodpecker", "sciName": "Dryocopus pileatus", "locId": "L152679", "locName": "McKinley Woods Forest Preserve", "obsDt": "2025-12-26 10:41", "howMany": 1, "lat": 41.384, "lng": -88.2395, "obsValid": true, "obsReviewed": false, "locationPrivate": false, "subId": "S290371603"}, {"speciesCode": "ambduc", "comName": "American Black Duck", "sciName": "Anas rubripes", "locId": "L252503", "locName": "Whalon Lake Forest Preserve", "obsDt": "2025-12-26 10:17", "howMany": 3, "lat": 41.7159803, "lng": -88.0946875, "obsValid": true, "obsReviewed": false, "locationPrivate": false, "subId": "S290359833"}, {"speciesCode": "coohaw", "comName": "Cooper's Hawk", "sciName": "Astur cooperii", "locId": "L20176403", "locName": "Prestwick South", "obsDt": "2025-12-26 09:01", "howMany": 1, "lat": 41.4913926, "lng": -87.7977388, "obsValid": true, "obsReviewed": false, "locationPrivate": true, "subId": "S290434030"}]