[{"speciesCode": "moudov", "comName": "Mourning Dove", "sciName": "Zenaida macroura", "locId": "L51467695", "locName": "Tour Of Touhy", "obsDt": "2025-12-28 21:28", "howMany": 1, "lat": 42.0123324, "lng": -87.6792805, "obsValid": true, "obsReviewed": false, "locationPrivate": true, "subId": "S291307508"}, {"speciesCode": "eursta", "comName": "European Starling", "sciName": "Sturnus vulgaris", "locId": "L51467695", "locName": "Tour Of Touhy", "obsDt": "2025-12-28 21:28", "howMany": 6, "lat": 42.0123324, "lng": -87.6792805, "obsValid": true, "obsReviewed": false, "locationPrivate": true, "subId": "S291307508", "exoticCategory": "N"}, {"speciesCode": "amerob", "comName": "American Robin", "sciName": "Turdus migratorius", "locId": "L51467695", "locName": "Tour Of Touhy", "obsDt": "2025-12-28 21:28", "howMany": 2, "lat": 42.0123324, "lng": -87.6792805, "obsValid": true, "obsReviewed": false, "locationPrivate": true, "subId": "S291307508"}, {"speciesCode": "norcar", "comName": "Northern Cardinal", "sciName": "Cardinalis cardinalis", "locId": "L51467695", "locName": "Tour Of Touhy", "obsDt": "2025-12-28 21:28", "howMany": 1, "lat": 42.0123324, "lng": -87.6792805, "obsValid": true, "obsReviewed": false, "locationPrivate": true, "subId": "S291307508"}, {"speciesCode": "whtspa", "comName": "White-throated Sparrow", "sciName": "Zonotrichia albicollis", "locId": "L193480", "locName": "Chevalier Woods Forest Preserve", "obsDt": "2025-12-28 16:40", "howMany": 1, "lat": 41.9793367, "lng": -87.8523445, "obsValid": true, "obsReviewed": false, "locationPrivate": false, "subId": "S292717586"}, {"speciesCode": "merlin", "comName": "Merlin", "sciName": "Falco columbarius", "locId": "L1841589", "locName": "St. Adalbert Cemetery", "obsDt": "2025-12-28 16:21", "howMany": 2, "lat": 42.0068881, "lng": -87.8038373, "obsValid": true, "obsReviewed": false, "locationPrivate": false, "subId": "S290885950"}, {"speciesCode": "easowl1", "comName": "Eastern Screech-Owl", "sciName": "Megascops asio", "locId": "L152692", "locName": "Northwestern University (Main Campus and Lakefill)", "obsDt": "2025-12-28 16:20", "howMany": 2, "lat": 42.0569, "lng": -87.6711, "obsValid": true, "obsReviewed": false, "locationPrivate": false, "subId": "S290887311"}, {"speciesCode": "dowwoo", "comName": "Downy Woodpecker", "sciName": "Dryobates pubescens", "locId": "L5220425", "locName": "Normandy Pl, Evanston, IL", "obsDt": "2025-12-28 16:20", "howMany": 1, "lat": 42.0582826, "lng": -87.7189073, "obsValid": true, "obsReviewed": false, "locationPrivate": true, "subId": "S292585337"}, {"speciesCode": "mallar3", "comName": "Mallard", "sciName": "Anas platyrhynchos", "locId": "L586124", "locName": "North Shore Channel", "obsDt": "2025-12-28 15:48", "howMany": 4, "lat": 42.0306155, "lng": -87.7098656, "obsValid": true, "obsReviewed": false, "locationPrivate": false, "subId": "S290878394"}, {"speciesCode": "daejun", "comName": "Dark-eyed Junco", "sciName": "Junco hyemalis", "locId": "L586124", "locName": "North Shore Channel", "obsDt": "2025-12-28 15:48", "howMany": 2, "lat": 42.0306155, "lng": -87.7098656, "obsValid": true, "obsReviewed": false, "locationPrivate": false, "subId": "S290878394"}, {"speciesCode": "rocpig", "comName": "Rock Pigeon", "sciName": "Columba livia", "locId": "L49010340", "locName": "436 Ridge Ave, Evanston US-IL 42.02642, -87.68829", "obsDt": "2025-12-28 15:45", "howMany": 15, "lat": 42.026417, "lng": -87.688292, "obsValid": true, "obsReviewed": false, "locationPrivate": true, "subId": "S292128004", "exoticCategory": "N"}, {"speciesCode": "coohaw", "comName": "Cooper's Hawk", "sciName": "Astur cooperii", "locId": "L49010340", "locName": "436 Ridge Ave, Evanston US-IL 42.02642, -87.68829", "obsDt": "2025-12-28 15:45", "howMany": 1, "lat": 42.026417, "lng": -87.688292, "obsValid": true, "obsReviewed": false, "locationPrivate": true, "subId": "S292128004"}, {"speciesCode": "cangoo", "comName": "Canada Goose", "sciName": "Branta canadensis", "locId": "L224192", "locName": "Killdeer (Tinley Creek) Wetlands", "obsDt": "2025-12-28 15:40", "howMany": 18, "lat": 41.5439, "lng": -87.7545, "obsValid": true, "obsReviewed": false, "locationPrivate": false, "subId": "S290908032"}, {"speciesCode": "shshaw", "comName": "Sharp-shinned Hawk", "sciName": "Accipiter striatus", "locId": "L224192", "locName": "Killdeer (Tinley Creek) Wetlands", "obsDt": "2025-12-28 15:40", "howMany": 1, "lat": 41.5439, "lng": -87.7545, "obsValid": true, "obsReviewed": false, "locationPrivate": false, "subId": "S290908032"}, {"speciesCode": "norhar2", "comName": "Northern Harrier", "sciName": "Circus hudsonius", "locId": "L224192", "locName": "Killdeer (Tinley Creek) Wetlands", "obsDt": "2025-12-28 15:40", "howMany": 2, "lat": 41.5439, "lng": -87.7545, "obsValid": true, "obsReviewed": false, "locationPrivate": false, "subId": "S290908032"}, {"speciesCode": "sheowl", "comName": "Short-eared Owl", "sciName": "Asio flammeus", "locId": "L224192", "locName": "Killdeer (Tinley Creek) Wetlands", "obsDt": "2025-12-28 15:40", "howMany": 1, "lat": 41.5439, "lng": -87.7545, "obsValid": true, "obsReviewed": false, "locationPrivate": false, "subId": "S290908032"}, {"speciesCode": "houspa", "comName": "House Sparrow", "sciName": "Passer domesticus", "locId": "L871020", "locName": "Irving Park 60618 Miscellaneous", "obsDt": "2025-12-28 15:32", "howMany": 15, "lat": 41.9499794, "lng": -87.7176762, "obsValid": true, "obsReviewed": false, "locationPrivate": true, "subId": "S290883897", "exoticCategory": "N"}, {"speciesCode": "winwre3", "comName": "Winter Wren", "sciName": "Troglodytes hiemalis", "locId": "L164725", "locName": "Lincoln Park--Jarvis Bird Sanctuary", "obsDt": "2025-12-28 15:30", "howMany": 1, "lat": 41.948994, "lng": -87.6407, "obsValid": true, "obsReviewed": false, "locationPrivate": false, "subId": "S290903880"}, {"speciesCode": "rebmer", "comName": "Red-breasted Merganser", "sciName": "Mergus serrator", "locId": "L108497", "locName": "Axehead Lake/Chippewa Woods", "obsDt": "2025-12-28 15:28", "howMany": 5, "lat": 42.007636, "lng": -87.8646934, "obsValid": true, "obsReviewed": false, "locationPrivate": false, "subId": "S290881256"}, {"speciesCode": "y00475", "comName": "American Coot", "sciName": "Fulica americana", "locId": "L108497", "locName": "Axehead Lake/Chippewa Woods", "obsDt": "2025-12-28 15:28", "howMany": 1, "lat": 42.007636, "lng": -87.8646934, "obsValid": true, "obsReviewed": false, "locationPrivate": false, "subId": "S290881256"}, {"speciesCode": "comloo", "comName": "Common Loon", "sciName": "Gavia immer", "locId": "L108497", "locName": "Axehead Lake/Chippewa Woods", "obsDt": "2025-12-28 15:28", "howMany": 1, "lat": 42.007636, "lng": -87.8646934, "obsValid": true, "obsReviewed": true, "locationPrivate": false, "subId": "S290881256"}, {"speciesCode": "amhgul1", "comName": "American Herring Gull", "sciName": "Larus smithsonianus", "locId": "L152691", "locName": "Lincoln Park--North Pond", "obsDt": "2025-12-28 15:21", "howMany": 1, "lat": 41.9283, "lng": -87.637, "obsValid": true, "obsReviewed": false, "locationPrivate": false, "subId": "S290880065"}, {"speciesCode": "amecro", "comName": "American Crow", "sciName": "Corvus brachyrhynchos", "locId": "L152691", "locName": "Lincoln Park--North Pond", "obsDt": "2025-12-28 15:21", "howMany": 3, "lat": 41.9283, "lng": -87.637, "obsValid": true, "obsReviewed": false, "locationPrivate": false, "subId": "S290880065"}, {"speciesCode": "amtspa", "comName": "American Tree Sparrow", "sciName": "Spizelloides arborea", "locId": "L152691", "locName": "Lincoln Park--North Pond", "obsDt": "2025-12-28 15:21", "howMany": 9, "lat": 41.9283, "lng": -87.637, "obsValid": true, "obsReviewed": false, "locationPrivate": false, "subId": "S290880065"}, {"speciesCode": "rinduc", "comName": "Ring-necked Duck", "sciName": "Aythya collaris", "locId": "L152692", "locName": "Northwestern University (Main Campus and Lakefill)", "obsDt": "2025-12-28 15:20", "howMany": 4, "lat": 42.0569, "lng": -87.6711, "obsValid": true, "obsReviewed": false, "locationPrivate": false, "subId": "S290908218"}, {"speciesCode": "hoomer", "comName": "Hooded Merganser", "sciName": "Lophodytes cucullatus", "locId": "L152692", "locName": "Northwestern University (Main Campus and Lakefill)", "obsDt": "2025-12-28 15:20", "howMany": 6, "lat": 42.0569, "lng": -87.6711, "obsValid": true, "obsReviewed": false, "locationPrivate": false, "subId": "S290908218"}, {"speciesCode": "baleag", "comName": "Bald Eagle", "sciName": "Haliaeetus leucocephalus", "locId": "L152692", "locName": "Northwestern University (Main Campus and Lakefill)", "obsDt": "2025-12-28 15:20", "howMany": 1, "lat": 42.0569, "lng": -87.6711, "obsValid": true, "obsReviewed": false, "locationPrivate": false, "subId": "S290908218"}, {"speciesCode": "houfin", "comName": "House Finch", "sciName": "Haemorhous mexicanus", "locId": "L152692", "locName": "Northwestern University (Main Campus and Lakefill)", "obsDt": "2025-12-28 15:20", "howMany": 9, "lat": 42.0569, "lng": -87.6711, "obsValid": true, "obsReviewed": false, "locationPrivate": false, "subId": "S290908218", "exoticCategory": "N"}, {"speciesCode": "comgol", "comName": "Common Goldeneye", "sciName": "Bucephala clangula", "locId": "L339158", "locName": "Lincoln Park--Belmont Harbor", "obsDt": "2025-12-28 15:16", "howMany": 10, "lat": 41.9435608, "lng": -87.636194, "obsValid": true, "obsReviewed": false, "locationPrivate": false, "subId": "S290904082"}, {"speciesCode": "ribgul", "comName": "Ring-billed Gull", "sciName": "Larus delawarensis", "locId": "L339158", "locName": "Lincoln Park--Belmont Harbor", "obsDt": "2025-12-28 15:16", "howMany": 3, "lat": 41.9435608, "lng": -87.636194, "obsValid": true, "obsReviewed": false, "locationPrivate": false, "subId": "S290904082"}, {"speciesCode": "amegfi", "comName": "American Goldfinch", "sciName": "Spinus tristis", "locId": "L656262", "locName": "Stotz yard", "obsDt": "2025-12-28 14:45", "howMany": 1, "lat": 41.8437129, "lng": -87.8940502, "obsValid": true, "obsReviewed": false, "locationPrivate": true, "subId": "S290912078"}, {"speciesCode": "commer", "comName": "Common Merganser", "sciName": "Mergus merganser", "locId": "L289205", "locName": "Lemont Quarries (Cook Co.)", "obsDt": "2025-12-28 14:44", "howMany": 3, "lat": 41.6822668, "lng": -87.9812559, "obsValid": true, "obsReviewed": false, "locationPrivate": false, "subId": "S292876706"}, {"speciesCode": "rudduc", "comName": "Ruddy Duck", "sciName": "Oxyura jamaicensis", "locId": "L289205", "locName": "Lemont Quarries (Cook Co.)", "obsDt": "2025-12-28 14:44", "howMany": 2, "lat": 41.6822668, "lng": -87.9812559, "obsValid": true, "obsReviewed": false, "locationPrivate": false, "subId": "S292876706"}, {"speciesCode": "grbher3", "comName": "Great Blue Heron", "sciName": "Ardea herodias", "locId": "L289205", "locName": "Lemont Quarries (Cook Co.)", "obsDt": "2025-12-28 14:44", "howMany": 1, "lat": 41.6822668, "lng": -87.9812559, "obsValid": true, "obsReviewed": false, "locationPrivate": false, "subId": "S292876706"}, {"speciesCode": "rebwoo", "comName": "Red-bellied Woodpecker", "sciName": "Melanerpes carolinus", "locId": "L16596683", "locName": "garden", "obsDt": "2025-12-28 14:26", "howMany": 1, "lat": 42.0791893, "lng": -87.9014893, "obsValid": true, "obsReviewed": false, "locationPrivate": true, "subId": "S290867736"}, {"speciesCode": "blujay", "comName": "Blue Jay", "sciName": "Cyanocitta cristata", "locId": "L16596683", "locName": "garden", "obsDt": "2025-12-28 14:26", "howMany": 1, "lat": 42.0791893, "lng": -87.9014893, "obsValid": true, "obsReviewed": false, "locationPrivate": true, "subId": "S290867736"}, {"speciesCode": "amekes", "comName": "American Kestrel", "sciName": "Falco sparverius", "locId": "L152692", "locName": "Northwestern University (Main Campus and Lakefill)", "obsDt": "2025-12-28 14:16", "howMany": 1, "lat": 42.0569, "lng": -87.6711, "obsValid": true, "obsReviewed": false, "locationPrivate": false, "subId": "S291055326"}, {"speciesCode": "whbnut", "comName": "White-breasted Nuthatch", "sciName": "Sitta carolinensis", "locId": "L298724", "locName": "Rosehill Cemetery", "obsDt": "2025-12-28 13:59", "howMany": 1, "lat": 41.9859832, "lng": -87.6820028, "obsValid": true, "obsReviewed": false, "locationPrivate": false, "subId": "S290873870"}, {"speciesCode": "pinsis", "comName": "Pine Siskin", "sciName": "Spinus pinus", "locId": "L53445458", "locName": "Kiwanis Park", "obsDt": "2025-12-28 13:37", "howMany": 25, "lat": 41.9732342, "lng": -87.7118337, "obsValid": true, "obsReviewed": false, "locationPrivate": false, "subId": "S290849685"}, {"speciesCode": "rebnut", "comName": "Red-breasted Nuthatch", "sciName": "Sitta canadensis", "locId": "L152692", "locName": "Northwestern University (Main Campus and Lakefill)", "obsDt": "2025-12-28 13:20", "howMany": 1, "lat": 42.0569, "lng": -87.6711, "obsValid": true, "obsReviewed": false, "locationPrivate": false, "subId": "S290889528"}, {"speciesCode": "redhea", "comName": "Redhead", "sciName": "Aythya americana", "locId": "L289205", "locName": "Lemont Quarries (Cook Co.)", "obsDt": "2025-12-28 13:14", "howMany": 2, "lat": 41.6822668, "lng": -87.9812559, "obsValid": true, "obsReviewed": false, "locationPrivate": false, "subId": "S290850159"}, {"speciesCode": "bkcchi", "comName": "Black-capped Chickadee", "sciName": "Poecile atricapillus", "locId": "L289205", "locName": "Lemont Quarries (Cook Co.)", "obsDt": "2025-12-28 13:14", "howMany": 4, "lat": 41.6822668, "lng": -87.9812559, "obsValid": true, "obsReviewed": false, "locationPrivate": false, "subId": "S290850159"}, {"speciesCode": "reshaw", "comName": "Red-shouldered Hawk", "sciName": "Buteo lineatus", "locId": "L4789089", "locName": "Techny Basin--north of Willow Rd.", "obsDt": "2025-12-28 13:12", "howMany": 1, "lat": 42.1097167, "lng": -87.8096223, "obsValid": true, "obsReviewed": false, "locationPrivate": false, "subId": "S290884949"}, {"speciesCode": "rethaw", "comName": "Red-tailed Hawk", "sciName": "Buteo jamaicensis", "locId": "L4789089", "locName": "Techny Basin--north of Willow Rd.", "obsDt": "2025-12-28 13:12", "howMany": 1, "lat": 42.1097167, "lng": -87.8096223, "obsValid": true, "obsReviewed": false, "locationPrivate": false, "subId": "S290884949"}, {"speciesCode": "belkin1", "comName": "Belted Kingfisher", "sciName": "Megaceryle alcyon", "locId": "L4789089", "locName": "Techny Basin--north of Willow Rd.", "obsDt": "2025-12-28 13:12", "howMany": 1, "lat": 42.1097167, "lng": -87.8096223, "obsValid": true, "obsReviewed": false, "locationPrivate": false, "subId": "S290884949"}, {"speciesCode": "swaspa", "comName": "Swamp Sparrow", "sciName": "Melospiza georgiana", "locId": "L1057281", "locName": "Chicago River--Diversey Turning Basin", "obsDt": "2025-12-28 13:08", "howMany": 1, "lat": 41.931337, "lng": -87.6815844, "obsValid": true, "obsReviewed": false, "locationPrivate": false, "subId": "S290848751"}, {"speciesCode": "norpin", "comName": "Northern Pintail", "sciName": "Anas acuta", "locId": "L2101032", "locName": "Lake Opeka", "obsDt": "2025-12-28 12:30", "howMany": 1, "lat": 42.0117176, "lng": -87.8957856, "obsValid": true, "obsReviewed": false, "locationPrivate": false, "subId": "S290891589"}, {"speciesCode": "tuftit", "comName": "Tufted Titmouse", "sciName": "Baeolophus bicolor", "locId": "L152615", "locName": "Sagawau Environmental Learning Center", "obsDt": "2025-12-28 11:19", "howMany": 3, "lat": 41.6898, "lng": -87.9207, "obsValid": true, "obsReviewed": false, "locationPrivate": false, "subId": "S290873866"}, {"speciesCode": "carwre", "comName": "Carolina Wren", "sciName": "Thryothorus ludovicianus", "locId": "L152615", "locName": "Sagawau Environmental Learning Center", "obsDt": "2025-12-28 11:19", "howMany": 1, "lat": 41.6898, "lng": -87.9207, "obsValid": true, "obsReviewed": false, "locationPrivate": false, "subId": "S290873866"}, {"speciesCode": "rosgoo", "comName": "Ross's Goose", "sciName": "Anser rossii", "locId": "L56474262", "locName": "Vollmer Rd, Matteson US-IL (41.5271,-87.7754)", "obsDt": "2025-12-28 11:14", "howMany": 2, "lat": 41.527138, "lng": -87.775381, "obsValid": true, "obsReviewed": true, "locationPrivate": true, "subId": "S290814366"}, {"speciesCode": "gresca", "comName": "Greater Scaup", "sciName": "Aythya marila", "locId": "L23993037", "locName": "The Catbird Seat", "obsDt": "2025-12-28 10:59", "howMany": 90, "lat": 41.804346, "lng": -87.586658, "obsValid": true, "obsReviewed": false, "locationPrivate": true, "subId": "S290887822"}, {"speciesCode": "rewbla", "comName": "Red-winged Blackbird", "sciName": "Agelaius phoeniceus", "locId": "L12536922", "locName": "River Rd, Hodgkins", "obsDt": "2025-12-28 10:40", "howMany": 1, "lat": 41.7764601, "lng": -87.8422816, "obsValid": true, "obsReviewed": false, "locationPrivate": false, "subId": "S290926404"}, {"speciesCode": "gnwtea", "comName": "Green-winged Teal", "sciName": "Anas crecca", "locId": "L1573785", "locName": "Lincoln Park Zoo", "obsDt": "2025-12-28 10:00", "howMany": 1, "lat": 41.9207287, "lng": -87.6327196, "obsValid": true, "obsReviewed": false, "locationPrivate": false, "subId": "S290887199"}, {"speciesCode": "haiwoo", "comName": "Hairy Woodpecker", "sciName": "Leuconotopicus villosus", "locId": "L36598268", "locName": "208 Thelin Ct, Wilmette US-IL 42.06709, -87.74745", "obsDt": "2025-12-28 09:25", "howMany": 1, "lat": 42.067092, "lng": -87.747454, "obsValid": true, "obsReviewed": false, "locationPrivate": true, "subId": "S290816815"}, {"speciesCode": "whwsco2", "comName": "White-winged Scoter", "sciName": "Melanitta deglandi", "locId": "L339158", "locName": "Lincoln Park--Belmont Harbor", "obsDt": "2025-12-28 08:28", "howMany": 1, "lat": 41.9435608, "lng": -87.636194, "obsValid": true, "obsReviewed": false, "locationPrivate": false, "subId": "S290763922"}]