[{"speciesCode": "moudov", "comName": "Mourning Dove", "sciName": "Zenaida macroura", "locId": "L13585161", "locName": "St. Anthony Field", "obsDt": "2025-12-29 16:19", "howMany": 1, "lat": 42.2746901, "lng": -89.0077025, "obsValid": true, "obsReviewed": false, "locationPrivate": true, "subId": "S291083305"}, {"speciesCode": "foxspa", "comName": "Fox Sparrow", "sciName": "Passerella iliaca", "locId": "L13585161", "locName": "St. Anthony Field", "obsDt": "2025-12-29 16:19", "howMany": 1, "lat": 42.2746901, "lng": -89.0077025, "obsValid": true, "obsReviewed": false, "locationPrivate": true, "subId": "S291083305"}, {"speciesCode": "daejun", "comName": "Dark-eyed Junco", "sciName": "Junco hyemalis", "locId": "L13585161", "locName": "St. Anthony Field", "obsDt": "2025-12-29 16:19", "howMany": 6, "lat": 42.2746901, "lng": -89.0077025, "obsValid": true, "obsReviewed": false, "locationPrivate": true, "subId": "S291083305"}, {"speciesCode": "whtspa", "comName": "White-throated Sparrow", "sciName": "Zonotrichia albicollis", "locId": "L13585161", "locName": "St. Anthony Field", "obsDt": "2025-12-29 16:19", "howMany": 6, "lat": 42.2746901, "lng": -89.0077025, "obsValid": true, "obsReviewed": false, "locationPrivate": true, "subId": "S291083305"}, {"speciesCode": "norcar", "comName": "Northern Cardinal", "sciName": "Cardinalis cardinalis", "locId": "L13585161", "locName": "St. Anthony Field", "obsDt": "2025-12-29 16:19", "howMany": 7, "lat": 42.2746901, "lng": -89.0077025, "obsValid": true, "obsReviewed": false, "locationPrivate": true, "subId": "S291083305"}, {"speciesCode": "houspa", "comName": "House Sparrow", "sciName": "Passer domesticus", "locId": "L13585161", "locName": "St. Anthony Field", "obsDt": "2025-12-29 15:13", "howMany": 1, "lat": 42.2746901, "lng": -89.0077025, "obsValid": true, "obsReviewed": false, "locationPrivate": true, "subId": "S291069708", "exoticCategory": "N"}, {"speciesCode": "houfin", "comName": "House Finch", "sciName": "Haemorhous mexicanus", "locId": "L13585161", "locName": "St. Anthony Field", "obsDt": "2025-12-29 15:13", "howMany": 14, "lat": 42.2746901, "lng": -89.0077025, "obsValid": true, "obsReviewed": false, "locationPrivate": true, "subId": "S291069708", "exoticCategory": "N"}, {"speciesCode": "pinsis", "comName": "Pine Siskin", "sciName": "Spinus pinus", "locId": "L13585161", "locName": "St. Anthony Field", "obsDt": "2025-12-29 15:13", "howMany": 1, "lat": 42.2746901, "lng": -89.0077025, "obsValid": true, "obsReviewed": false, "locationPrivate": true, "subId": "S291069708"}, {"speciesCode": "blujay", "comName": "Blue Jay", "sciName": "Cyanocitta cristata", "locId": "L13585161", "locName": "St. Anthony Field", "obsDt": "2025-12-29 14:01", "howMany": 2, "lat": 42.2746901, "lng": -89.0077025, "obsValid": true, "obsReviewed": false, "locationPrivate": true, "subId": "S291065135"}, {"speciesCode": "dowwoo", "comName": "Downy Woodpecker", "sciName": "Dryobates pubescens", "locId": "L1259962", "locName": "Home", "obsDt": "2025-12-29 13:26", "howMany": 2, "lat": 42.426753, "lng": -89.0254623, "obsValid": true, "obsReviewed": false, "locationPrivate": true, "subId": "S291050129"}, {"speciesCode": "bkcchi", "comName": "Black-capped Chickadee", "sciName": "Poecile atricapillus", "locId": "L1259962", "locName": "Home", "obsDt": "2025-12-29 13:26", "howMany": 3, "lat": 42.426753, "lng": -89.0254623, "obsValid": true, "obsReviewed": false, "locationPrivate": true, "subId": "S291050129"}, {"speciesCode": "whbnut", "comName": "White-breasted Nuthatch", "sciName": "Sitta carolinensis", "locId": "L1259962", "locName": "Home", "obsDt": "2025-12-29 13:26", "howMany": 1, "lat": 42.426753, "lng": -89.0254623, "obsValid": true, "obsReviewed": false, "locationPrivate": true, "subId": "S291050129"}, {"speciesCode": "rebnut", "comName": "Red-breasted Nuthatch", "sciName": "Sitta canadensis", "locId": "L1259962", "locName": "Home", "obsDt": "2025-12-29 13:26", "howMany": 1, "lat": 42.426753, "lng": -89.0254623, "obsValid": true, "obsReviewed": false, "locationPrivate": true, "subId": "S291050129"}, {"speciesCode": "eursta", "comName": "European Starling", "sciName": "Sturnus vulgaris", "locId": "L1259962", "locName": "Home", "obsDt": "2025-12-29 13:26", "howMany": 6, "lat": 42.426753, "lng": -89.0254623, "obsValid": true, "obsReviewed": false, "locationPrivate": true, "subId": "S291050129", "exoticCategory": "N"}, {"speciesCode": "amtspa", "comName": "American Tree Sparrow", "sciName": "Spizelloides arborea", "locId": "L1259962", "locName": "Home", "obsDt": "2025-12-29 13:26", "howMany": 1, "lat": 42.426753, "lng": -89.0254623, "obsValid": true, "obsReviewed": false, "locationPrivate": true, "subId": "S291050129"}, {"speciesCode": "amegfi", "comName": "American Goldfinch", "sciName": "Spinus tristis", "locId": "L13585161", "locName": "St. Anthony Field", "obsDt": "2025-12-29 13:16", "howMany": 2, "lat": 42.2746901, "lng": -89.0077025, "obsValid": true, "obsReviewed": false, "locationPrivate": true, "subId": "S291052470"}, {"speciesCode": "norfli", "comName": "Northern Flicker", "sciName": "Colaptes auratus", "locId": "L353368", "locName": "Rock Cut State Park", "obsDt": "2025-12-29 12:58", "howMany": 1, "lat": 42.3533302, "lng": -88.9863825, "obsValid": true, "obsReviewed": false, "locationPrivate": false, "subId": "S291048079"}, {"speciesCode": "amekes", "comName": "American Kestrel", "sciName": "Falco sparverius", "locId": "L353368", "locName": "Rock Cut State Park", "obsDt": "2025-12-29 12:58", "howMany": 1, "lat": 42.3533302, "lng": -88.9863825, "obsValid": true, "obsReviewed": false, "locationPrivate": false, "subId": "S291048079"}, {"speciesCode": "amecro", "comName": "American Crow", "sciName": "Corvus brachyrhynchos", "locId": "L353368", "locName": "Rock Cut State Park", "obsDt": "2025-12-29 12:58", "howMany": 1, "lat": 42.3533302, "lng": -88.9863825, "obsValid": true, "obsReviewed": false, "locationPrivate": false, "subId": "S291048079"}, {"speciesCode": "easblu", "comName": "Eastern Bluebird", "sciName": "Sialia sialis", "locId": "L353368", "locName": "Rock Cut State Park", "obsDt": "2025-12-29 12:58", "howMany": 3, "lat": 42.3533302, "lng": -88.9863825, "obsValid": true, "obsReviewed": false, "locationPrivate": false, "subId": "S291048079"}, {"speciesCode": "cedwax", "comName": "Cedar Waxwing", "sciName": "Bombycilla cedrorum", "locId": "L353368", "locName": "Rock Cut State Park", "obsDt": "2025-12-29 12:58", "howMany": 5, "lat": 42.3533302, "lng": -88.9863825, "obsValid": true, "obsReviewed": false, "locationPrivate": false, "subId": "S291048079"}, {"speciesCode": "rethaw", "comName": "Red-tailed Hawk", "sciName": "Buteo jamaicensis", "locId": "L2442740", "locName": "Intersection of Perryville and Newburg Rd.", "obsDt": "2025-12-29 12:49", "howMany": 1, "lat": 42.2543154, "lng": -88.9795589, "obsValid": true, "obsReviewed": false, "locationPrivate": true, "subId": "S291042781"}, {"speciesCode": "cangoo", "comName": "Canada Goose", "sciName": "Branta canadensis", "locId": "L4485553", "locName": "Rockford Iqra School/ Vandercook School Park/ Mulford Rd.", "obsDt": "2025-12-29 12:10", "howMany": 10, "lat": 42.2359489, "lng": -89.0007243, "obsValid": true, "obsReviewed": false, "locationPrivate": true, "subId": "S291037011"}, {"speciesCode": "rebwoo", "comName": "Red-bellied Woodpecker", "sciName": "Melanerpes carolinus", "locId": "L13585161", "locName": "St. Anthony Field", "obsDt": "2025-12-29 09:49", "howMany": 1, "lat": 42.2746901, "lng": -89.0077025, "obsValid": true, "obsReviewed": false, "locationPrivate": true, "subId": "S291011877"}, {"speciesCode": "sancra", "comName": "Sandhill Crane", "sciName": "Antigone canadensis", "locId": "L37144441", "locName": "216 Ellsworth St, Rockford US-IL", "obsDt": "2025-12-29 09:00", "howMany": 40, "lat": 42.284831, "lng": -89.078053, "obsValid": true, "obsReviewed": false, "locationPrivate": true, "subId": "S291009486"}, {"speciesCode": "coohaw", "comName": "Cooper's Hawk", "sciName": "Astur cooperii", "locId": "L37144441", "locName": "216 Ellsworth St, Rockford US-IL", "obsDt": "2025-12-29 09:00", "howMany": 1, "lat": 42.284831, "lng": -89.078053, "obsValid": true, "obsReviewed": false, "locationPrivate": true, "subId": "S291009486"}, {"speciesCode": "brncre", "comName": "Brown Creeper", "sciName": "Certhia americana", "locId": "L37144441", "locName": "216 Ellsworth St, Rockford US-IL", "obsDt": "2025-12-29 09:00", "howMany": 1, "lat": 42.284831, "lng": -89.078053, "obsValid": true, "obsReviewed": false, "locationPrivate": true, "subId": "S291009486"}, {"speciesCode": "bnhcow", "comName": "Brown-headed Cowbird", "sciName": "Molothrus ater", "locId": "L37144441", "locName": "216 Ellsworth St, Rockford US-IL", "obsDt": "2025-12-29 09:00", "howMany": 1, "lat": 42.284831, "lng": -89.078053, "obsValid": true, "obsReviewed": false, "locationPrivate": true, "subId": "S291009486"}, {"speciesCode": "haiwoo", "comName": "Hairy Woodpecker", "sciName": "Leuconotopicus villosus", "locId": "L2624165", "locName": "6055 Safford Road", "obsDt": "2025-12-29 08:00", "howMany": 2, "lat": 42.3055626, "lng": -89.1557908, "obsValid": true, "obsReviewed": false, "locationPrivate": true, "subId": "S291096890"}, {"speciesCode": "tuftit", "comName": "Tufted Titmouse", "sciName": "Baeolophus bicolor", "locId": "L2624165", "locName": "6055 Safford Road", "obsDt": "2025-12-29 08:00", "howMany": 2, "lat": 42.3055626, "lng": -89.1557908, "obsValid": true, "obsReviewed": false, "locationPrivate": true, "subId": "S291096890"}, {"speciesCode": "amerob", "comName": "American Robin", "sciName": "Turdus migratorius", "locId": "L2624165", "locName": "6055 Safford Road", "obsDt": "2025-12-29 08:00", "howMany": 11, "lat": 42.3055626, "lng": -89.1557908, "obsValid": true, "obsReviewed": false, "locationPrivate": true, "subId": "S291096890"}, {"speciesCode": "winwre3", "comName": "Winter Wren", "sciName": "Troglodytes hiemalis", "locId": "L55928596", "locName": "415 Pheon Dr, South Beloit US-IL 42.46174, -89.04873", "obsDt": "2025-12-29 07:58", "howMany": 1, "lat": 42.461744, "lng": -89.048734, "obsValid": true, "obsReviewed": false, "locationPrivate": true, "subId": "S290987512"}, {"speciesCode": "yebsap", "comName": "Yellow-bellied Sapsucker", "sciName": "Sphyrapicus varius", "locId": "L2226061", "locName": "4351 Stagecoach Trail", "obsDt": "2025-12-29", "howMany": 1, "lat": 42.3277761, "lng": -89.1235355, "obsValid": true, "obsReviewed": false, "locationPrivate": true, "subId": "S291164141"}]