[{"speciesCode": "truswa", "comName": "Trumpeter Swan", "sciName": "Cygnus buccinator", "locId": "L19360318", "locName": "603 S Fourth St, Chillicothe US-IL (40.9027,-89.4955)", "obsDt": "2025-12-06 18:18", "howMany": 20, "lat": 40.902723, "lng": -89.495451, "obsValid": true, "obsReviewed": false, "locationPrivate": true, "subId": "S287582506"}, {"speciesCode": "moudov", "comName": "Mourning Dove", "sciName": "Zenaida macroura", "locId": "L4580092", "locName": "Tawny Oaks Field Station", "obsDt": "2025-12-06 14:35", "howMany": 2, "lat": 40.8573884, "lng": -89.6033692, "obsValid": true, "obsReviewed": false, "locationPrivate": false, "subId": "S287565747"}, {"speciesCode": "baleag", "comName": "Bald Eagle", "sciName": "Haliaeetus leucocephalus", "locId": "L4580092", "locName": "Tawny Oaks Field Station", "obsDt": "2025-12-06 14:35", "howMany": 1, "lat": 40.8573884, "lng": -89.6033692, "obsValid": true, "obsReviewed": false, "locationPrivate": false, "subId": "S287565747"}, {"speciesCode": "rehwoo", "comName": "Red-headed Woodpecker", "sciName": "Melanerpes erythrocephalus", "locId": "L4580092", "locName": "Tawny Oaks Field Station", "obsDt": "2025-12-06 14:35", "howMany": 5, "lat": 40.8573884, "lng": -89.6033692, "obsValid": true, "obsReviewed": false, "locationPrivate": false, "subId": "S287565747"}, {"speciesCode": "rebwoo", "comName": "Red-bellied Woodpecker", "sciName": "Melanerpes carolinus", "locId": "L4580092", "locName": "Tawny Oaks Field Station", "obsDt": "2025-12-06 14:35", "howMany": 4, "lat": 40.8573884, "lng": -89.6033692, "obsValid": true, "obsReviewed": false, "locationPrivate": false, "subId": "S287565747"}, {"speciesCode": "dowwoo", "comName": "Downy Woodpecker", "sciName": "Dryobates pubescens", "locId": "L4580092", "locName": "Tawny Oaks Field Station", "obsDt": "2025-12-06 14:35", "howMany": 2, "lat": 40.8573884, "lng": -89.6033692, "obsValid": true, "obsReviewed": false, "locationPrivate": false, "subId": "S287565747"}, {"speciesCode": "norfli", "comName": "Northern Flicker", "sciName": "Colaptes auratus", "locId": "L4580092", "locName": "Tawny Oaks Field Station", "obsDt": "2025-12-06 14:35", "howMany": 4, "lat": 40.8573884, "lng": -89.6033692, "obsValid": true, "obsReviewed": false, "locationPrivate": false, "subId": "S287565747"}, {"speciesCode": "blujay", "comName": "Blue Jay", "sciName": "Cyanocitta cristata", "locId": "L4580092", "locName": "Tawny Oaks Field Station", "obsDt": "2025-12-06 14:35", "howMany": 7, "lat": 40.8573884, "lng": -89.6033692, "obsValid": true, "obsReviewed": false, "locationPrivate": false, "subId": "S287565747"}, {"speciesCode": "bkcchi", "comName": "Black-capped Chickadee", "sciName": "Poecile atricapillus", "locId": "L4580092", "locName": "Tawny Oaks Field Station", "obsDt": "2025-12-06 14:35", "howMany": 8, "lat": 40.8573884, "lng": -89.6033692, "obsValid": true, "obsReviewed": false, "locationPrivate": false, "subId": "S287565747"}, {"speciesCode": "tuftit", "comName": "Tufted Titmouse", "sciName": "Baeolophus bicolor", "locId": "L4580092", "locName": "Tawny Oaks Field Station", "obsDt": "2025-12-06 14:35", "howMany": 1, "lat": 40.8573884, "lng": -89.6033692, "obsValid": true, "obsReviewed": false, "locationPrivate": false, "subId": "S287565747"}, {"speciesCode": "whbnut", "comName": "White-breasted Nuthatch", "sciName": "Sitta carolinensis", "locId": "L4580092", "locName": "Tawny Oaks Field Station", "obsDt": "2025-12-06 14:35", "howMany": 3, "lat": 40.8573884, "lng": -89.6033692, "obsValid": true, "obsReviewed": false, "locationPrivate": false, "subId": "S287565747"}, {"speciesCode": "eursta", "comName": "European Starling", "sciName": "Sturnus vulgaris", "locId": "L4580092", "locName": "Tawny Oaks Field Station", "obsDt": "2025-12-06 14:35", "howMany": 3, "lat": 40.8573884, "lng": -89.6033692, "obsValid": true, "obsReviewed": false, "locationPrivate": false, "subId": "S287565747", "exoticCategory": "N"}, {"speciesCode": "easblu", "comName": "Eastern Bluebird", "sciName": "Sialia sialis", "locId": "L4580092", "locName": "Tawny Oaks Field Station", "obsDt": "2025-12-06 14:35", "howMany": 2, "lat": 40.8573884, "lng": -89.6033692, "obsValid": true, "obsReviewed": false, "locationPrivate": false, "subId": "S287565747"}, {"speciesCode": "cedwax", "comName": "Cedar Waxwing", "sciName": "Bombycilla cedrorum", "locId": "L4580092", "locName": "Tawny Oaks Field Station", "obsDt": "2025-12-06 14:35", "howMany": 4, "lat": 40.8573884, "lng": -89.6033692, "obsValid": true, "obsReviewed": false, "locationPrivate": false, "subId": "S287565747"}, {"speciesCode": "houspa", "comName": "House Sparrow", "sciName": "Passer domesticus", "locId": "L4580092", "locName": "Tawny Oaks Field Station", "obsDt": "2025-12-06 14:35", "howMany": 7, "lat": 40.8573884, "lng": -89.6033692, "obsValid": true, "obsReviewed": false, "locationPrivate": false, "subId": "S287565747", "exoticCategory": "N"}, {"speciesCode": "purfin", "comName": "Purple Finch", "sciName": "Haemorhous purpureus", "locId": "L4580092", "locName": "Tawny Oaks Field Station", "obsDt": "2025-12-06 14:35", "howMany": 2, "lat": 40.8573884, "lng": -89.6033692, "obsValid": true, "obsReviewed": false, "locationPrivate": false, "subId": "S287565747"}, {"speciesCode": "amtspa", "comName": "American Tree Sparrow", "sciName": "Spizelloides arborea", "locId": "L4580092", "locName": "Tawny Oaks Field Station", "obsDt": "2025-12-06 14:35", "howMany": 50, "lat": 40.8573884, "lng": -89.6033692, "obsValid": true, "obsReviewed": false, "locationPrivate": false, "subId": "S287565747"}, {"speciesCode": "daejun", "comName": "Dark-eyed Junco", "sciName": "Junco hyemalis", "locId": "L4580092", "locName": "Tawny Oaks Field Station", "obsDt": "2025-12-06 14:35", "howMany": 60, "lat": 40.8573884, "lng": -89.6033692, "obsValid": true, "obsReviewed": false, "locationPrivate": false, "subId": "S287565747"}, {"speciesCode": "norcar", "comName": "Northern Cardinal", "sciName": "Cardinalis cardinalis", "locId": "L4580092", "locName": "Tawny Oaks Field Station", "obsDt": "2025-12-06 14:35", "howMany": 1, "lat": 40.8573884, "lng": -89.6033692, "obsValid": true, "obsReviewed": false, "locationPrivate": false, "subId": "S287565747"}, {"speciesCode": "buffle", "comName": "Bufflehead", "sciName": "Bucephala albeola", "locId": "L3223280", "locName": "Nellie Jackson Park", "obsDt": "2025-12-06 13:51", "howMany": 3, "lat": 40.8584541, "lng": -89.5241117, "obsValid": true, "obsReviewed": false, "locationPrivate": false, "subId": "S287585264"}, {"speciesCode": "comgol", "comName": "Common Goldeneye", "sciName": "Bucephala clangula", "locId": "L3223280", "locName": "Nellie Jackson Park", "obsDt": "2025-12-06 13:51", "howMany": 29, "lat": 40.8584541, "lng": -89.5241117, "obsValid": true, "obsReviewed": false, "locationPrivate": false, "subId": "S287585264"}, {"speciesCode": "amerob", "comName": "American Robin", "sciName": "Turdus migratorius", "locId": "L3223280", "locName": "Nellie Jackson Park", "obsDt": "2025-12-06 13:51", "howMany": 2, "lat": 40.8584541, "lng": -89.5241117, "obsValid": true, "obsReviewed": false, "locationPrivate": false, "subId": "S287585264"}, {"speciesCode": "houfin", "comName": "House Finch", "sciName": "Haemorhous mexicanus", "locId": "L55112680", "locName": "927 W Oakview Dr, Peoria US-IL (40.8109,-89.6065)", "obsDt": "2025-12-06 13:41", "howMany": 3, "lat": 40.810886, "lng": -89.60648, "obsValid": true, "obsReviewed": false, "locationPrivate": true, "subId": "S287551546", "exoticCategory": "N"}, {"speciesCode": "amecro", "comName": "American Crow", "sciName": "Corvus brachyrhynchos", "locId": "L45602713", "locName": "Home", "obsDt": "2025-12-06 12:00", "lat": 40.769799, "lng": -89.584436, "obsValid": true, "obsReviewed": false, "locationPrivate": true, "subId": "S287531841"}, {"speciesCode": "amegfi", "comName": "American Goldfinch", "sciName": "Spinus tristis", "locId": "L45602713", "locName": "Home", "obsDt": "2025-12-06 12:00", "howMany": 3, "lat": 40.769799, "lng": -89.584436, "obsValid": true, "obsReviewed": false, "locationPrivate": true, "subId": "S287531841"}, {"speciesCode": "foxspa", "comName": "Fox Sparrow", "sciName": "Passerella iliaca", "locId": "L45602713", "locName": "Home", "obsDt": "2025-12-06 12:00", "howMany": 1, "lat": 40.769799, "lng": -89.584436, "obsValid": true, "obsReviewed": false, "locationPrivate": true, "subId": "S287531841"}, {"speciesCode": "whtspa", "comName": "White-throated Sparrow", "sciName": "Zonotrichia albicollis", "locId": "L45602713", "locName": "Home", "obsDt": "2025-12-06 12:00", "howMany": 3, "lat": 40.769799, "lng": -89.584436, "obsValid": true, "obsReviewed": false, "locationPrivate": true, "subId": "S287531841"}, {"speciesCode": "rocpig", "comName": "Rock Pigeon", "sciName": "Columba livia", "locId": "L7256024", "locName": "Chillicothe Bottoms Wildlife Sanctuary", "obsDt": "2025-12-06 11:04", "howMany": 50, "lat": 40.9273088, "lng": -89.4789266, "obsValid": true, "obsReviewed": false, "locationPrivate": false, "subId": "S287532958", "exoticCategory": "N"}, {"speciesCode": "ribgul", "comName": "Ring-billed Gull", "sciName": "Larus delawarensis", "locId": "L7256024", "locName": "Chillicothe Bottoms Wildlife Sanctuary", "obsDt": "2025-12-06 11:04", "howMany": 35, "lat": 40.9273088, "lng": -89.4789266, "obsValid": true, "obsReviewed": false, "locationPrivate": false, "subId": "S287532958"}, {"speciesCode": "rethaw", "comName": "Red-tailed Hawk", "sciName": "Buteo jamaicensis", "locId": "L7256024", "locName": "Chillicothe Bottoms Wildlife Sanctuary", "obsDt": "2025-12-06 11:04", "howMany": 1, "lat": 40.9273088, "lng": -89.4789266, "obsValid": true, "obsReviewed": false, "locationPrivate": false, "subId": "S287532958"}, {"speciesCode": "carwre", "comName": "Carolina Wren", "sciName": "Thryothorus ludovicianus", "locId": "L297069", "locName": "Forest Park Nature Center", "obsDt": "2025-12-06 08:31", "howMany": 2, "lat": 40.7592353, "lng": -89.5750752, "obsValid": true, "obsReviewed": false, "locationPrivate": false, "subId": "S287564887"}, {"speciesCode": "sonspa", "comName": "Song Sparrow", "sciName": "Melospiza melodia", "locId": "L297069", "locName": "Forest Park Nature Center", "obsDt": "2025-12-06 08:31", "howMany": 1, "lat": 40.7592353, "lng": -89.5750752, "obsValid": true, "obsReviewed": false, "locationPrivate": false, "subId": "S287564887"}, {"speciesCode": "cangoo", "comName": "Canada Goose", "sciName": "Branta canadensis", "locId": "L8948029", "locName": "Cobblestone Lakes (Rural Residential/Limited Access)", "obsDt": "2025-12-06 07:54", "howMany": 120, "lat": 40.721431, "lng": -89.7565474, "obsValid": true, "obsReviewed": false, "locationPrivate": true, "subId": "S287494549"}, {"speciesCode": "haiwoo", "comName": "Hairy Woodpecker", "sciName": "Leuconotopicus villosus", "locId": "L8948029", "locName": "Cobblestone Lakes (Rural Residential/Limited Access)", "obsDt": "2025-12-06 07:54", "howMany": 1, "lat": 40.721431, "lng": -89.7565474, "obsValid": true, "obsReviewed": false, "locationPrivate": true, "subId": "S287494549"}, {"speciesCode": "whcspa", "comName": "White-crowned Sparrow", "sciName": "Zonotrichia leucophrys", "locId": "L8948029", "locName": "Cobblestone Lakes (Rural Residential/Limited Access)", "obsDt": "2025-12-06 07:54", "howMany": 2, "lat": 40.721431, "lng": -89.7565474, "obsValid": true, "obsReviewed": false, "locationPrivate": true, "subId": "S287494549"}, {"speciesCode": "bnhcow", "comName": "Brown-headed Cowbird", "sciName": "Molothrus ater", "locId": "L8948029", "locName": "Cobblestone Lakes (Rural Residential/Limited Access)", "obsDt": "2025-12-06 07:54", "howMany": 1, "lat": 40.721431, "lng": -89.7565474, "obsValid": true, "obsReviewed": false, "locationPrivate": true, "subId": "S287494549"}]