[{"speciesCode": "cangoo", "comName": "Canada Goose", "sciName": "Branta canadensis", "locId": "L11468452", "locName": "Irisdale Pond", "obsDt": "2025-12-24 16:01", "howMany": 250, "lat": 39.8372114, "lng": -89.5763397, "obsValid": true, "obsReviewed": false, "locationPrivate": true, "subId": "S290066338"}, {"speciesCode": "mallar3", "comName": "Mallard", "sciName": "Anas platyrhynchos", "locId": "L11468452", "locName": "Irisdale Pond", "obsDt": "2025-12-24 16:01", "howMany": 5, "lat": 39.8372114, "lng": -89.5763397, "obsValid": true, "obsReviewed": false, "locationPrivate": true, "subId": "S290066338"}, {"speciesCode": "rocpig", "comName": "Rock Pigeon", "sciName": "Columba livia", "locId": "L11468452", "locName": "Irisdale Pond", "obsDt": "2025-12-24 16:01", "howMany": 9, "lat": 39.8372114, "lng": -89.5763397, "obsValid": true, "obsReviewed": false, "locationPrivate": true, "subId": "S290066338", "exoticCategory": "N"}, {"speciesCode": "moudov", "comName": "Mourning Dove", "sciName": "Zenaida macroura", "locId": "L11468452", "locName": "Irisdale Pond", "obsDt": "2025-12-24 16:01", "howMany": 1, "lat": 39.8372114, "lng": -89.5763397, "obsValid": true, "obsReviewed": false, "locationPrivate": true, "subId": "S290066338"}, {"speciesCode": "ribgul", "comName": "Ring-billed Gull", "sciName": "Larus delawarensis", "locId": "L11468452", "locName": "Irisdale Pond", "obsDt": "2025-12-24 16:01", "howMany": 5, "lat": 39.8372114, "lng": -89.5763397, "obsValid": true, "obsReviewed": false, "locationPrivate": true, "subId": "S290066338"}, {"speciesCode": "blujay", "comName": "Blue Jay", "sciName": "Cyanocitta cristata", "locId": "L11468452", "locName": "Irisdale Pond", "obsDt": "2025-12-24 16:01", "howMany": 3, "lat": 39.8372114, "lng": -89.5763397, "obsValid": true, "obsReviewed": false, "locationPrivate": true, "subId": "S290066338"}, {"speciesCode": "rehwoo", "comName": "Red-headed Woodpecker", "sciName": "Melanerpes erythrocephalus", "locId": "L24292731", "locName": "Carpenter Park, Springfield", "obsDt": "2025-12-24 14:00", "howMany": 4, "lat": 39.8714069, "lng": -89.6185875, "obsValid": true, "obsReviewed": false, "locationPrivate": false, "subId": "S290368921"}, {"speciesCode": "rebwoo", "comName": "Red-bellied Woodpecker", "sciName": "Melanerpes carolinus", "locId": "L24292731", "locName": "Carpenter Park, Springfield", "obsDt": "2025-12-24 14:00", "howMany": 3, "lat": 39.8714069, "lng": -89.6185875, "obsValid": true, "obsReviewed": false, "locationPrivate": false, "subId": "S290368921"}, {"speciesCode": "norfli", "comName": "Northern Flicker", "sciName": "Colaptes auratus", "locId": "L24292731", "locName": "Carpenter Park, Springfield", "obsDt": "2025-12-24 14:00", "howMany": 3, "lat": 39.8714069, "lng": -89.6185875, "obsValid": true, "obsReviewed": false, "locationPrivate": false, "subId": "S290368921"}, {"speciesCode": "bkcchi", "comName": "Black-capped Chickadee", "sciName": "Poecile atricapillus", "locId": "L24292731", "locName": "Carpenter Park, Springfield", "obsDt": "2025-12-24 14:00", "lat": 39.8714069, "lng": -89.6185875, "obsValid": true, "obsReviewed": false, "locationPrivate": false, "subId": "S290368921"}, {"speciesCode": "tuftit", "comName": "Tufted Titmouse", "sciName": "Baeolophus bicolor", "locId": "L24292731", "locName": "Carpenter Park, Springfield", "obsDt": "2025-12-24 14:00", "lat": 39.8714069, "lng": -89.6185875, "obsValid": true, "obsReviewed": false, "locationPrivate": false, "subId": "S290368921"}, {"speciesCode": "amerob", "comName": "American Robin", "sciName": "Turdus migratorius", "locId": "L24292731", "locName": "Carpenter Park, Springfield", "obsDt": "2025-12-24 14:00", "howMany": 10, "lat": 39.8714069, "lng": -89.6185875, "obsValid": true, "obsReviewed": false, "locationPrivate": false, "subId": "S290368921"}, {"speciesCode": "daejun", "comName": "Dark-eyed Junco", "sciName": "Junco hyemalis", "locId": "L24292731", "locName": "Carpenter Park, Springfield", "obsDt": "2025-12-24 14:00", "howMany": 2, "lat": 39.8714069, "lng": -89.6185875, "obsValid": true, "obsReviewed": false, "locationPrivate": false, "subId": "S290368921"}, {"speciesCode": "norcar", "comName": "Northern Cardinal", "sciName": "Cardinalis cardinalis", "locId": "L24292731", "locName": "Carpenter Park, Springfield", "obsDt": "2025-12-24 14:00", "howMany": 1, "lat": 39.8714069, "lng": -89.6185875, "obsValid": true, "obsReviewed": false, "locationPrivate": false, "subId": "S290368921"}, {"speciesCode": "belkin1", "comName": "Belted Kingfisher", "sciName": "Megaceryle alcyon", "locId": "L56293035", "locName": "Winch Rd", "obsDt": "2025-12-24 13:45", "howMany": 1, "lat": 39.8283648, "lng": -89.7016383, "obsValid": true, "obsReviewed": false, "locationPrivate": true, "subId": "S290045437"}, {"speciesCode": "eucdov", "comName": "Eurasian Collared-Dove", "sciName": "Streptopelia decaocto", "locId": "L56292926", "locName": "Country Lake Rd", "obsDt": "2025-12-24 13:10", "howMany": 2, "lat": 39.807455, "lng": -89.793294, "obsValid": true, "obsReviewed": false, "locationPrivate": true, "subId": "S290044957", "exoticCategory": "N"}, {"speciesCode": "wooduc", "comName": "Wood Duck", "sciName": "Aix sponsa", "locId": "L748379", "locName": "Washington Park, Springfield", "obsDt": "2025-12-24 11:47", "howMany": 1, "lat": 39.7885665, "lng": -89.6800661, "obsValid": true, "obsReviewed": false, "locationPrivate": false, "subId": "S290052511"}, {"speciesCode": "amewig", "comName": "American Wigeon", "sciName": "Mareca americana", "locId": "L748379", "locName": "Washington Park, Springfield", "obsDt": "2025-12-24 11:47", "howMany": 2, "lat": 39.7885665, "lng": -89.6800661, "obsValid": true, "obsReviewed": false, "locationPrivate": false, "subId": "S290052511"}, {"speciesCode": "coohaw", "comName": "Cooper's Hawk", "sciName": "Astur cooperii", "locId": "L748379", "locName": "Washington Park, Springfield", "obsDt": "2025-12-24 11:47", "howMany": 1, "lat": 39.7885665, "lng": -89.6800661, "obsValid": true, "obsReviewed": false, "locationPrivate": false, "subId": "S290052511"}, {"speciesCode": "dowwoo", "comName": "Downy Woodpecker", "sciName": "Dryobates pubescens", "locId": "L748379", "locName": "Washington Park, Springfield", "obsDt": "2025-12-24 11:47", "howMany": 3, "lat": 39.7885665, "lng": -89.6800661, "obsValid": true, "obsReviewed": false, "locationPrivate": false, "subId": "S290052511"}, {"speciesCode": "whbnut", "comName": "White-breasted Nuthatch", "sciName": "Sitta carolinensis", "locId": "L748379", "locName": "Washington Park, Springfield", "obsDt": "2025-12-24 11:47", "howMany": 5, "lat": 39.7885665, "lng": -89.6800661, "obsValid": true, "obsReviewed": false, "locationPrivate": false, "subId": "S290052511"}, {"speciesCode": "carwre", "comName": "Carolina Wren", "sciName": "Thryothorus ludovicianus", "locId": "L748379", "locName": "Washington Park, Springfield", "obsDt": "2025-12-24 11:47", "howMany": 1, "lat": 39.7885665, "lng": -89.6800661, "obsValid": true, "obsReviewed": false, "locationPrivate": false, "subId": "S290052511"}, {"speciesCode": "eursta", "comName": "European Starling", "sciName": "Sturnus vulgaris", "locId": "L748379", "locName": "Washington Park, Springfield", "obsDt": "2025-12-24 11:47", "howMany": 50, "lat": 39.7885665, "lng": -89.6800661, "obsValid": true, "obsReviewed": false, "locationPrivate": false, "subId": "S290052511", "exoticCategory": "N"}, {"speciesCode": "easblu", "comName": "Eastern Bluebird", "sciName": "Sialia sialis", "locId": "L748379", "locName": "Washington Park, Springfield", "obsDt": "2025-12-24 11:47", "howMany": 3, "lat": 39.7885665, "lng": -89.6800661, "obsValid": true, "obsReviewed": false, "locationPrivate": false, "subId": "S290052511"}, {"speciesCode": "houspa", "comName": "House Sparrow", "sciName": "Passer domesticus", "locId": "L748379", "locName": "Washington Park, Springfield", "obsDt": "2025-12-24 11:47", "howMany": 16, "lat": 39.7885665, "lng": -89.6800661, "obsValid": true, "obsReviewed": false, "locationPrivate": false, "subId": "S290052511", "exoticCategory": "N"}, {"speciesCode": "houfin", "comName": "House Finch", "sciName": "Haemorhous mexicanus", "locId": "L748379", "locName": "Washington Park, Springfield", "obsDt": "2025-12-24 11:47", "howMany": 1, "lat": 39.7885665, "lng": -89.6800661, "obsValid": true, "obsReviewed": false, "locationPrivate": false, "subId": "S290052511", "exoticCategory": "N"}, {"speciesCode": "amegfi", "comName": "American Goldfinch", "sciName": "Spinus tristis", "locId": "L748379", "locName": "Washington Park, Springfield", "obsDt": "2025-12-24 11:47", "howMany": 3, "lat": 39.7885665, "lng": -89.6800661, "obsValid": true, "obsReviewed": false, "locationPrivate": false, "subId": "S290052511"}, {"speciesCode": "foxspa", "comName": "Fox Sparrow", "sciName": "Passerella iliaca", "locId": "L748379", "locName": "Washington Park, Springfield", "obsDt": "2025-12-24 11:47", "howMany": 2, "lat": 39.7885665, "lng": -89.6800661, "obsValid": true, "obsReviewed": false, "locationPrivate": false, "subId": "S290052511"}, {"speciesCode": "whtspa", "comName": "White-throated Sparrow", "sciName": "Zonotrichia albicollis", "locId": "L748379", "locName": "Washington Park, Springfield", "obsDt": "2025-12-24 11:47", "howMany": 26, "lat": 39.7885665, "lng": -89.6800661, "obsValid": true, "obsReviewed": false, "locationPrivate": false, "subId": "S290052511"}, {"speciesCode": "amekes", "comName": "American Kestrel", "sciName": "Falco sparverius", "locId": "L56295557", "locName": "IH-55 (39.530, -89.646)", "obsDt": "2025-12-24 11:30", "howMany": 2, "lat": 39.5298697, "lng": -89.6458837, "obsValid": true, "obsReviewed": false, "locationPrivate": true, "subId": "S290056654"}, {"speciesCode": "comgol", "comName": "Common Goldeneye", "sciName": "Bucephala clangula", "locId": "L10748395", "locName": "Lincoln Greens Golf Course, Springfield US-IL 39.74738, -89.59530", "obsDt": "2025-12-24 10:58", "howMany": 65, "lat": 39.747377, "lng": -89.595298, "obsValid": true, "obsReviewed": false, "locationPrivate": true, "subId": "S290005458"}, {"speciesCode": "amhgul1", "comName": "American Herring Gull", "sciName": "Larus smithsonianus", "locId": "L10748395", "locName": "Lincoln Greens Golf Course, Springfield US-IL 39.74738, -89.59530", "obsDt": "2025-12-24 10:58", "howMany": 4, "lat": 39.747377, "lng": -89.595298, "obsValid": true, "obsReviewed": false, "locationPrivate": true, "subId": "S290005458"}, {"speciesCode": "swaspa", "comName": "Swamp Sparrow", "sciName": "Melospiza georgiana", "locId": "L10748395", "locName": "Lincoln Greens Golf Course, Springfield US-IL 39.74738, -89.59530", "obsDt": "2025-12-24 10:58", "howMany": 4, "lat": 39.747377, "lng": -89.595298, "obsValid": true, "obsReviewed": false, "locationPrivate": true, "subId": "S290005458"}, {"speciesCode": "snogoo", "comName": "Snow Goose", "sciName": "Anser caerulescens", "locId": "L164830", "locName": "Lincoln Memorial Garden Park, Lake Springfield", "obsDt": "2025-12-24 10:29", "howMany": 43, "lat": 39.6984305, "lng": -89.5968747, "obsValid": true, "obsReviewed": false, "locationPrivate": false, "subId": "S290041598"}, {"speciesCode": "turvul", "comName": "Turkey Vulture", "sciName": "Cathartes aura", "locId": "L164830", "locName": "Lincoln Memorial Garden Park, Lake Springfield", "obsDt": "2025-12-24 10:29", "howMany": 1, "lat": 39.6984305, "lng": -89.5968747, "obsValid": true, "obsReviewed": false, "locationPrivate": false, "subId": "S290041598"}, {"speciesCode": "pilwoo", "comName": "Pileated Woodpecker", "sciName": "Dryocopus pileatus", "locId": "L164830", "locName": "Lincoln Memorial Garden Park, Lake Springfield", "obsDt": "2025-12-24 10:29", "howMany": 1, "lat": 39.6984305, "lng": -89.5968747, "obsValid": true, "obsReviewed": false, "locationPrivate": false, "subId": "S290041598"}, {"speciesCode": "mutswa", "comName": "Mute Swan", "sciName": "Cygnus olor", "locId": "L5102396", "locName": "Farm and Home Pond", "obsDt": "2025-12-24 08:30", "howMany": 2, "lat": 39.7609511, "lng": -89.7099781, "obsValid": true, "obsReviewed": false, "locationPrivate": false, "subId": "S289981389", "exoticCategory": "N"}, {"speciesCode": "amecro", "comName": "American Crow", "sciName": "Corvus brachyrhynchos", "locId": "L5102396", "locName": "Farm and Home Pond", "obsDt": "2025-12-24 08:30", "howMany": 2, "lat": 39.7609511, "lng": -89.7099781, "obsValid": true, "obsReviewed": false, "locationPrivate": false, "subId": "S289981389"}, {"speciesCode": "reshaw", "comName": "Red-shouldered Hawk", "sciName": "Buteo lineatus", "locId": "L2585109", "locName": "840 Independence Ridge", "obsDt": "2025-12-24 08:23", "howMany": 2, "lat": 39.808824, "lng": -89.6974468, "obsValid": true, "obsReviewed": false, "locationPrivate": true, "subId": "S290130363"}, {"speciesCode": "yebsap", "comName": "Yellow-bellied Sapsucker", "sciName": "Sphyrapicus varius", "locId": "L2585109", "locName": "840 Independence Ridge", "obsDt": "2025-12-24 08:23", "howMany": 2, "lat": 39.808824, "lng": -89.6974468, "obsValid": true, "obsReviewed": false, "locationPrivate": true, "subId": "S290130363"}, {"speciesCode": "rebnut", "comName": "Red-breasted Nuthatch", "sciName": "Sitta canadensis", "locId": "L2585109", "locName": "840 Independence Ridge", "obsDt": "2025-12-24 08:23", "howMany": 1, "lat": 39.808824, "lng": -89.6974468, "obsValid": true, "obsReviewed": false, "locationPrivate": true, "subId": "S290130363"}]