[{"speciesCode": "grhowl", "comName": "Great Horned Owl", "sciName": "Bubo virginianus", "locId": "L1623693", "locName": "Fermilab (Kane Co.)", "obsDt": "2025-12-16 17:16", "howMany": 1, "lat": 41.8454773, "lng": -88.270244, "obsValid": true, "obsReviewed": false, "locationPrivate": false, "subId": "S288899748"}, {"speciesCode": "cangoo", "comName": "Canada Goose", "sciName": "Branta canadensis", "locId": "L10095932", "locName": "Bennett Park, Geneva", "obsDt": "2025-12-16 16:13", "howMany": 3, "lat": 41.8917281, "lng": -88.3000101, "obsValid": true, "obsReviewed": false, "locationPrivate": false, "subId": "S288891984"}, {"speciesCode": "mallar3", "comName": "Mallard", "sciName": "Anas platyrhynchos", "locId": "L10095932", "locName": "Bennett Park, Geneva", "obsDt": "2025-12-16 16:13", "howMany": 20, "lat": 41.8917281, "lng": -88.3000101, "obsValid": true, "obsReviewed": false, "locationPrivate": false, "subId": "S288891984"}, {"speciesCode": "glagul", "comName": "Glaucous Gull", "sciName": "Larus hyperboreus", "locId": "L10095932", "locName": "Bennett Park, Geneva", "obsDt": "2025-12-16 16:13", "howMany": 1, "lat": 41.8917281, "lng": -88.3000101, "obsValid": true, "obsReviewed": true, "locationPrivate": false, "subId": "S288891984"}, {"speciesCode": "baleag", "comName": "Bald Eagle", "sciName": "Haliaeetus leucocephalus", "locId": "L11447522", "locName": "Fox River Trail--North of Jon Duerr To SEBA Park", "obsDt": "2025-12-16 16:09", "howMany": 1, "lat": 41.9818928, "lng": -88.2948696, "obsValid": true, "obsReviewed": false, "locationPrivate": false, "subId": "S288912947"}, {"speciesCode": "rocpig", "comName": "Rock Pigeon", "sciName": "Columba livia", "locId": "L3136348", "locName": "Brunner Family Forest Preserve", "obsDt": "2025-12-16 15:15", "howMany": 1, "lat": 42.1353087, "lng": -88.289094, "obsValid": true, "obsReviewed": false, "locationPrivate": false, "subId": "S288904668", "exoticCategory": "N"}, {"speciesCode": "coohaw", "comName": "Cooper's Hawk", "sciName": "Astur cooperii", "locId": "L3136348", "locName": "Brunner Family Forest Preserve", "obsDt": "2025-12-16 15:15", "howMany": 1, "lat": 42.1353087, "lng": -88.289094, "obsValid": true, "obsReviewed": false, "locationPrivate": false, "subId": "S288904668"}, {"speciesCode": "norhar2", "comName": "Northern Harrier", "sciName": "Circus hudsonius", "locId": "L3136348", "locName": "Brunner Family Forest Preserve", "obsDt": "2025-12-16 15:15", "howMany": 1, "lat": 42.1353087, "lng": -88.289094, "obsValid": true, "obsReviewed": false, "locationPrivate": false, "subId": "S288904668"}, {"speciesCode": "amekes", "comName": "American Kestrel", "sciName": "Falco sparverius", "locId": "L3136348", "locName": "Brunner Family Forest Preserve", "obsDt": "2025-12-16 15:15", "howMany": 1, "lat": 42.1353087, "lng": -88.289094, "obsValid": true, "obsReviewed": false, "locationPrivate": false, "subId": "S288904668"}, {"speciesCode": "eursta", "comName": "European Starling", "sciName": "Sturnus vulgaris", "locId": "L3136348", "locName": "Brunner Family Forest Preserve", "obsDt": "2025-12-16 15:15", "howMany": 80, "lat": 42.1353087, "lng": -88.289094, "obsValid": true, "obsReviewed": false, "locationPrivate": false, "subId": "S288904668", "exoticCategory": "N"}, {"speciesCode": "rethaw", "comName": "Red-tailed Hawk", "sciName": "Buteo jamaicensis", "locId": "L152666", "locName": "LeRoy Oakes Forest Preserve", "obsDt": "2025-12-16 15:11", "howMany": 1, "lat": 41.9273279, "lng": -88.3489453, "obsValid": true, "obsReviewed": false, "locationPrivate": false, "subId": "S289023003"}, {"speciesCode": "rebwoo", "comName": "Red-bellied Woodpecker", "sciName": "Melanerpes carolinus", "locId": "L152666", "locName": "LeRoy Oakes Forest Preserve", "obsDt": "2025-12-16 15:11", "howMany": 2, "lat": 41.9273279, "lng": -88.3489453, "obsValid": true, "obsReviewed": false, "locationPrivate": false, "subId": "S289023003"}, {"speciesCode": "haiwoo", "comName": "Hairy Woodpecker", "sciName": "Leuconotopicus villosus", "locId": "L152666", "locName": "LeRoy Oakes Forest Preserve", "obsDt": "2025-12-16 15:11", "howMany": 1, "lat": 41.9273279, "lng": -88.3489453, "obsValid": true, "obsReviewed": false, "locationPrivate": false, "subId": "S289023003"}, {"speciesCode": "bkcchi", "comName": "Black-capped Chickadee", "sciName": "Poecile atricapillus", "locId": "L152666", "locName": "LeRoy Oakes Forest Preserve", "obsDt": "2025-12-16 15:11", "howMany": 2, "lat": 41.9273279, "lng": -88.3489453, "obsValid": true, "obsReviewed": false, "locationPrivate": false, "subId": "S289023003"}, {"speciesCode": "whbnut", "comName": "White-breasted Nuthatch", "sciName": "Sitta carolinensis", "locId": "L152666", "locName": "LeRoy Oakes Forest Preserve", "obsDt": "2025-12-16 15:11", "howMany": 1, "lat": 41.9273279, "lng": -88.3489453, "obsValid": true, "obsReviewed": false, "locationPrivate": false, "subId": "S289023003"}, {"speciesCode": "herthr", "comName": "Hermit Thrush", "sciName": "Catharus guttatus", "locId": "L152666", "locName": "LeRoy Oakes Forest Preserve", "obsDt": "2025-12-16 15:11", "howMany": 1, "lat": 41.9273279, "lng": -88.3489453, "obsValid": true, "obsReviewed": false, "locationPrivate": false, "subId": "S289023003"}, {"speciesCode": "amerob", "comName": "American Robin", "sciName": "Turdus migratorius", "locId": "L152666", "locName": "LeRoy Oakes Forest Preserve", "obsDt": "2025-12-16 15:11", "howMany": 2, "lat": 41.9273279, "lng": -88.3489453, "obsValid": true, "obsReviewed": false, "locationPrivate": false, "subId": "S289023003"}, {"speciesCode": "amtspa", "comName": "American Tree Sparrow", "sciName": "Spizelloides arborea", "locId": "L152666", "locName": "LeRoy Oakes Forest Preserve", "obsDt": "2025-12-16 14:57", "howMany": 5, "lat": 41.9273279, "lng": -88.3489453, "obsValid": true, "obsReviewed": false, "locationPrivate": false, "subId": "S288893129"}, {"speciesCode": "norcar", "comName": "Northern Cardinal", "sciName": "Cardinalis cardinalis", "locId": "L152666", "locName": "LeRoy Oakes Forest Preserve", "obsDt": "2025-12-16 14:57", "howMany": 1, "lat": 41.9273279, "lng": -88.3489453, "obsValid": true, "obsReviewed": false, "locationPrivate": false, "subId": "S288893129"}, {"speciesCode": "comgol", "comName": "Common Goldeneye", "sciName": "Bucephala clangula", "locId": "L379563", "locName": "Fox River--West Dundee", "obsDt": "2025-12-16 14:48", "howMany": 3, "lat": 42.0995081, "lng": -88.2785904, "obsValid": true, "obsReviewed": false, "locationPrivate": false, "subId": "S288904770"}, {"speciesCode": "hoomer", "comName": "Hooded Merganser", "sciName": "Lophodytes cucullatus", "locId": "L379563", "locName": "Fox River--West Dundee", "obsDt": "2025-12-16 14:48", "howMany": 1, "lat": 42.0995081, "lng": -88.2785904, "obsValid": true, "obsReviewed": false, "locationPrivate": false, "subId": "S288904770"}, {"speciesCode": "moudov", "comName": "Mourning Dove", "sciName": "Zenaida macroura", "locId": "L379563", "locName": "Fox River--West Dundee", "obsDt": "2025-12-16 14:48", "howMany": 1, "lat": 42.0995081, "lng": -88.2785904, "obsValid": true, "obsReviewed": false, "locationPrivate": false, "subId": "S288904770"}, {"speciesCode": "amhgul1", "comName": "American Herring Gull", "sciName": "Larus smithsonianus", "locId": "L379563", "locName": "Fox River--West Dundee", "obsDt": "2025-12-16 14:48", "howMany": 1, "lat": 42.0995081, "lng": -88.2785904, "obsValid": true, "obsReviewed": false, "locationPrivate": false, "subId": "S288904770"}, {"speciesCode": "dowwoo", "comName": "Downy Woodpecker", "sciName": "Dryobates pubescens", "locId": "L712385", "locName": "Island Park, Geneva", "obsDt": "2025-12-16 14:00", "howMany": 1, "lat": 41.884671, "lng": -88.3022515, "obsValid": true, "obsReviewed": false, "locationPrivate": false, "subId": "S288894122"}, {"speciesCode": "brncre", "comName": "Brown Creeper", "sciName": "Certhia americana", "locId": "L712385", "locName": "Island Park, Geneva", "obsDt": "2025-12-16 14:00", "howMany": 1, "lat": 41.884671, "lng": -88.3022515, "obsValid": true, "obsReviewed": false, "locationPrivate": false, "subId": "S288894122"}, {"speciesCode": "winwre3", "comName": "Winter Wren", "sciName": "Troglodytes hiemalis", "locId": "L712385", "locName": "Island Park, Geneva", "obsDt": "2025-12-16 14:00", "howMany": 1, "lat": 41.884671, "lng": -88.3022515, "obsValid": true, "obsReviewed": false, "locationPrivate": false, "subId": "S288894122"}, {"speciesCode": "amepip", "comName": "American Pipit", "sciName": "Anthus rubescens", "locId": "L712385", "locName": "Island Park, Geneva", "obsDt": "2025-12-16 14:00", "howMany": 1, "lat": 41.884671, "lng": -88.3022515, "obsValid": true, "obsReviewed": false, "locationPrivate": false, "subId": "S288894122"}, {"speciesCode": "amecro", "comName": "American Crow", "sciName": "Corvus brachyrhynchos", "locId": "L712385", "locName": "Island Park, Geneva", "obsDt": "2025-12-16 12:39", "howMany": 1, "lat": 41.884671, "lng": -88.3022515, "obsValid": true, "obsReviewed": false, "locationPrivate": false, "subId": "S288869695"}, {"speciesCode": "ribgul", "comName": "Ring-billed Gull", "sciName": "Larus delawarensis", "locId": "L17077703", "locName": "Carpentersville Dam", "obsDt": "2025-12-16 12:30", "howMany": 1, "lat": 42.1148346, "lng": -88.2909066, "obsValid": true, "obsReviewed": false, "locationPrivate": true, "subId": "S288886012"}, {"speciesCode": "belkin1", "comName": "Belted Kingfisher", "sciName": "Megaceryle alcyon", "locId": "L17077703", "locName": "Carpentersville Dam", "obsDt": "2025-12-16 12:30", "howMany": 1, "lat": 42.1148346, "lng": -88.2909066, "obsValid": true, "obsReviewed": false, "locationPrivate": true, "subId": "S288886012"}, {"speciesCode": "daejun", "comName": "Dark-eyed Junco", "sciName": "Junco hyemalis", "locId": "L17077703", "locName": "Carpentersville Dam", "obsDt": "2025-12-16 12:30", "howMany": 1, "lat": 42.1148346, "lng": -88.2909066, "obsValid": true, "obsReviewed": false, "locationPrivate": true, "subId": "S288886012"}, {"speciesCode": "grbher3", "comName": "Great Blue Heron", "sciName": "Ardea herodias", "locId": "L712385", "locName": "Island Park, Geneva", "obsDt": "2025-12-16 12:25", "howMany": 2, "lat": 41.884671, "lng": -88.3022515, "obsValid": true, "obsReviewed": false, "locationPrivate": false, "subId": "S288868650"}, {"speciesCode": "blujay", "comName": "Blue Jay", "sciName": "Cyanocitta cristata", "locId": "L712385", "locName": "Island Park, Geneva", "obsDt": "2025-12-16 12:25", "howMany": 1, "lat": 41.884671, "lng": -88.3022515, "obsValid": true, "obsReviewed": false, "locationPrivate": false, "subId": "S288868650"}, {"speciesCode": "savspa", "comName": "Savannah Sparrow", "sciName": "Passerculus sandwichensis", "locId": "L11506524", "locName": "Seavey Road", "obsDt": "2025-12-16 12:00", "howMany": 2, "lat": 41.8314176, "lng": -88.4229998, "obsValid": true, "obsReviewed": false, "locationPrivate": true, "subId": "S288866776"}, {"speciesCode": "commer", "comName": "Common Merganser", "sciName": "Mergus merganser", "locId": "L56042199", "locName": "Geneva Dam", "obsDt": "2025-12-16 11:38", "howMany": 2, "lat": 41.8880905, "lng": -88.3021301, "obsValid": true, "obsReviewed": false, "locationPrivate": false, "subId": "S288862349"}, {"speciesCode": "lbbgul", "comName": "Lesser Black-backed Gull", "sciName": "Larus fuscus", "locId": "L712385", "locName": "Island Park, Geneva", "obsDt": "2025-12-16 10:15", "howMany": 1, "lat": 41.884671, "lng": -88.3022515, "obsValid": true, "obsReviewed": false, "locationPrivate": false, "subId": "S288882650"}, {"speciesCode": "rebnut", "comName": "Red-breasted Nuthatch", "sciName": "Sitta canadensis", "locId": "L6992160", "locName": "Fabyan Forest Preserve--Japanese Gardens", "obsDt": "2025-12-16 10:09", "howMany": 1, "lat": 41.8703378, "lng": -88.3117291, "obsValid": true, "obsReviewed": false, "locationPrivate": false, "subId": "S288855708"}, {"speciesCode": "cedwax", "comName": "Cedar Waxwing", "sciName": "Bombycilla cedrorum", "locId": "L6992160", "locName": "Fabyan Forest Preserve--Japanese Gardens", "obsDt": "2025-12-16 10:09", "howMany": 5, "lat": 41.8703378, "lng": -88.3117291, "obsValid": true, "obsReviewed": false, "locationPrivate": false, "subId": "S288855708"}, {"speciesCode": "houfin", "comName": "House Finch", "sciName": "Haemorhous mexicanus", "locId": "L6992160", "locName": "Fabyan Forest Preserve--Japanese Gardens", "obsDt": "2025-12-16 10:09", "howMany": 4, "lat": 41.8703378, "lng": -88.3117291, "obsValid": true, "obsReviewed": false, "locationPrivate": false, "subId": "S288855708", "exoticCategory": "N"}, {"speciesCode": "pinsis", "comName": "Pine Siskin", "sciName": "Spinus pinus", "locId": "L6992160", "locName": "Fabyan Forest Preserve--Japanese Gardens", "obsDt": "2025-12-16 10:09", "howMany": 1, "lat": 41.8703378, "lng": -88.3117291, "obsValid": true, "obsReviewed": false, "locationPrivate": false, "subId": "S288855708"}, {"speciesCode": "amegfi", "comName": "American Goldfinch", "sciName": "Spinus tristis", "locId": "L6992160", "locName": "Fabyan Forest Preserve--Japanese Gardens", "obsDt": "2025-12-16 10:09", "howMany": 4, "lat": 41.8703378, "lng": -88.3117291, "obsValid": true, "obsReviewed": false, "locationPrivate": false, "subId": "S288855708"}, {"speciesCode": "foxspa", "comName": "Fox Sparrow", "sciName": "Passerella iliaca", "locId": "L6992160", "locName": "Fabyan Forest Preserve--Japanese Gardens", "obsDt": "2025-12-16 10:09", "howMany": 1, "lat": 41.8703378, "lng": -88.3117291, "obsValid": true, "obsReviewed": false, "locationPrivate": false, "subId": "S288855708"}, {"speciesCode": "whtspa", "comName": "White-throated Sparrow", "sciName": "Zonotrichia albicollis", "locId": "L6992160", "locName": "Fabyan Forest Preserve--Japanese Gardens", "obsDt": "2025-12-16 10:09", "howMany": 3, "lat": 41.8703378, "lng": -88.3117291, "obsValid": true, "obsReviewed": false, "locationPrivate": false, "subId": "S288855708"}, {"speciesCode": "rewbla", "comName": "Red-winged Blackbird", "sciName": "Agelaius phoeniceus", "locId": "L6992160", "locName": "Fabyan Forest Preserve--Japanese Gardens", "obsDt": "2025-12-16 10:09", "howMany": 2, "lat": 41.8703378, "lng": -88.3117291, "obsValid": true, "obsReviewed": false, "locationPrivate": false, "subId": "S288855708"}, {"speciesCode": "houspa", "comName": "House Sparrow", "sciName": "Passer domesticus", "locId": "L712385", "locName": "Island Park, Geneva", "obsDt": "2025-12-16 09:36", "howMany": 3, "lat": 41.884671, "lng": -88.3022515, "obsValid": true, "obsReviewed": false, "locationPrivate": false, "subId": "S288876571", "exoticCategory": "N"}, {"speciesCode": "ambduc", "comName": "American Black Duck", "sciName": "Anas rubripes", "locId": "L1070338", "locName": "Quarry Park, Batavia", "obsDt": "2025-12-16 09:05", "howMany": 1, "lat": 41.843574, "lng": -88.3101225, "obsValid": true, "obsReviewed": false, "locationPrivate": false, "subId": "S288846425"}, {"speciesCode": "gockin", "comName": "Golden-crowned Kinglet", "sciName": "Regulus satrapa", "locId": "L1070338", "locName": "Quarry Park, Batavia", "obsDt": "2025-12-16 09:05", "howMany": 1, "lat": 41.843574, "lng": -88.3101225, "obsValid": true, "obsReviewed": false, "locationPrivate": false, "subId": "S288846425"}, {"speciesCode": "sonspa", "comName": "Song Sparrow", "sciName": "Melospiza melodia", "locId": "L1070338", "locName": "Quarry Park, Batavia", "obsDt": "2025-12-16 09:05", "howMany": 1, "lat": 41.843574, "lng": -88.3101225, "obsValid": true, "obsReviewed": false, "locationPrivate": false, "subId": "S288846425"}]