[{"speciesCode": "laplon", "comName": "Lapland Longspur", "sciName": "Calcarius lapponicus", "locId": "L55651423", "locName": "430\u2013478 County Road 1900 N, Champaign US-IL 40.15681, -88.37654", "obsDt": "2025-12-01 16:36", "howMany": 20, "lat": 40.156808, "lng": -88.376536, "obsValid": true, "obsReviewed": false, "locationPrivate": true, "subId": "S286991025"}, {"speciesCode": "horlar", "comName": "Horned Lark", "sciName": "Eremophila alpestris", "locId": "L55650477", "locName": "501\u2013599 County Road 1800 N, Champaign US-IL 40.14221, -88.36623", "obsDt": "2025-12-01 16:30", "howMany": 15, "lat": 40.142209, "lng": -88.366232, "obsValid": true, "obsReviewed": false, "locationPrivate": true, "subId": "S286986612"}, {"speciesCode": "gwfgoo", "comName": "Greater White-fronted Goose", "sciName": "Anser albifrons", "locId": "L23448868", "locName": "Heather's 6000 Bradley Ave", "obsDt": "2025-12-01 16:16", "howMany": 5, "lat": 40.1281125, "lng": -88.3294995, "obsValid": true, "obsReviewed": false, "locationPrivate": true, "subId": "S286990917"}, {"speciesCode": "cangoo", "comName": "Canada Goose", "sciName": "Branta canadensis", "locId": "L23448868", "locName": "Heather's 6000 Bradley Ave", "obsDt": "2025-12-01 16:16", "howMany": 60, "lat": 40.1281125, "lng": -88.3294995, "obsValid": true, "obsReviewed": false, "locationPrivate": true, "subId": "S286990917"}, {"speciesCode": "rinphe1", "comName": "Ring-necked Pheasant", "sciName": "Phasianus colchicus", "locId": "L23448868", "locName": "Heather's 6000 Bradley Ave", "obsDt": "2025-12-01 16:16", "howMany": 10, "lat": 40.1281125, "lng": -88.3294995, "obsValid": true, "obsReviewed": false, "locationPrivate": true, "subId": "S286990917", "exoticCategory": "N"}, {"speciesCode": "ribgul", "comName": "Ring-billed Gull", "sciName": "Larus delawarensis", "locId": "L10114908", "locName": "University of Illinois at Urbana-Champaign", "obsDt": "2025-12-01 15:07", "howMany": 1, "lat": 40.1023436, "lng": -88.2271762, "obsValid": true, "obsReviewed": false, "locationPrivate": false, "subId": "S286977759"}, {"speciesCode": "amecro", "comName": "American Crow", "sciName": "Corvus brachyrhynchos", "locId": "L10114908", "locName": "University of Illinois at Urbana-Champaign", "obsDt": "2025-12-01 15:07", "howMany": 2, "lat": 40.1023436, "lng": -88.2271762, "obsValid": true, "obsReviewed": false, "locationPrivate": false, "subId": "S286977759"}, {"speciesCode": "rethaw", "comName": "Red-tailed Hawk", "sciName": "Buteo jamaicensis", "locId": "L55249307", "locName": "stakeout Loggerhead Shrike, Mahomet (2025)", "obsDt": "2025-12-01 13:49", "howMany": 1, "lat": 40.23808, "lng": -88.41138, "obsValid": true, "obsReviewed": false, "locationPrivate": false, "subId": "S286970377"}, {"speciesCode": "amekes", "comName": "American Kestrel", "sciName": "Falco sparverius", "locId": "L55249307", "locName": "stakeout Loggerhead Shrike, Mahomet (2025)", "obsDt": "2025-12-01 13:49", "howMany": 1, "lat": 40.23808, "lng": -88.41138, "obsValid": true, "obsReviewed": false, "locationPrivate": false, "subId": "S286970377"}, {"speciesCode": "moudov", "comName": "Mourning Dove", "sciName": "Zenaida macroura", "locId": "L21536695", "locName": "1560 County Road 1000 North, Philo, Illinois, US (40.025, -88.17)", "obsDt": "2025-12-01 13:42", "howMany": 25, "lat": 40.0253488, "lng": -88.1696566, "obsValid": true, "obsReviewed": false, "locationPrivate": true, "subId": "S286974697"}, {"speciesCode": "daejun", "comName": "Dark-eyed Junco", "sciName": "Junco hyemalis", "locId": "L21536695", "locName": "1560 County Road 1000 North, Philo, Illinois, US (40.025, -88.17)", "obsDt": "2025-12-01 13:42", "howMany": 2, "lat": 40.0253488, "lng": -88.1696566, "obsValid": true, "obsReviewed": false, "locationPrivate": true, "subId": "S286974697"}, {"speciesCode": "rewbla", "comName": "Red-winged Blackbird", "sciName": "Agelaius phoeniceus", "locId": "L21536695", "locName": "1560 County Road 1000 North, Philo, Illinois, US (40.025, -88.17)", "obsDt": "2025-12-01 13:42", "howMany": 8, "lat": 40.0253488, "lng": -88.1696566, "obsValid": true, "obsReviewed": false, "locationPrivate": true, "subId": "S286974697"}, {"speciesCode": "norcar", "comName": "Northern Cardinal", "sciName": "Cardinalis cardinalis", "locId": "L21536695", "locName": "1560 County Road 1000 North, Philo, Illinois, US (40.025, -88.17)", "obsDt": "2025-12-01 13:42", "howMany": 2, "lat": 40.0253488, "lng": -88.1696566, "obsValid": true, "obsReviewed": false, "locationPrivate": true, "subId": "S286974697"}, {"speciesCode": "houspa", "comName": "House Sparrow", "sciName": "Passer domesticus", "locId": "L55652279", "locName": "Urbana Meijer", "obsDt": "2025-12-01 13:40", "howMany": 1, "lat": 40.086042, "lng": -88.188317, "obsValid": true, "obsReviewed": false, "locationPrivate": true, "subId": "S286994978", "exoticCategory": "N"}, {"speciesCode": "mallar3", "comName": "Mallard", "sciName": "Anas platyrhynchos", "locId": "L13649904", "locName": "Cnty Rd 2000 N b/w 150 E & N 1500 E", "obsDt": "2025-12-01 13:18", "howMany": 60, "lat": 40.1715671, "lng": -88.4394557, "obsValid": true, "obsReviewed": false, "locationPrivate": true, "subId": "S286968840"}, {"speciesCode": "rinduc", "comName": "Ring-necked Duck", "sciName": "Aythya collaris", "locId": "L13649904", "locName": "Cnty Rd 2000 N b/w 150 E & N 1500 E", "obsDt": "2025-12-01 13:18", "howMany": 7, "lat": 40.1715671, "lng": -88.4394557, "obsValid": true, "obsReviewed": false, "locationPrivate": true, "subId": "S286968840"}, {"speciesCode": "baleag", "comName": "Bald Eagle", "sciName": "Haliaeetus leucocephalus", "locId": "L13649904", "locName": "Cnty Rd 2000 N b/w 150 E & N 1500 E", "obsDt": "2025-12-01 13:18", "howMany": 2, "lat": 40.1715671, "lng": -88.4394557, "obsValid": true, "obsReviewed": false, "locationPrivate": true, "subId": "S286968840"}, {"speciesCode": "rebnut", "comName": "Red-breasted Nuthatch", "sciName": "Sitta canadensis", "locId": "L13649904", "locName": "Cnty Rd 2000 N b/w 150 E & N 1500 E", "obsDt": "2025-12-01 13:18", "howMany": 1, "lat": 40.1715671, "lng": -88.4394557, "obsValid": true, "obsReviewed": false, "locationPrivate": true, "subId": "S286968840"}, {"speciesCode": "easblu", "comName": "Eastern Bluebird", "sciName": "Sialia sialis", "locId": "L13649904", "locName": "Cnty Rd 2000 N b/w 150 E & N 1500 E", "obsDt": "2025-12-01 13:18", "howMany": 3, "lat": 40.1715671, "lng": -88.4394557, "obsValid": true, "obsReviewed": false, "locationPrivate": true, "subId": "S286968840"}, {"speciesCode": "shshaw", "comName": "Sharp-shinned Hawk", "sciName": "Accipiter striatus", "locId": "L250384", "locName": "Lake of the Woods Forest Preserve", "obsDt": "2025-12-01 12:36", "howMany": 1, "lat": 40.2040275, "lng": -88.3868487, "obsValid": true, "obsReviewed": false, "locationPrivate": false, "subId": "S287281106"}, {"speciesCode": "rehwoo", "comName": "Red-headed Woodpecker", "sciName": "Melanerpes erythrocephalus", "locId": "L250384", "locName": "Lake of the Woods Forest Preserve", "obsDt": "2025-12-01 12:36", "howMany": 8, "lat": 40.2040275, "lng": -88.3868487, "obsValid": true, "obsReviewed": false, "locationPrivate": false, "subId": "S287281106"}, {"speciesCode": "rebwoo", "comName": "Red-bellied Woodpecker", "sciName": "Melanerpes carolinus", "locId": "L250384", "locName": "Lake of the Woods Forest Preserve", "obsDt": "2025-12-01 12:36", "howMany": 6, "lat": 40.2040275, "lng": -88.3868487, "obsValid": true, "obsReviewed": false, "locationPrivate": false, "subId": "S287281106"}, {"speciesCode": "dowwoo", "comName": "Downy Woodpecker", "sciName": "Dryobates pubescens", "locId": "L250384", "locName": "Lake of the Woods Forest Preserve", "obsDt": "2025-12-01 12:36", "howMany": 9, "lat": 40.2040275, "lng": -88.3868487, "obsValid": true, "obsReviewed": false, "locationPrivate": false, "subId": "S287281106"}, {"speciesCode": "haiwoo", "comName": "Hairy Woodpecker", "sciName": "Leuconotopicus villosus", "locId": "L250384", "locName": "Lake of the Woods Forest Preserve", "obsDt": "2025-12-01 12:36", "howMany": 1, "lat": 40.2040275, "lng": -88.3868487, "obsValid": true, "obsReviewed": false, "locationPrivate": false, "subId": "S287281106"}, {"speciesCode": "pilwoo", "comName": "Pileated Woodpecker", "sciName": "Dryocopus pileatus", "locId": "L250384", "locName": "Lake of the Woods Forest Preserve", "obsDt": "2025-12-01 12:36", "howMany": 3, "lat": 40.2040275, "lng": -88.3868487, "obsValid": true, "obsReviewed": false, "locationPrivate": false, "subId": "S287281106"}, {"speciesCode": "norfli", "comName": "Northern Flicker", "sciName": "Colaptes auratus", "locId": "L250384", "locName": "Lake of the Woods Forest Preserve", "obsDt": "2025-12-01 12:36", "howMany": 1, "lat": 40.2040275, "lng": -88.3868487, "obsValid": true, "obsReviewed": false, "locationPrivate": false, "subId": "S287281106"}, {"speciesCode": "blujay", "comName": "Blue Jay", "sciName": "Cyanocitta cristata", "locId": "L250384", "locName": "Lake of the Woods Forest Preserve", "obsDt": "2025-12-01 12:36", "howMany": 7, "lat": 40.2040275, "lng": -88.3868487, "obsValid": true, "obsReviewed": false, "locationPrivate": false, "subId": "S287281106"}, {"speciesCode": "bkcchi", "comName": "Black-capped Chickadee", "sciName": "Poecile atricapillus", "locId": "L250384", "locName": "Lake of the Woods Forest Preserve", "obsDt": "2025-12-01 12:36", "howMany": 1, "lat": 40.2040275, "lng": -88.3868487, "obsValid": true, "obsReviewed": false, "locationPrivate": false, "subId": "S287281106"}, {"speciesCode": "tuftit", "comName": "Tufted Titmouse", "sciName": "Baeolophus bicolor", "locId": "L250384", "locName": "Lake of the Woods Forest Preserve", "obsDt": "2025-12-01 12:36", "howMany": 1, "lat": 40.2040275, "lng": -88.3868487, "obsValid": true, "obsReviewed": false, "locationPrivate": false, "subId": "S287281106"}, {"speciesCode": "whbnut", "comName": "White-breasted Nuthatch", "sciName": "Sitta carolinensis", "locId": "L250384", "locName": "Lake of the Woods Forest Preserve", "obsDt": "2025-12-01 12:36", "howMany": 6, "lat": 40.2040275, "lng": -88.3868487, "obsValid": true, "obsReviewed": false, "locationPrivate": false, "subId": "S287281106"}, {"speciesCode": "winwre3", "comName": "Winter Wren", "sciName": "Troglodytes hiemalis", "locId": "L250384", "locName": "Lake of the Woods Forest Preserve", "obsDt": "2025-12-01 12:36", "howMany": 1, "lat": 40.2040275, "lng": -88.3868487, "obsValid": true, "obsReviewed": false, "locationPrivate": false, "subId": "S287281106"}, {"speciesCode": "carwre", "comName": "Carolina Wren", "sciName": "Thryothorus ludovicianus", "locId": "L250384", "locName": "Lake of the Woods Forest Preserve", "obsDt": "2025-12-01 12:36", "howMany": 3, "lat": 40.2040275, "lng": -88.3868487, "obsValid": true, "obsReviewed": false, "locationPrivate": false, "subId": "S287281106"}, {"speciesCode": "houfin", "comName": "House Finch", "sciName": "Haemorhous mexicanus", "locId": "L11310228", "locName": "HOME 110 Flora Dr, Champaign US-IL 40.11503, -88.26602", "obsDt": "2025-12-01 12:10", "howMany": 3, "lat": 40.115025, "lng": -88.266017, "obsValid": true, "obsReviewed": false, "locationPrivate": true, "subId": "S286968182", "exoticCategory": "N"}, {"speciesCode": "foxspa", "comName": "Fox Sparrow", "sciName": "Passerella iliaca", "locId": "L11310228", "locName": "HOME 110 Flora Dr, Champaign US-IL 40.11503, -88.26602", "obsDt": "2025-12-01 12:10", "howMany": 1, "lat": 40.115025, "lng": -88.266017, "obsValid": true, "obsReviewed": false, "locationPrivate": true, "subId": "S286968182"}, {"speciesCode": "whtspa", "comName": "White-throated Sparrow", "sciName": "Zonotrichia albicollis", "locId": "L11310228", "locName": "HOME 110 Flora Dr, Champaign US-IL 40.11503, -88.26602", "obsDt": "2025-12-01 12:10", "howMany": 4, "lat": 40.115025, "lng": -88.266017, "obsValid": true, "obsReviewed": false, "locationPrivate": true, "subId": "S286968182"}, {"speciesCode": "reshaw", "comName": "Red-shouldered Hawk", "sciName": "Buteo lineatus", "locId": "L55708619", "locName": "Road 2425 North, Mahomet, Illinois, US (40.227, -88.385)", "obsDt": "2025-12-01 12:01", "howMany": 1, "lat": 40.2270193, "lng": -88.3849458, "obsValid": true, "obsReviewed": false, "locationPrivate": true, "subId": "S287281095"}, {"speciesCode": "eursta", "comName": "European Starling", "sciName": "Sturnus vulgaris", "locId": "L55708619", "locName": "Road 2425 North, Mahomet, Illinois, US (40.227, -88.385)", "obsDt": "2025-12-01 12:01", "howMany": 2, "lat": 40.2270193, "lng": -88.3849458, "obsValid": true, "obsReviewed": false, "locationPrivate": true, "subId": "S287281095", "exoticCategory": "N"}, {"speciesCode": "amegfi", "comName": "American Goldfinch", "sciName": "Spinus tristis", "locId": "L3809706", "locName": "Helms Park", "obsDt": "2025-12-01 11:25", "howMany": 1, "lat": 40.11342, "lng": -88.2374668, "obsValid": true, "obsReviewed": false, "locationPrivate": false, "subId": "S286985876"}, {"speciesCode": "amtspa", "comName": "American Tree Sparrow", "sciName": "Spizelloides arborea", "locId": "L3809706", "locName": "Helms Park", "obsDt": "2025-12-01 11:25", "howMany": 2, "lat": 40.11342, "lng": -88.2374668, "obsValid": true, "obsReviewed": false, "locationPrivate": false, "subId": "S286985876"}, {"speciesCode": "rocpig", "comName": "Rock Pigeon", "sciName": "Columba livia", "locId": "L55643695", "locName": "I-74, Champaign, Illinois", "obsDt": "2025-12-01 11:14", "howMany": 6, "lat": 40.174648, "lng": -88.327488, "obsValid": true, "obsReviewed": false, "locationPrivate": true, "subId": "S286952332", "exoticCategory": "N"}, {"speciesCode": "cacgoo1", "comName": "Cackling Goose", "sciName": "Branta hutchinsii", "locId": "L225445", "locName": "Homer Lake Champaign County Conservation Area", "obsDt": "2025-12-01 11:03", "howMany": 1, "lat": 40.0654763, "lng": -87.9863213, "obsValid": true, "obsReviewed": false, "locationPrivate": true, "subId": "S286952265"}, {"speciesCode": "tunswa", "comName": "Tundra Swan", "sciName": "Cygnus columbianus", "locId": "L1126198", "locName": "River Bend Forest Preserve", "obsDt": "2025-12-01 10:25", "howMany": 2, "lat": 40.1824734, "lng": -88.4262085, "obsValid": true, "obsReviewed": true, "locationPrivate": false, "subId": "S286964968"}, {"speciesCode": "lessca", "comName": "Lesser Scaup", "sciName": "Aythya affinis", "locId": "L1126198", "locName": "River Bend Forest Preserve", "obsDt": "2025-12-01 10:25", "howMany": 12, "lat": 40.1824734, "lng": -88.4262085, "obsValid": true, "obsReviewed": false, "locationPrivate": false, "subId": "S286964968"}, {"speciesCode": "comgol", "comName": "Common Goldeneye", "sciName": "Bucephala clangula", "locId": "L1126198", "locName": "River Bend Forest Preserve", "obsDt": "2025-12-01 10:25", "howMany": 4, "lat": 40.1824734, "lng": -88.4262085, "obsValid": true, "obsReviewed": false, "locationPrivate": false, "subId": "S286964968"}, {"speciesCode": "hoomer", "comName": "Hooded Merganser", "sciName": "Lophodytes cucullatus", "locId": "L1126198", "locName": "River Bend Forest Preserve", "obsDt": "2025-12-01 10:25", "howMany": 3, "lat": 40.1824734, "lng": -88.4262085, "obsValid": true, "obsReviewed": false, "locationPrivate": false, "subId": "S286964968"}, {"speciesCode": "grbher3", "comName": "Great Blue Heron", "sciName": "Ardea herodias", "locId": "L1126198", "locName": "River Bend Forest Preserve", "obsDt": "2025-12-01 10:25", "howMany": 1, "lat": 40.1824734, "lng": -88.4262085, "obsValid": true, "obsReviewed": false, "locationPrivate": false, "subId": "S286964968"}, {"speciesCode": "belkin1", "comName": "Belted Kingfisher", "sciName": "Megaceryle alcyon", "locId": "L1126198", "locName": "River Bend Forest Preserve", "obsDt": "2025-12-01 10:25", "howMany": 2, "lat": 40.1824734, "lng": -88.4262085, "obsValid": true, "obsReviewed": false, "locationPrivate": false, "subId": "S286964968"}, {"speciesCode": "brncre", "comName": "Brown Creeper", "sciName": "Certhia americana", "locId": "L1126198", "locName": "River Bend Forest Preserve", "obsDt": "2025-12-01 10:25", "howMany": 2, "lat": 40.1824734, "lng": -88.4262085, "obsValid": true, "obsReviewed": false, "locationPrivate": false, "subId": "S286964968"}, {"speciesCode": "amerob", "comName": "American Robin", "sciName": "Turdus migratorius", "locId": "L1126198", "locName": "River Bend Forest Preserve", "obsDt": "2025-12-01 10:25", "howMany": 8, "lat": 40.1824734, "lng": -88.4262085, "obsValid": true, "obsReviewed": false, "locationPrivate": false, "subId": "S286964968"}, {"speciesCode": "sonspa", "comName": "Song Sparrow", "sciName": "Melospiza melodia", "locId": "L1126198", "locName": "River Bend Forest Preserve", "obsDt": "2025-12-01 10:25", "howMany": 1, "lat": 40.1824734, "lng": -88.4262085, "obsValid": true, "obsReviewed": false, "locationPrivate": false, "subId": "S286964968"}, {"speciesCode": "yetwar", "comName": "Yellow-throated Warbler", "sciName": "Setophaga dominica", "locId": "L200211", "locName": "Price home", "obsDt": "2025-12-01 07:10", "howMany": 1, "lat": 40.1149569, "lng": -88.0352425, "obsValid": true, "obsReviewed": true, "locationPrivate": true, "subId": "S286995878"}]