[{"speciesCode": "whtspa", "comName": "White-throated Sparrow", "sciName": "Zonotrichia albicollis", "locId": "L56340745", "locName": "1323 Lincoln Ave S", "obsDt": "2025-12-25 16:34", "howMany": 2, "lat": 42.176392, "lng": -87.785891, "obsValid": true, "obsReviewed": false, "locationPrivate": true, "subId": "S290254900"}, {"speciesCode": "wiltur", "comName": "Wild Turkey", "sciName": "Meleagris gallopavo", "locId": "L8630619", "locName": "80 Buck Avenue", "obsDt": "2025-12-25 15:46", "howMany": 1, "lat": 42.3887186, "lng": -87.8279521, "obsValid": true, "obsReviewed": false, "locationPrivate": true, "subId": "S290259559"}, {"speciesCode": "moudov", "comName": "Mourning Dove", "sciName": "Zenaida macroura", "locId": "L8630619", "locName": "80 Buck Avenue", "obsDt": "2025-12-25 15:46", "howMany": 2, "lat": 42.3887186, "lng": -87.8279521, "obsValid": true, "obsReviewed": false, "locationPrivate": true, "subId": "S290259559"}, {"speciesCode": "rebwoo", "comName": "Red-bellied Woodpecker", "sciName": "Melanerpes carolinus", "locId": "L8630619", "locName": "80 Buck Avenue", "obsDt": "2025-12-25 15:46", "howMany": 1, "lat": 42.3887186, "lng": -87.8279521, "obsValid": true, "obsReviewed": false, "locationPrivate": true, "subId": "S290259559"}, {"speciesCode": "dowwoo", "comName": "Downy Woodpecker", "sciName": "Dryobates pubescens", "locId": "L8630619", "locName": "80 Buck Avenue", "obsDt": "2025-12-25 15:46", "howMany": 2, "lat": 42.3887186, "lng": -87.8279521, "obsValid": true, "obsReviewed": false, "locationPrivate": true, "subId": "S290259559"}, {"speciesCode": "blujay", "comName": "Blue Jay", "sciName": "Cyanocitta cristata", "locId": "L8630619", "locName": "80 Buck Avenue", "obsDt": "2025-12-25 15:46", "howMany": 1, "lat": 42.3887186, "lng": -87.8279521, "obsValid": true, "obsReviewed": false, "locationPrivate": true, "subId": "S290259559"}, {"speciesCode": "rebnut", "comName": "Red-breasted Nuthatch", "sciName": "Sitta canadensis", "locId": "L8630619", "locName": "80 Buck Avenue", "obsDt": "2025-12-25 15:46", "howMany": 1, "lat": 42.3887186, "lng": -87.8279521, "obsValid": true, "obsReviewed": false, "locationPrivate": true, "subId": "S290259559"}, {"speciesCode": "carwre", "comName": "Carolina Wren", "sciName": "Thryothorus ludovicianus", "locId": "L8630619", "locName": "80 Buck Avenue", "obsDt": "2025-12-25 15:46", "howMany": 1, "lat": 42.3887186, "lng": -87.8279521, "obsValid": true, "obsReviewed": false, "locationPrivate": true, "subId": "S290259559"}, {"speciesCode": "houspa", "comName": "House Sparrow", "sciName": "Passer domesticus", "locId": "L8630619", "locName": "80 Buck Avenue", "obsDt": "2025-12-25 15:46", "howMany": 7, "lat": 42.3887186, "lng": -87.8279521, "obsValid": true, "obsReviewed": false, "locationPrivate": true, "subId": "S290259559", "exoticCategory": "N"}, {"speciesCode": "daejun", "comName": "Dark-eyed Junco", "sciName": "Junco hyemalis", "locId": "L8630619", "locName": "80 Buck Avenue", "obsDt": "2025-12-25 15:46", "howMany": 4, "lat": 42.3887186, "lng": -87.8279521, "obsValid": true, "obsReviewed": false, "locationPrivate": true, "subId": "S290259559"}, {"speciesCode": "rewbla", "comName": "Red-winged Blackbird", "sciName": "Agelaius phoeniceus", "locId": "L8630619", "locName": "80 Buck Avenue", "obsDt": "2025-12-25 15:46", "howMany": 3, "lat": 42.3887186, "lng": -87.8279521, "obsValid": true, "obsReviewed": false, "locationPrivate": true, "subId": "S290259559"}, {"speciesCode": "norcar", "comName": "Northern Cardinal", "sciName": "Cardinalis cardinalis", "locId": "L8630619", "locName": "80 Buck Avenue", "obsDt": "2025-12-25 15:46", "howMany": 2, "lat": 42.3887186, "lng": -87.8279521, "obsValid": true, "obsReviewed": false, "locationPrivate": true, "subId": "S290259559"}, {"speciesCode": "rebmer", "comName": "Red-breasted Merganser", "sciName": "Mergus serrator", "locId": "L152708", "locName": "Rosewood Park and Beach, Highland Park", "obsDt": "2025-12-25 15:38", "howMany": 3, "lat": 42.1661709, "lng": -87.7684128, "obsValid": true, "obsReviewed": false, "locationPrivate": false, "subId": "S290254884"}, {"speciesCode": "ribgul", "comName": "Ring-billed Gull", "sciName": "Larus delawarensis", "locId": "L152708", "locName": "Rosewood Park and Beach, Highland Park", "obsDt": "2025-12-25 15:38", "howMany": 2, "lat": 42.1661709, "lng": -87.7684128, "obsValid": true, "obsReviewed": false, "locationPrivate": false, "subId": "S290254884"}, {"speciesCode": "amhgul1", "comName": "American Herring Gull", "sciName": "Larus smithsonianus", "locId": "L152708", "locName": "Rosewood Park and Beach, Highland Park", "obsDt": "2025-12-25 15:38", "howMany": 101, "lat": 42.1661709, "lng": -87.7684128, "obsValid": true, "obsReviewed": false, "locationPrivate": false, "subId": "S290254884"}, {"speciesCode": "cangoo", "comName": "Canada Goose", "sciName": "Branta canadensis", "locId": "L40621980", "locName": "Corner", "obsDt": "2025-12-25 15:22", "howMany": 60, "lat": 42.271405, "lng": -88.126815, "obsValid": true, "obsReviewed": false, "locationPrivate": true, "subId": "S290216386"}, {"speciesCode": "mutswa", "comName": "Mute Swan", "sciName": "Cygnus olor", "locId": "L40621980", "locName": "Corner", "obsDt": "2025-12-25 15:22", "howMany": 12, "lat": 42.271405, "lng": -88.126815, "obsValid": true, "obsReviewed": false, "locationPrivate": true, "subId": "S290216386", "exoticCategory": "N"}, {"speciesCode": "mallar3", "comName": "Mallard", "sciName": "Anas platyrhynchos", "locId": "L40621980", "locName": "Corner", "obsDt": "2025-12-25 15:22", "howMany": 30, "lat": 42.271405, "lng": -88.126815, "obsValid": true, "obsReviewed": false, "locationPrivate": true, "subId": "S290216386"}, {"speciesCode": "amecro", "comName": "American Crow", "sciName": "Corvus brachyrhynchos", "locId": "L25359746", "locName": "Lark Nest", "obsDt": "2025-12-25 15:04", "howMany": 1, "lat": 42.209672, "lng": -87.826414, "obsValid": true, "obsReviewed": false, "locationPrivate": true, "subId": "S290254827"}, {"speciesCode": "bkcchi", "comName": "Black-capped Chickadee", "sciName": "Poecile atricapillus", "locId": "L25359746", "locName": "Lark Nest", "obsDt": "2025-12-25 15:04", "howMany": 2, "lat": 42.209672, "lng": -87.826414, "obsValid": true, "obsReviewed": false, "locationPrivate": true, "subId": "S290254827"}, {"speciesCode": "houfin", "comName": "House Finch", "sciName": "Haemorhous mexicanus", "locId": "L25359746", "locName": "Lark Nest", "obsDt": "2025-12-25 15:04", "howMany": 3, "lat": 42.209672, "lng": -87.826414, "obsValid": true, "obsReviewed": false, "locationPrivate": true, "subId": "S290254827", "exoticCategory": "N"}, {"speciesCode": "whbnut", "comName": "White-breasted Nuthatch", "sciName": "Sitta carolinensis", "locId": "L15682051", "locName": "Gma Kay's", "obsDt": "2025-12-25 14:33", "howMany": 1, "lat": 42.2506025, "lng": -88.0536628, "obsValid": true, "obsReviewed": false, "locationPrivate": true, "subId": "S290206498"}, {"speciesCode": "rethaw", "comName": "Red-tailed Hawk", "sciName": "Buteo jamaicensis", "locId": "L56327961", "locName": "Fort Hill Trail, Mundelein US-IL 42.26123, -88.10081", "obsDt": "2025-12-25 14:21", "howMany": 1, "lat": 42.261226, "lng": -88.100806, "obsValid": true, "obsReviewed": false, "locationPrivate": true, "subId": "S290204050"}, {"speciesCode": "brdowl", "comName": "Barred Owl", "sciName": "Strix varia", "locId": "L124265", "locName": "Independence Grove Forest Preserve--St. Francis Woods", "obsDt": "2025-12-25 14:10", "howMany": 1, "lat": 42.3172694, "lng": -87.9553939, "obsValid": true, "obsReviewed": false, "locationPrivate": false, "subId": "S290234750"}, {"speciesCode": "haiwoo", "comName": "Hairy Woodpecker", "sciName": "Leuconotopicus villosus", "locId": "L124265", "locName": "Independence Grove Forest Preserve--St. Francis Woods", "obsDt": "2025-12-25 14:10", "howMany": 1, "lat": 42.3172694, "lng": -87.9553939, "obsValid": true, "obsReviewed": false, "locationPrivate": false, "subId": "S290234750"}, {"speciesCode": "eursta", "comName": "European Starling", "sciName": "Sturnus vulgaris", "locId": "L124265", "locName": "Independence Grove Forest Preserve--St. Francis Woods", "obsDt": "2025-12-25 14:10", "howMany": 100, "lat": 42.3172694, "lng": -87.9553939, "obsValid": true, "obsReviewed": false, "locationPrivate": false, "subId": "S290234750", "exoticCategory": "N"}, {"speciesCode": "amerob", "comName": "American Robin", "sciName": "Turdus migratorius", "locId": "L124265", "locName": "Independence Grove Forest Preserve--St. Francis Woods", "obsDt": "2025-12-25 14:10", "howMany": 1, "lat": 42.3172694, "lng": -87.9553939, "obsValid": true, "obsReviewed": false, "locationPrivate": false, "subId": "S290234750"}, {"speciesCode": "cedwax", "comName": "Cedar Waxwing", "sciName": "Bombycilla cedrorum", "locId": "L124265", "locName": "Independence Grove Forest Preserve--St. Francis Woods", "obsDt": "2025-12-25 14:10", "howMany": 6, "lat": 42.3172694, "lng": -87.9553939, "obsValid": true, "obsReviewed": false, "locationPrivate": false, "subId": "S290234750"}, {"speciesCode": "amtspa", "comName": "American Tree Sparrow", "sciName": "Spizelloides arborea", "locId": "L124265", "locName": "Independence Grove Forest Preserve--St. Francis Woods", "obsDt": "2025-12-25 14:10", "howMany": 2, "lat": 42.3172694, "lng": -87.9553939, "obsValid": true, "obsReviewed": false, "locationPrivate": false, "subId": "S290234750"}, {"speciesCode": "rocpig", "comName": "Rock Pigeon", "sciName": "Columba livia", "locId": "L4271790", "locName": "Fed Ex Ponds", "obsDt": "2025-12-25 13:57", "howMany": 7, "lat": 42.325409, "lng": -88.031198, "obsValid": true, "obsReviewed": false, "locationPrivate": false, "subId": "S290199834", "exoticCategory": "N"}, {"speciesCode": "brncre", "comName": "Brown Creeper", "sciName": "Certhia americana", "locId": "L152711", "locName": "Ryerson Conservation Area", "obsDt": "2025-12-25 13:54", "howMany": 1, "lat": 42.1795, "lng": -87.9149, "obsValid": true, "obsReviewed": false, "locationPrivate": false, "subId": "S290212128"}, {"speciesCode": "amegfi", "comName": "American Goldfinch", "sciName": "Spinus tristis", "locId": "L152711", "locName": "Ryerson Conservation Area", "obsDt": "2025-12-25 13:54", "howMany": 1, "lat": 42.1795, "lng": -87.9149, "obsValid": true, "obsReviewed": false, "locationPrivate": false, "subId": "S290212128"}, {"speciesCode": "baleag", "comName": "Bald Eagle", "sciName": "Haliaeetus leucocephalus", "locId": "L42105234", "locName": "43174 N Andyville Ln, Antioch US-IL 42.48959, -88.13168", "obsDt": "2025-12-25 13:50", "howMany": 8, "lat": 42.489592, "lng": -88.131677, "obsValid": true, "obsReviewed": false, "locationPrivate": true, "subId": "S290199395"}, {"speciesCode": "belkin1", "comName": "Belted Kingfisher", "sciName": "Megaceryle alcyon", "locId": "L42105234", "locName": "43174 N Andyville Ln, Antioch US-IL 42.48959, -88.13168", "obsDt": "2025-12-25 13:50", "howMany": 1, "lat": 42.489592, "lng": -88.131677, "obsValid": true, "obsReviewed": false, "locationPrivate": true, "subId": "S290199395"}, {"speciesCode": "lessca", "comName": "Lesser Scaup", "sciName": "Aythya affinis", "locId": "L298982", "locName": "Independence Grove Forest Preserve", "obsDt": "2025-12-25 13:46", "howMany": 1, "lat": 42.3104406, "lng": -87.9510555, "obsValid": true, "obsReviewed": false, "locationPrivate": false, "subId": "S290234737"}, {"speciesCode": "comgol", "comName": "Common Goldeneye", "sciName": "Bucephala clangula", "locId": "L298982", "locName": "Independence Grove Forest Preserve", "obsDt": "2025-12-25 13:46", "howMany": 18, "lat": 42.3104406, "lng": -87.9510555, "obsValid": true, "obsReviewed": false, "locationPrivate": false, "subId": "S290234737"}, {"speciesCode": "hoomer", "comName": "Hooded Merganser", "sciName": "Lophodytes cucullatus", "locId": "L298982", "locName": "Independence Grove Forest Preserve", "obsDt": "2025-12-25 13:46", "howMany": 21, "lat": 42.3104406, "lng": -87.9510555, "obsValid": true, "obsReviewed": false, "locationPrivate": false, "subId": "S290234737"}, {"speciesCode": "commer", "comName": "Common Merganser", "sciName": "Mergus merganser", "locId": "L298982", "locName": "Independence Grove Forest Preserve", "obsDt": "2025-12-25 13:46", "howMany": 2, "lat": 42.3104406, "lng": -87.9510555, "obsValid": true, "obsReviewed": false, "locationPrivate": false, "subId": "S290234737"}, {"speciesCode": "y00475", "comName": "American Coot", "sciName": "Fulica americana", "locId": "L298982", "locName": "Independence Grove Forest Preserve", "obsDt": "2025-12-25 13:46", "howMany": 1, "lat": 42.3104406, "lng": -87.9510555, "obsValid": true, "obsReviewed": false, "locationPrivate": false, "subId": "S290234737"}, {"speciesCode": "rehwoo", "comName": "Red-headed Woodpecker", "sciName": "Melanerpes erythrocephalus", "locId": "L152711", "locName": "Ryerson Conservation Area", "obsDt": "2025-12-25 13:45", "howMany": 1, "lat": 42.1795, "lng": -87.9149, "obsValid": true, "obsReviewed": false, "locationPrivate": false, "subId": "S290329427"}, {"speciesCode": "pilwoo", "comName": "Pileated Woodpecker", "sciName": "Dryocopus pileatus", "locId": "L152711", "locName": "Ryerson Conservation Area", "obsDt": "2025-12-25 13:45", "howMany": 1, "lat": 42.1795, "lng": -87.9149, "obsValid": true, "obsReviewed": false, "locationPrivate": false, "subId": "S290329427"}, {"speciesCode": "easblu", "comName": "Eastern Bluebird", "sciName": "Sialia sialis", "locId": "L453843", "locName": "Fort Sheridan Forest Preserve", "obsDt": "2025-12-25 12:11", "howMany": 1, "lat": 42.2226954, "lng": -87.8155446, "obsValid": true, "obsReviewed": false, "locationPrivate": false, "subId": "S290188292"}, {"speciesCode": "amekes", "comName": "American Kestrel", "sciName": "Falco sparverius", "locId": "L26465386", "locName": "Kettle Grove Forest Preserve", "obsDt": "2025-12-25 11:59", "howMany": 1, "lat": 42.3249071, "lng": -88.1282383, "obsValid": true, "obsReviewed": false, "locationPrivate": false, "subId": "S290179052"}, {"speciesCode": "grbher3", "comName": "Great Blue Heron", "sciName": "Ardea herodias", "locId": "L55847541", "locName": "Riverside Park, Libertyville US-IL 42.27382, -87.93943", "obsDt": "2025-12-25 11:53", "howMany": 1, "lat": 42.273816, "lng": -87.939434, "obsValid": true, "obsReviewed": false, "locationPrivate": true, "subId": "S290192922"}, {"speciesCode": "pinsis", "comName": "Pine Siskin", "sciName": "Spinus pinus", "locId": "L55847541", "locName": "Riverside Park, Libertyville US-IL 42.27382, -87.93943", "obsDt": "2025-12-25 11:53", "howMany": 2, "lat": 42.273816, "lng": -87.939434, "obsValid": true, "obsReviewed": false, "locationPrivate": true, "subId": "S290192922"}, {"speciesCode": "sonspa", "comName": "Song Sparrow", "sciName": "Melospiza melodia", "locId": "L55847541", "locName": "Riverside Park, Libertyville US-IL 42.27382, -87.93943", "obsDt": "2025-12-25 11:53", "howMany": 1, "lat": 42.273816, "lng": -87.939434, "obsValid": true, "obsReviewed": false, "locationPrivate": true, "subId": "S290192922"}, {"speciesCode": "norfli", "comName": "Northern Flicker", "sciName": "Colaptes auratus", "locId": "L26465386", "locName": "Kettle Grove Forest Preserve", "obsDt": "2025-12-25 11:28", "howMany": 1, "lat": 42.3249071, "lng": -88.1282383, "obsValid": true, "obsReviewed": false, "locationPrivate": false, "subId": "S290187280"}, {"speciesCode": "whcspa", "comName": "White-crowned Sparrow", "sciName": "Zonotrichia leucophrys", "locId": "L26465386", "locName": "Kettle Grove Forest Preserve", "obsDt": "2025-12-25 11:28", "howMany": 1, "lat": 42.3249071, "lng": -88.1282383, "obsValid": true, "obsReviewed": false, "locationPrivate": false, "subId": "S290187280"}, {"speciesCode": "rinduc", "comName": "Ring-necked Duck", "sciName": "Aythya collaris", "locId": "L298982", "locName": "Independence Grove Forest Preserve", "obsDt": "2025-12-25 11:05", "howMany": 1, "lat": 42.3104406, "lng": -87.9510555, "obsValid": true, "obsReviewed": false, "locationPrivate": false, "subId": "S290254344"}, {"speciesCode": "norhar2", "comName": "Northern Harrier", "sciName": "Circus hudsonius", "locId": "L298982", "locName": "Independence Grove Forest Preserve", "obsDt": "2025-12-25 11:05", "howMany": 1, "lat": 42.3104406, "lng": -87.9510555, "obsValid": true, "obsReviewed": false, "locationPrivate": false, "subId": "S290254344"}, {"speciesCode": "buffle", "comName": "Bufflehead", "sciName": "Bucephala albeola", "locId": "L152655", "locName": "Illinois Beach SP--South Unit", "obsDt": "2025-12-25 10:20", "howMany": 3, "lat": 42.4203, "lng": -87.8078, "obsValid": true, "obsReviewed": false, "locationPrivate": false, "subId": "S290163444"}, {"speciesCode": "coohaw", "comName": "Cooper's Hawk", "sciName": "Astur cooperii", "locId": "L25359746", "locName": "Lark Nest", "obsDt": "2025-12-25 09:43", "howMany": 1, "lat": 42.209672, "lng": -87.826414, "obsValid": true, "obsReviewed": false, "locationPrivate": true, "subId": "S290254816"}, {"speciesCode": "ambduc", "comName": "American Black Duck", "sciName": "Anas rubripes", "locId": "L190873", "locName": "North Point Marina/State Line Beach, Winthrop Harbor", "obsDt": "2025-12-25 09:15", "howMany": 2, "lat": 42.4877956, "lng": -87.8023911, "obsValid": true, "obsReviewed": false, "locationPrivate": false, "subId": "S290206301"}, {"speciesCode": "canvas", "comName": "Canvasback", "sciName": "Aythya valisineria", "locId": "L190873", "locName": "North Point Marina/State Line Beach, Winthrop Harbor", "obsDt": "2025-12-25 09:15", "howMany": 1, "lat": 42.4877956, "lng": -87.8023911, "obsValid": true, "obsReviewed": false, "locationPrivate": false, "subId": "S290206301"}, {"speciesCode": "redhea", "comName": "Redhead", "sciName": "Aythya americana", "locId": "L190873", "locName": "North Point Marina/State Line Beach, Winthrop Harbor", "obsDt": "2025-12-25 09:15", "howMany": 1, "lat": 42.4877956, "lng": -87.8023911, "obsValid": true, "obsReviewed": false, "locationPrivate": false, "subId": "S290206301"}, {"speciesCode": "rudduc", "comName": "Ruddy Duck", "sciName": "Oxyura jamaicensis", "locId": "L190873", "locName": "North Point Marina/State Line Beach, Winthrop Harbor", "obsDt": "2025-12-25 09:15", "howMany": 10, "lat": 42.4877956, "lng": -87.8023911, "obsValid": true, "obsReviewed": false, "locationPrivate": false, "subId": "S290206301"}, {"speciesCode": "tuftit", "comName": "Tufted Titmouse", "sciName": "Baeolophus bicolor", "locId": "L28462487", "locName": "home", "obsDt": "2025-12-25 08:45", "howMany": 1, "lat": 42.1624718, "lng": -87.8963547, "obsValid": true, "obsReviewed": false, "locationPrivate": true, "subId": "S290242595"}, {"speciesCode": "eurgol", "comName": "European Goldfinch", "sciName": "Carduelis carduelis", "locId": "L37668683", "locName": "Kruger Rd.", "obsDt": "2025-12-25 08:39", "howMany": 60, "lat": 42.2263799, "lng": -88.0645807, "obsValid": true, "obsReviewed": false, "locationPrivate": false, "subId": "S290139144", "exoticCategory": "N"}, {"speciesCode": "easowl1", "comName": "Eastern Screech-Owl", "sciName": "Megascops asio", "locId": "L1882431", "locName": "Hastings Lake Forest Preserve", "obsDt": "2025-12-25 08:30", "howMany": 1, "lat": 42.4239673, "lng": -88.0378486, "obsValid": true, "obsReviewed": false, "locationPrivate": false, "subId": "S290149518"}, {"speciesCode": "foxspa", "comName": "Fox Sparrow", "sciName": "Passerella iliaca", "locId": "L269914", "locName": "A  Bird House Our yard", "obsDt": "2025-12-25 08:30", "howMany": 1, "lat": 42.378523, "lng": -88.165377, "obsValid": true, "obsReviewed": false, "locationPrivate": true, "subId": "S290668032"}]