[{"speciesCode": "grhowl", "comName": "Great Horned Owl", "sciName": "Bubo virginianus", "locId": "L31682149", "locName": "Home", "obsDt": "2025-12-05 16:45", "howMany": 1, "lat": 42.060173, "lng": -88.390007, "obsValid": true, "obsReviewed": false, "locationPrivate": true, "subId": "S288663542"}, {"speciesCode": "cangoo", "comName": "Canada Goose", "sciName": "Branta canadensis", "locId": "L212823", "locName": "Sauer Prairie Kame", "obsDt": "2025-12-05 16:21", "howMany": 2700, "lat": 41.8068127, "lng": -88.4869279, "obsValid": true, "obsReviewed": false, "locationPrivate": false, "subId": "S287428640"}, {"speciesCode": "mallar3", "comName": "Mallard", "sciName": "Anas platyrhynchos", "locId": "L212823", "locName": "Sauer Prairie Kame", "obsDt": "2025-12-05 16:21", "howMany": 150, "lat": 41.8068127, "lng": -88.4869279, "obsValid": true, "obsReviewed": false, "locationPrivate": false, "subId": "S287428640"}, {"speciesCode": "moudov", "comName": "Mourning Dove", "sciName": "Zenaida macroura", "locId": "L212823", "locName": "Sauer Prairie Kame", "obsDt": "2025-12-05 16:21", "howMany": 7, "lat": 41.8068127, "lng": -88.4869279, "obsValid": true, "obsReviewed": false, "locationPrivate": false, "subId": "S287428640"}, {"speciesCode": "norhar2", "comName": "Northern Harrier", "sciName": "Circus hudsonius", "locId": "L212823", "locName": "Sauer Prairie Kame", "obsDt": "2025-12-05 16:21", "howMany": 1, "lat": 41.8068127, "lng": -88.4869279, "obsValid": true, "obsReviewed": false, "locationPrivate": false, "subId": "S287428640"}, {"speciesCode": "merlin", "comName": "Merlin", "sciName": "Falco columbarius", "locId": "L212823", "locName": "Sauer Prairie Kame", "obsDt": "2025-12-05 16:21", "howMany": 1, "lat": 41.8068127, "lng": -88.4869279, "obsValid": true, "obsReviewed": false, "locationPrivate": false, "subId": "S287428640"}, {"speciesCode": "amtspa", "comName": "American Tree Sparrow", "sciName": "Spizelloides arborea", "locId": "L212823", "locName": "Sauer Prairie Kame", "obsDt": "2025-12-05 16:21", "howMany": 5, "lat": 41.8068127, "lng": -88.4869279, "obsValid": true, "obsReviewed": false, "locationPrivate": false, "subId": "S287428640"}, {"speciesCode": "daejun", "comName": "Dark-eyed Junco", "sciName": "Junco hyemalis", "locId": "L212823", "locName": "Sauer Prairie Kame", "obsDt": "2025-12-05 16:21", "howMany": 9, "lat": 41.8068127, "lng": -88.4869279, "obsValid": true, "obsReviewed": false, "locationPrivate": false, "subId": "S287428640"}, {"speciesCode": "whtspa", "comName": "White-throated Sparrow", "sciName": "Zonotrichia albicollis", "locId": "L212823", "locName": "Sauer Prairie Kame", "obsDt": "2025-12-05 16:21", "howMany": 1, "lat": 41.8068127, "lng": -88.4869279, "obsValid": true, "obsReviewed": false, "locationPrivate": false, "subId": "S287428640"}, {"speciesCode": "rocpig", "comName": "Rock Pigeon", "sciName": "Columba livia", "locId": "L2623397", "locName": "Home", "obsDt": "2025-12-05 14:40", "howMany": 5, "lat": 41.7387526, "lng": -88.4991968, "obsValid": true, "obsReviewed": false, "locationPrivate": true, "subId": "S287428724", "exoticCategory": "N"}, {"speciesCode": "rethaw", "comName": "Red-tailed Hawk", "sciName": "Buteo jamaicensis", "locId": "L2623397", "locName": "Home", "obsDt": "2025-12-05 14:40", "howMany": 1, "lat": 41.7387526, "lng": -88.4991968, "obsValid": true, "obsReviewed": false, "locationPrivate": true, "subId": "S287428724"}, {"speciesCode": "rehwoo", "comName": "Red-headed Woodpecker", "sciName": "Melanerpes erythrocephalus", "locId": "L2623397", "locName": "Home", "obsDt": "2025-12-05 14:40", "howMany": 1, "lat": 41.7387526, "lng": -88.4991968, "obsValid": true, "obsReviewed": false, "locationPrivate": true, "subId": "S287428724"}, {"speciesCode": "rebwoo", "comName": "Red-bellied Woodpecker", "sciName": "Melanerpes carolinus", "locId": "L2623397", "locName": "Home", "obsDt": "2025-12-05 14:40", "howMany": 2, "lat": 41.7387526, "lng": -88.4991968, "obsValid": true, "obsReviewed": false, "locationPrivate": true, "subId": "S287428724"}, {"speciesCode": "dowwoo", "comName": "Downy Woodpecker", "sciName": "Dryobates pubescens", "locId": "L2623397", "locName": "Home", "obsDt": "2025-12-05 14:40", "howMany": 3, "lat": 41.7387526, "lng": -88.4991968, "obsValid": true, "obsReviewed": false, "locationPrivate": true, "subId": "S287428724"}, {"speciesCode": "haiwoo", "comName": "Hairy Woodpecker", "sciName": "Leuconotopicus villosus", "locId": "L2623397", "locName": "Home", "obsDt": "2025-12-05 14:40", "howMany": 1, "lat": 41.7387526, "lng": -88.4991968, "obsValid": true, "obsReviewed": false, "locationPrivate": true, "subId": "S287428724"}, {"speciesCode": "norfli", "comName": "Northern Flicker", "sciName": "Colaptes auratus", "locId": "L2623397", "locName": "Home", "obsDt": "2025-12-05 14:40", "howMany": 2, "lat": 41.7387526, "lng": -88.4991968, "obsValid": true, "obsReviewed": false, "locationPrivate": true, "subId": "S287428724"}, {"speciesCode": "blujay", "comName": "Blue Jay", "sciName": "Cyanocitta cristata", "locId": "L2623397", "locName": "Home", "obsDt": "2025-12-05 14:40", "howMany": 5, "lat": 41.7387526, "lng": -88.4991968, "obsValid": true, "obsReviewed": false, "locationPrivate": true, "subId": "S287428724"}, {"speciesCode": "bkcchi", "comName": "Black-capped Chickadee", "sciName": "Poecile atricapillus", "locId": "L2623397", "locName": "Home", "obsDt": "2025-12-05 14:40", "howMany": 4, "lat": 41.7387526, "lng": -88.4991968, "obsValid": true, "obsReviewed": false, "locationPrivate": true, "subId": "S287428724"}, {"speciesCode": "tuftit", "comName": "Tufted Titmouse", "sciName": "Baeolophus bicolor", "locId": "L2623397", "locName": "Home", "obsDt": "2025-12-05 14:40", "howMany": 2, "lat": 41.7387526, "lng": -88.4991968, "obsValid": true, "obsReviewed": false, "locationPrivate": true, "subId": "S287428724"}, {"speciesCode": "whbnut", "comName": "White-breasted Nuthatch", "sciName": "Sitta carolinensis", "locId": "L2623397", "locName": "Home", "obsDt": "2025-12-05 14:40", "howMany": 3, "lat": 41.7387526, "lng": -88.4991968, "obsValid": true, "obsReviewed": false, "locationPrivate": true, "subId": "S287428724"}, {"speciesCode": "rebnut", "comName": "Red-breasted Nuthatch", "sciName": "Sitta canadensis", "locId": "L2623397", "locName": "Home", "obsDt": "2025-12-05 14:40", "howMany": 1, "lat": 41.7387526, "lng": -88.4991968, "obsValid": true, "obsReviewed": false, "locationPrivate": true, "subId": "S287428724"}, {"speciesCode": "carwre", "comName": "Carolina Wren", "sciName": "Thryothorus ludovicianus", "locId": "L2623397", "locName": "Home", "obsDt": "2025-12-05 14:40", "howMany": 1, "lat": 41.7387526, "lng": -88.4991968, "obsValid": true, "obsReviewed": false, "locationPrivate": true, "subId": "S287428724"}, {"speciesCode": "houspa", "comName": "House Sparrow", "sciName": "Passer domesticus", "locId": "L2623397", "locName": "Home", "obsDt": "2025-12-05 14:40", "howMany": 12, "lat": 41.7387526, "lng": -88.4991968, "obsValid": true, "obsReviewed": false, "locationPrivate": true, "subId": "S287428724", "exoticCategory": "N"}, {"speciesCode": "houfin", "comName": "House Finch", "sciName": "Haemorhous mexicanus", "locId": "L2623397", "locName": "Home", "obsDt": "2025-12-05 14:40", "howMany": 4, "lat": 41.7387526, "lng": -88.4991968, "obsValid": true, "obsReviewed": false, "locationPrivate": true, "subId": "S287428724", "exoticCategory": "N"}, {"speciesCode": "purfin", "comName": "Purple Finch", "sciName": "Haemorhous purpureus", "locId": "L2623397", "locName": "Home", "obsDt": "2025-12-05 14:40", "howMany": 1, "lat": 41.7387526, "lng": -88.4991968, "obsValid": true, "obsReviewed": false, "locationPrivate": true, "subId": "S287428724"}, {"speciesCode": "amegfi", "comName": "American Goldfinch", "sciName": "Spinus tristis", "locId": "L2623397", "locName": "Home", "obsDt": "2025-12-05 14:40", "howMany": 16, "lat": 41.7387526, "lng": -88.4991968, "obsValid": true, "obsReviewed": false, "locationPrivate": true, "subId": "S287428724"}, {"speciesCode": "foxspa", "comName": "Fox Sparrow", "sciName": "Passerella iliaca", "locId": "L2623397", "locName": "Home", "obsDt": "2025-12-05 14:40", "howMany": 2, "lat": 41.7387526, "lng": -88.4991968, "obsValid": true, "obsReviewed": false, "locationPrivate": true, "subId": "S287428724"}, {"speciesCode": "whcspa", "comName": "White-crowned Sparrow", "sciName": "Zonotrichia leucophrys", "locId": "L2623397", "locName": "Home", "obsDt": "2025-12-05 14:40", "howMany": 8, "lat": 41.7387526, "lng": -88.4991968, "obsValid": true, "obsReviewed": false, "locationPrivate": true, "subId": "S287428724"}, {"speciesCode": "rewbla", "comName": "Red-winged Blackbird", "sciName": "Agelaius phoeniceus", "locId": "L2623397", "locName": "Home", "obsDt": "2025-12-05 14:40", "howMany": 1, "lat": 41.7387526, "lng": -88.4991968, "obsValid": true, "obsReviewed": false, "locationPrivate": true, "subId": "S287428724"}, {"speciesCode": "bnhcow", "comName": "Brown-headed Cowbird", "sciName": "Molothrus ater", "locId": "L2623397", "locName": "Home", "obsDt": "2025-12-05 14:40", "howMany": 3, "lat": 41.7387526, "lng": -88.4991968, "obsValid": true, "obsReviewed": false, "locationPrivate": true, "subId": "S287428724"}, {"speciesCode": "comgra", "comName": "Common Grackle", "sciName": "Quiscalus quiscula", "locId": "L2623397", "locName": "Home", "obsDt": "2025-12-05 14:40", "howMany": 8, "lat": 41.7387526, "lng": -88.4991968, "obsValid": true, "obsReviewed": false, "locationPrivate": true, "subId": "S287428724"}, {"speciesCode": "norcar", "comName": "Northern Cardinal", "sciName": "Cardinalis cardinalis", "locId": "L2623397", "locName": "Home", "obsDt": "2025-12-05 14:40", "howMany": 3, "lat": 41.7387526, "lng": -88.4991968, "obsValid": true, "obsReviewed": false, "locationPrivate": true, "subId": "S287428724"}, {"speciesCode": "amecro", "comName": "American Crow", "sciName": "Corvus brachyrhynchos", "locId": "L35260915", "locName": "Fargo blvd", "obsDt": "2025-12-05 14:39", "howMany": 4, "lat": 41.8756841, "lng": -88.3416877, "obsValid": true, "obsReviewed": false, "locationPrivate": true, "subId": "S287412056"}, {"speciesCode": "horlar", "comName": "Horned Lark", "sciName": "Eremophila alpestris", "locId": "L4104040", "locName": "Seavey Rd. (Bliss Rd. to Rt. 47)", "obsDt": "2025-12-05 14:38", "howMany": 7, "lat": 41.8290046, "lng": -88.4270718, "obsValid": true, "obsReviewed": false, "locationPrivate": false, "subId": "S287495982"}, {"speciesCode": "laplon", "comName": "Lapland Longspur", "sciName": "Calcarius lapponicus", "locId": "L4104040", "locName": "Seavey Rd. (Bliss Rd. to Rt. 47)", "obsDt": "2025-12-05 14:38", "howMany": 60, "lat": 41.8290046, "lng": -88.4270718, "obsValid": true, "obsReviewed": false, "locationPrivate": false, "subId": "S287495982"}, {"speciesCode": "snobun", "comName": "Snow Bunting", "sciName": "Plectrophenax nivalis", "locId": "L4104040", "locName": "Seavey Rd. (Bliss Rd. to Rt. 47)", "obsDt": "2025-12-05 14:38", "howMany": 2, "lat": 41.8290046, "lng": -88.4270718, "obsValid": true, "obsReviewed": false, "locationPrivate": false, "subId": "S287495982"}, {"speciesCode": "savspa", "comName": "Savannah Sparrow", "sciName": "Passerculus sandwichensis", "locId": "L4104040", "locName": "Seavey Rd. (Bliss Rd. to Rt. 47)", "obsDt": "2025-12-05 14:38", "howMany": 5, "lat": 41.8290046, "lng": -88.4270718, "obsValid": true, "obsReviewed": true, "locationPrivate": false, "subId": "S287495982"}, {"speciesCode": "wesmea", "comName": "Western Meadowlark", "sciName": "Sturnella neglecta", "locId": "L4104040", "locName": "Seavey Rd. (Bliss Rd. to Rt. 47)", "obsDt": "2025-12-05 14:38", "howMany": 1, "lat": 41.8290046, "lng": -88.4270718, "obsValid": true, "obsReviewed": true, "locationPrivate": false, "subId": "S287495982"}, {"speciesCode": "amerob", "comName": "American Robin", "sciName": "Turdus migratorius", "locId": "L1809636", "locName": "Jericho Lake, Montgomery", "obsDt": "2025-12-05 14:00", "howMany": 2, "lat": 41.7381442, "lng": -88.3808041, "obsValid": true, "obsReviewed": false, "locationPrivate": false, "subId": "S287526015"}, {"speciesCode": "pinsis", "comName": "Pine Siskin", "sciName": "Spinus pinus", "locId": "L12152017", "locName": "Hometown, Aurora", "obsDt": "2025-12-05 14:00", "howMany": 1, "lat": 41.740163, "lng": -88.278762, "obsValid": true, "obsReviewed": false, "locationPrivate": true, "subId": "S288150478"}, {"speciesCode": "eursta", "comName": "European Starling", "sciName": "Sturnus vulgaris", "locId": "L8234239", "locName": "Seavey Road, Batavia, Illinois, US (41.822, -88.452)", "obsDt": "2025-12-05 13:44", "howMany": 12, "lat": 41.8221638, "lng": -88.4521303, "obsValid": true, "obsReviewed": false, "locationPrivate": true, "subId": "S287421961", "exoticCategory": "N"}, {"speciesCode": "easmea", "comName": "Eastern Meadowlark", "sciName": "Sturnella magna", "locId": "L8234239", "locName": "Seavey Road, Batavia, Illinois, US (41.822, -88.452)", "obsDt": "2025-12-05 13:44", "howMany": 1, "lat": 41.8221638, "lng": -88.4521303, "obsValid": true, "obsReviewed": false, "locationPrivate": true, "subId": "S287421961"}, {"speciesCode": "baleag", "comName": "Bald Eagle", "sciName": "Haliaeetus leucocephalus", "locId": "L3136348", "locName": "Brunner Family Forest Preserve", "obsDt": "2025-12-05 13:38", "howMany": 1, "lat": 42.1353087, "lng": -88.289094, "obsValid": true, "obsReviewed": false, "locationPrivate": false, "subId": "S287987234"}, {"speciesCode": "comgol", "comName": "Common Goldeneye", "sciName": "Bucephala clangula", "locId": "L1052581", "locName": "Carpentersville Dam (Fox River Shores)", "obsDt": "2025-12-05 13:19", "howMany": 9, "lat": 42.1145956, "lng": -88.2931387, "obsValid": true, "obsReviewed": false, "locationPrivate": false, "subId": "S287408486"}, {"speciesCode": "hoomer", "comName": "Hooded Merganser", "sciName": "Lophodytes cucullatus", "locId": "L1052581", "locName": "Carpentersville Dam (Fox River Shores)", "obsDt": "2025-12-05 13:19", "howMany": 1, "lat": 42.1145956, "lng": -88.2931387, "obsValid": true, "obsReviewed": false, "locationPrivate": false, "subId": "S287408486"}, {"speciesCode": "sancra", "comName": "Sandhill Crane", "sciName": "Antigone canadensis", "locId": "L1052581", "locName": "Carpentersville Dam (Fox River Shores)", "obsDt": "2025-12-05 13:19", "howMany": 1, "lat": 42.1145956, "lng": -88.2931387, "obsValid": true, "obsReviewed": false, "locationPrivate": false, "subId": "S287408486"}, {"speciesCode": "belkin1", "comName": "Belted Kingfisher", "sciName": "Megaceryle alcyon", "locId": "L1052581", "locName": "Carpentersville Dam (Fox River Shores)", "obsDt": "2025-12-05 13:19", "howMany": 1, "lat": 42.1145956, "lng": -88.2931387, "obsValid": true, "obsReviewed": false, "locationPrivate": false, "subId": "S287408486"}, {"speciesCode": "wooduc", "comName": "Wood Duck", "sciName": "Aix sponsa", "locId": "L2850399", "locName": "Fox River--Lincoln Ave", "obsDt": "2025-12-05 13:09", "howMany": 1, "lat": 42.1018644, "lng": -88.2829356, "obsValid": true, "obsReviewed": false, "locationPrivate": false, "subId": "S287411709"}, {"speciesCode": "ambduc", "comName": "American Black Duck", "sciName": "Anas rubripes", "locId": "L17348185", "locName": "Geneva Wastewater Treatment Plant", "obsDt": "2025-12-05 12:14", "howMany": 1, "lat": 41.8805464, "lng": -88.3028064, "obsValid": true, "obsReviewed": false, "locationPrivate": false, "subId": "S287409030"}, {"speciesCode": "commer", "comName": "Common Merganser", "sciName": "Mergus merganser", "locId": "L17348185", "locName": "Geneva Wastewater Treatment Plant", "obsDt": "2025-12-05 12:14", "howMany": 2, "lat": 41.8805464, "lng": -88.3028064, "obsValid": true, "obsReviewed": false, "locationPrivate": false, "subId": "S287409030"}, {"speciesCode": "y00475", "comName": "American Coot", "sciName": "Fulica americana", "locId": "L17348185", "locName": "Geneva Wastewater Treatment Plant", "obsDt": "2025-12-05 12:14", "howMany": 1, "lat": 41.8805464, "lng": -88.3028064, "obsValid": true, "obsReviewed": false, "locationPrivate": false, "subId": "S287409030"}, {"speciesCode": "ribgul", "comName": "Ring-billed Gull", "sciName": "Larus delawarensis", "locId": "L17348185", "locName": "Geneva Wastewater Treatment Plant", "obsDt": "2025-12-05 12:14", "howMany": 1, "lat": 41.8805464, "lng": -88.3028064, "obsValid": true, "obsReviewed": false, "locationPrivate": false, "subId": "S287409030"}, {"speciesCode": "amhgul1", "comName": "American Herring Gull", "sciName": "Larus smithsonianus", "locId": "L17348185", "locName": "Geneva Wastewater Treatment Plant", "obsDt": "2025-12-05 12:14", "howMany": 7, "lat": 41.8805464, "lng": -88.3028064, "obsValid": true, "obsReviewed": false, "locationPrivate": false, "subId": "S287409030"}, {"speciesCode": "grbher3", "comName": "Great Blue Heron", "sciName": "Ardea herodias", "locId": "L17348185", "locName": "Geneva Wastewater Treatment Plant", "obsDt": "2025-12-05 12:14", "howMany": 2, "lat": 41.8805464, "lng": -88.3028064, "obsValid": true, "obsReviewed": false, "locationPrivate": false, "subId": "S287409030"}, {"speciesCode": "coohaw", "comName": "Cooper's Hawk", "sciName": "Astur cooperii", "locId": "L17348185", "locName": "Geneva Wastewater Treatment Plant", "obsDt": "2025-12-05 12:14", "howMany": 1, "lat": 41.8805464, "lng": -88.3028064, "obsValid": true, "obsReviewed": false, "locationPrivate": false, "subId": "S287409030"}, {"speciesCode": "ruckin", "comName": "Ruby-crowned Kinglet", "sciName": "Corthylio calendula", "locId": "L17348185", "locName": "Geneva Wastewater Treatment Plant", "obsDt": "2025-12-05 12:14", "howMany": 1, "lat": 41.8805464, "lng": -88.3028064, "obsValid": true, "obsReviewed": false, "locationPrivate": false, "subId": "S287409030"}, {"speciesCode": "brncre", "comName": "Brown Creeper", "sciName": "Certhia americana", "locId": "L17348185", "locName": "Geneva Wastewater Treatment Plant", "obsDt": "2025-12-05 12:14", "howMany": 2, "lat": 41.8805464, "lng": -88.3028064, "obsValid": true, "obsReviewed": false, "locationPrivate": false, "subId": "S287409030"}, {"speciesCode": "sonspa", "comName": "Song Sparrow", "sciName": "Melospiza melodia", "locId": "L17348185", "locName": "Geneva Wastewater Treatment Plant", "obsDt": "2025-12-05 12:14", "howMany": 2, "lat": 41.8805464, "lng": -88.3028064, "obsValid": true, "obsReviewed": false, "locationPrivate": false, "subId": "S287409030"}, {"speciesCode": "amepip", "comName": "American Pipit", "sciName": "Anthus rubescens", "locId": "L56042199", "locName": "Geneva Dam", "obsDt": "2025-12-05 11:45", "howMany": 1, "lat": 41.8880905, "lng": -88.3021301, "obsValid": true, "obsReviewed": false, "locationPrivate": false, "subId": "S287395456"}, {"speciesCode": "easblu", "comName": "Eastern Bluebird", "sciName": "Sialia sialis", "locId": "L152688", "locName": "Nelson Lake Marsh Nature Preserve/Dick Young Forest Preserve", "obsDt": "2025-12-05 11:30", "howMany": 2, "lat": 41.8346056, "lng": -88.3738518, "obsValid": true, "obsReviewed": false, "locationPrivate": false, "subId": "S287420209"}, {"speciesCode": "cedwax", "comName": "Cedar Waxwing", "sciName": "Bombycilla cedrorum", "locId": "L152688", "locName": "Nelson Lake Marsh Nature Preserve/Dick Young Forest Preserve", "obsDt": "2025-12-05 11:30", "howMany": 14, "lat": 41.8346056, "lng": -88.3738518, "obsValid": true, "obsReviewed": false, "locationPrivate": false, "subId": "S287420209"}, {"speciesCode": "gockin", "comName": "Golden-crowned Kinglet", "sciName": "Regulus satrapa", "locId": "L152613", "locName": "Burnidge Forest Preserve", "obsDt": "2025-12-05 08:43", "howMany": 2, "lat": 42.07, "lng": -88.3647, "obsValid": true, "obsReviewed": false, "locationPrivate": false, "subId": "S287394784"}]