[{"speciesCode": "cangoo", "comName": "Canada Goose", "sciName": "Branta canadensis", "locId": "L14079833", "locName": "Drexler Park/Lake Lida", "obsDt": "2025-12-04 13:05", "howMany": 750, "lat": 41.9018859, "lng": -89.0543502, "obsValid": true, "obsReviewed": false, "locationPrivate": false, "subId": "S287311934"}, {"speciesCode": "mallar3", "comName": "Mallard", "sciName": "Anas platyrhynchos", "locId": "L676824", "locName": "Lake Sule / Lyle Kunde Recreation Area", "obsDt": "2025-12-04 13:00", "howMany": 5, "lat": 41.9100474, "lng": -89.0289882, "obsValid": true, "obsReviewed": false, "locationPrivate": false, "subId": "S287311851"}, {"speciesCode": "dowwoo", "comName": "Downy Woodpecker", "sciName": "Dryobates pubescens", "locId": "L54589866", "locName": "Byron, IL (Home)", "obsDt": "2025-12-04 12:57", "howMany": 2, "lat": 42.1431207, "lng": -89.2662957, "obsValid": true, "obsReviewed": false, "locationPrivate": true, "subId": "S287300883"}, {"speciesCode": "haiwoo", "comName": "Hairy Woodpecker", "sciName": "Leuconotopicus villosus", "locId": "L54589866", "locName": "Byron, IL (Home)", "obsDt": "2025-12-04 12:57", "howMany": 1, "lat": 42.1431207, "lng": -89.2662957, "obsValid": true, "obsReviewed": false, "locationPrivate": true, "subId": "S287300883"}, {"speciesCode": "blujay", "comName": "Blue Jay", "sciName": "Cyanocitta cristata", "locId": "L54589866", "locName": "Byron, IL (Home)", "obsDt": "2025-12-04 12:57", "howMany": 3, "lat": 42.1431207, "lng": -89.2662957, "obsValid": true, "obsReviewed": false, "locationPrivate": true, "subId": "S287300883"}, {"speciesCode": "amecro", "comName": "American Crow", "sciName": "Corvus brachyrhynchos", "locId": "L54589866", "locName": "Byron, IL (Home)", "obsDt": "2025-12-04 12:57", "howMany": 6, "lat": 42.1431207, "lng": -89.2662957, "obsValid": true, "obsReviewed": false, "locationPrivate": true, "subId": "S287300883"}, {"speciesCode": "bkcchi", "comName": "Black-capped Chickadee", "sciName": "Poecile atricapillus", "locId": "L54589866", "locName": "Byron, IL (Home)", "obsDt": "2025-12-04 12:57", "howMany": 2, "lat": 42.1431207, "lng": -89.2662957, "obsValid": true, "obsReviewed": false, "locationPrivate": true, "subId": "S287300883"}, {"speciesCode": "tuftit", "comName": "Tufted Titmouse", "sciName": "Baeolophus bicolor", "locId": "L54589866", "locName": "Byron, IL (Home)", "obsDt": "2025-12-04 12:57", "howMany": 1, "lat": 42.1431207, "lng": -89.2662957, "obsValid": true, "obsReviewed": false, "locationPrivate": true, "subId": "S287300883"}, {"speciesCode": "whbnut", "comName": "White-breasted Nuthatch", "sciName": "Sitta carolinensis", "locId": "L54589866", "locName": "Byron, IL (Home)", "obsDt": "2025-12-04 12:57", "howMany": 1, "lat": 42.1431207, "lng": -89.2662957, "obsValid": true, "obsReviewed": false, "locationPrivate": true, "subId": "S287300883"}, {"speciesCode": "rebnut", "comName": "Red-breasted Nuthatch", "sciName": "Sitta canadensis", "locId": "L54589866", "locName": "Byron, IL (Home)", "obsDt": "2025-12-04 12:57", "howMany": 3, "lat": 42.1431207, "lng": -89.2662957, "obsValid": true, "obsReviewed": false, "locationPrivate": true, "subId": "S287300883"}, {"speciesCode": "eursta", "comName": "European Starling", "sciName": "Sturnus vulgaris", "locId": "L54589866", "locName": "Byron, IL (Home)", "obsDt": "2025-12-04 12:57", "howMany": 7, "lat": 42.1431207, "lng": -89.2662957, "obsValid": true, "obsReviewed": false, "locationPrivate": true, "subId": "S287300883", "exoticCategory": "N"}, {"speciesCode": "amerob", "comName": "American Robin", "sciName": "Turdus migratorius", "locId": "L54589866", "locName": "Byron, IL (Home)", "obsDt": "2025-12-04 12:57", "howMany": 4, "lat": 42.1431207, "lng": -89.2662957, "obsValid": true, "obsReviewed": false, "locationPrivate": true, "subId": "S287300883"}, {"speciesCode": "cedwax", "comName": "Cedar Waxwing", "sciName": "Bombycilla cedrorum", "locId": "L54589866", "locName": "Byron, IL (Home)", "obsDt": "2025-12-04 12:57", "howMany": 3, "lat": 42.1431207, "lng": -89.2662957, "obsValid": true, "obsReviewed": false, "locationPrivate": true, "subId": "S287300883"}, {"speciesCode": "houspa", "comName": "House Sparrow", "sciName": "Passer domesticus", "locId": "L54589866", "locName": "Byron, IL (Home)", "obsDt": "2025-12-04 12:57", "howMany": 5, "lat": 42.1431207, "lng": -89.2662957, "obsValid": true, "obsReviewed": false, "locationPrivate": true, "subId": "S287300883", "exoticCategory": "N"}, {"speciesCode": "houfin", "comName": "House Finch", "sciName": "Haemorhous mexicanus", "locId": "L54589866", "locName": "Byron, IL (Home)", "obsDt": "2025-12-04 12:57", "howMany": 6, "lat": 42.1431207, "lng": -89.2662957, "obsValid": true, "obsReviewed": false, "locationPrivate": true, "subId": "S287300883", "exoticCategory": "N"}, {"speciesCode": "daejun", "comName": "Dark-eyed Junco", "sciName": "Junco hyemalis", "locId": "L54589866", "locName": "Byron, IL (Home)", "obsDt": "2025-12-04 12:57", "howMany": 14, "lat": 42.1431207, "lng": -89.2662957, "obsValid": true, "obsReviewed": false, "locationPrivate": true, "subId": "S287300883"}, {"speciesCode": "norcar", "comName": "Northern Cardinal", "sciName": "Cardinalis cardinalis", "locId": "L54589866", "locName": "Byron, IL (Home)", "obsDt": "2025-12-04 12:57", "howMany": 3, "lat": 42.1431207, "lng": -89.2662957, "obsValid": true, "obsReviewed": false, "locationPrivate": true, "subId": "S287300883"}, {"speciesCode": "rethaw", "comName": "Red-tailed Hawk", "sciName": "Buteo jamaicensis", "locId": "L9293830", "locName": "Interstate 39, Rochelle, Illinois, US (41.952, -89.024)", "obsDt": "2025-12-04 12:55", "howMany": 1, "lat": 41.952313, "lng": -89.0240891, "obsValid": true, "obsReviewed": false, "locationPrivate": true, "subId": "S287312244"}, {"speciesCode": "rebwoo", "comName": "Red-bellied Woodpecker", "sciName": "Melanerpes carolinus", "locId": "L21561441", "locName": "Maple & 1st Streets", "obsDt": "2025-12-04 12:50", "howMany": 1, "lat": 42.0512365, "lng": -89.4446892, "obsValid": true, "obsReviewed": false, "locationPrivate": true, "subId": "S287329598"}, {"speciesCode": "amegfi", "comName": "American Goldfinch", "sciName": "Spinus tristis", "locId": "L21561441", "locName": "Maple & 1st Streets", "obsDt": "2025-12-04 12:50", "howMany": 15, "lat": 42.0512365, "lng": -89.4446892, "obsValid": true, "obsReviewed": false, "locationPrivate": true, "subId": "S287329598"}]