[{"speciesCode": "sancra", "comName": "Sandhill Crane", "sciName": "Antigone canadensis", "locId": "L21502653", "locName": "Rockton road", "obsDt": "2025-12-07 15:15", "howMany": 150, "lat": 42.4576202, "lng": -89.1391127, "obsValid": true, "obsReviewed": false, "locationPrivate": true, "subId": "S287731036"}, {"speciesCode": "moudov", "comName": "Mourning Dove", "sciName": "Zenaida macroura", "locId": "L1259962", "locName": "Home", "obsDt": "2025-12-07 15:12", "howMany": 2, "lat": 42.426753, "lng": -89.0254623, "obsValid": true, "obsReviewed": false, "locationPrivate": true, "subId": "S287722232"}, {"speciesCode": "rebwoo", "comName": "Red-bellied Woodpecker", "sciName": "Melanerpes carolinus", "locId": "L1259962", "locName": "Home", "obsDt": "2025-12-07 15:12", "howMany": 1, "lat": 42.426753, "lng": -89.0254623, "obsValid": true, "obsReviewed": false, "locationPrivate": true, "subId": "S287722232"}, {"speciesCode": "bkcchi", "comName": "Black-capped Chickadee", "sciName": "Poecile atricapillus", "locId": "L1259962", "locName": "Home", "obsDt": "2025-12-07 15:12", "howMany": 2, "lat": 42.426753, "lng": -89.0254623, "obsValid": true, "obsReviewed": false, "locationPrivate": true, "subId": "S287722232"}, {"speciesCode": "houspa", "comName": "House Sparrow", "sciName": "Passer domesticus", "locId": "L1259962", "locName": "Home", "obsDt": "2025-12-07 15:12", "howMany": 5, "lat": 42.426753, "lng": -89.0254623, "obsValid": true, "obsReviewed": false, "locationPrivate": true, "subId": "S287722232", "exoticCategory": "N"}, {"speciesCode": "houfin", "comName": "House Finch", "sciName": "Haemorhous mexicanus", "locId": "L1259962", "locName": "Home", "obsDt": "2025-12-07 15:12", "howMany": 3, "lat": 42.426753, "lng": -89.0254623, "obsValid": true, "obsReviewed": false, "locationPrivate": true, "subId": "S287722232", "exoticCategory": "N"}, {"speciesCode": "daejun", "comName": "Dark-eyed Junco", "sciName": "Junco hyemalis", "locId": "L1259962", "locName": "Home", "obsDt": "2025-12-07 15:12", "howMany": 4, "lat": 42.426753, "lng": -89.0254623, "obsValid": true, "obsReviewed": false, "locationPrivate": true, "subId": "S287722232"}, {"speciesCode": "norcar", "comName": "Northern Cardinal", "sciName": "Cardinalis cardinalis", "locId": "L1259962", "locName": "Home", "obsDt": "2025-12-07 15:12", "howMany": 1, "lat": 42.426753, "lng": -89.0254623, "obsValid": true, "obsReviewed": false, "locationPrivate": true, "subId": "S287722232"}, {"speciesCode": "wiltur", "comName": "Wild Turkey", "sciName": "Meleagris gallopavo", "locId": "L13585161", "locName": "St. Anthony Field", "obsDt": "2025-12-07 12:56", "howMany": 12, "lat": 42.2746901, "lng": -89.0077025, "obsValid": true, "obsReviewed": false, "locationPrivate": true, "subId": "S287702445"}, {"speciesCode": "dowwoo", "comName": "Downy Woodpecker", "sciName": "Dryobates pubescens", "locId": "L13585161", "locName": "St. Anthony Field", "obsDt": "2025-12-07 12:56", "howMany": 1, "lat": 42.2746901, "lng": -89.0077025, "obsValid": true, "obsReviewed": false, "locationPrivate": true, "subId": "S287702445"}, {"speciesCode": "blujay", "comName": "Blue Jay", "sciName": "Cyanocitta cristata", "locId": "L13585161", "locName": "St. Anthony Field", "obsDt": "2025-12-07 12:56", "howMany": 1, "lat": 42.2746901, "lng": -89.0077025, "obsValid": true, "obsReviewed": false, "locationPrivate": true, "subId": "S287702445"}, {"speciesCode": "rebnut", "comName": "Red-breasted Nuthatch", "sciName": "Sitta canadensis", "locId": "L13585161", "locName": "St. Anthony Field", "obsDt": "2025-12-07 12:56", "howMany": 1, "lat": 42.2746901, "lng": -89.0077025, "obsValid": true, "obsReviewed": false, "locationPrivate": true, "subId": "S287702445"}, {"speciesCode": "amegfi", "comName": "American Goldfinch", "sciName": "Spinus tristis", "locId": "L13585161", "locName": "St. Anthony Field", "obsDt": "2025-12-07 12:56", "howMany": 1, "lat": 42.2746901, "lng": -89.0077025, "obsValid": true, "obsReviewed": false, "locationPrivate": true, "subId": "S287702445"}, {"speciesCode": "whtspa", "comName": "White-throated Sparrow", "sciName": "Zonotrichia albicollis", "locId": "L13585161", "locName": "St. Anthony Field", "obsDt": "2025-12-07 12:56", "howMany": 4, "lat": 42.2746901, "lng": -89.0077025, "obsValid": true, "obsReviewed": false, "locationPrivate": true, "subId": "S287702445"}, {"speciesCode": "cangoo", "comName": "Canada Goose", "sciName": "Branta canadensis", "locId": "L353368", "locName": "Rock Cut State Park", "obsDt": "2025-12-07 11:48", "howMany": 9, "lat": 42.3533302, "lng": -88.9863825, "obsValid": true, "obsReviewed": false, "locationPrivate": false, "subId": "S287869040"}, {"speciesCode": "gadwal", "comName": "Gadwall", "sciName": "Mareca strepera", "locId": "L353368", "locName": "Rock Cut State Park", "obsDt": "2025-12-07 11:48", "howMany": 1, "lat": 42.3533302, "lng": -88.9863825, "obsValid": true, "obsReviewed": false, "locationPrivate": false, "subId": "S287869040"}, {"speciesCode": "hoomer", "comName": "Hooded Merganser", "sciName": "Lophodytes cucullatus", "locId": "L353368", "locName": "Rock Cut State Park", "obsDt": "2025-12-07 11:48", "howMany": 1, "lat": 42.3533302, "lng": -88.9863825, "obsValid": true, "obsReviewed": false, "locationPrivate": false, "subId": "S287869040"}, {"speciesCode": "amecro", "comName": "American Crow", "sciName": "Corvus brachyrhynchos", "locId": "L353368", "locName": "Rock Cut State Park", "obsDt": "2025-12-07 11:48", "howMany": 5, "lat": 42.3533302, "lng": -88.9863825, "obsValid": true, "obsReviewed": false, "locationPrivate": false, "subId": "S287869040"}, {"speciesCode": "whbnut", "comName": "White-breasted Nuthatch", "sciName": "Sitta carolinensis", "locId": "L353368", "locName": "Rock Cut State Park", "obsDt": "2025-12-07 11:48", "howMany": 1, "lat": 42.3533302, "lng": -88.9863825, "obsValid": true, "obsReviewed": false, "locationPrivate": false, "subId": "S287869040"}, {"speciesCode": "amerob", "comName": "American Robin", "sciName": "Turdus migratorius", "locId": "L353368", "locName": "Rock Cut State Park", "obsDt": "2025-12-07 11:48", "howMany": 1, "lat": 42.3533302, "lng": -88.9863825, "obsValid": true, "obsReviewed": false, "locationPrivate": false, "subId": "S287869040"}, {"speciesCode": "amtspa", "comName": "American Tree Sparrow", "sciName": "Spizelloides arborea", "locId": "L353368", "locName": "Rock Cut State Park", "obsDt": "2025-12-07 11:48", "howMany": 4, "lat": 42.3533302, "lng": -88.9863825, "obsValid": true, "obsReviewed": false, "locationPrivate": false, "subId": "S287869040"}, {"speciesCode": "foxspa", "comName": "Fox Sparrow", "sciName": "Passerella iliaca", "locId": "L353368", "locName": "Rock Cut State Park", "obsDt": "2025-12-07 11:48", "howMany": 2, "lat": 42.3533302, "lng": -88.9863825, "obsValid": true, "obsReviewed": false, "locationPrivate": false, "subId": "S287869040"}, {"speciesCode": "yerwar", "comName": "Yellow-rumped Warbler", "sciName": "Setophaga coronata", "locId": "L353368", "locName": "Rock Cut State Park", "obsDt": "2025-12-07 11:48", "howMany": 6, "lat": 42.3533302, "lng": -88.9863825, "obsValid": true, "obsReviewed": false, "locationPrivate": false, "subId": "S287869040"}, {"speciesCode": "eursta", "comName": "European Starling", "sciName": "Sturnus vulgaris", "locId": "L13585161", "locName": "St. Anthony Field", "obsDt": "2025-12-07 09:09", "howMany": 1, "lat": 42.2746901, "lng": -89.0077025, "obsValid": true, "obsReviewed": false, "locationPrivate": true, "subId": "S287663632", "exoticCategory": "N"}, {"speciesCode": "coohaw", "comName": "Cooper's Hawk", "sciName": "Astur cooperii", "locId": "L2226139", "locName": "Roscoe Oasis", "obsDt": "2025-12-07 08:51", "howMany": 1, "lat": 42.4460377, "lng": -89.0379432, "obsValid": true, "obsReviewed": false, "locationPrivate": true, "subId": "S287811414"}, {"speciesCode": "yebsap", "comName": "Yellow-bellied Sapsucker", "sciName": "Sphyrapicus varius", "locId": "L2226061", "locName": "4351 Stagecoach Trail", "obsDt": "2025-12-07", "howMany": 1, "lat": 42.3277761, "lng": -89.1235355, "obsValid": true, "obsReviewed": false, "locationPrivate": true, "subId": "S287787165"}, {"speciesCode": "easblu", "comName": "Eastern Bluebird", "sciName": "Sialia sialis", "locId": "L2226061", "locName": "4351 Stagecoach Trail", "obsDt": "2025-12-07", "howMany": 2, "lat": 42.3277761, "lng": -89.1235355, "obsValid": true, "obsReviewed": false, "locationPrivate": true, "subId": "S287787165"}]