[{"speciesCode": "cangoo", "comName": "Canada Goose", "sciName": "Branta canadensis", "locId": "L7215728", "locName": "Page Park", "obsDt": "2025-12-09 16:00", "howMany": 25, "lat": 41.8453887, "lng": -89.4926611, "obsValid": true, "obsReviewed": false, "locationPrivate": false, "subId": "S287970911"}, {"speciesCode": "mallar3", "comName": "Mallard", "sciName": "Anas platyrhynchos", "locId": "L7215728", "locName": "Page Park", "obsDt": "2025-12-09 16:00", "howMany": 5, "lat": 41.8453887, "lng": -89.4926611, "obsValid": true, "obsReviewed": false, "locationPrivate": false, "subId": "S287970911"}, {"speciesCode": "amhgul1", "comName": "American Herring Gull", "sciName": "Larus smithsonianus", "locId": "L7215728", "locName": "Page Park", "obsDt": "2025-12-09 16:00", "howMany": 2, "lat": 41.8453887, "lng": -89.4926611, "obsValid": true, "obsReviewed": false, "locationPrivate": false, "subId": "S287970911"}, {"speciesCode": "norhar2", "comName": "Northern Harrier", "sciName": "Circus hudsonius", "locId": "L55847546", "locName": "501\u2013551 Brooklyn Rd, West Brooklyn US-IL 41.65734, -89.14897", "obsDt": "2025-12-09 15:16", "howMany": 1, "lat": 41.657341, "lng": -89.148975, "obsValid": true, "obsReviewed": false, "locationPrivate": true, "subId": "S287959229"}, {"speciesCode": "eursta", "comName": "European Starling", "sciName": "Sturnus vulgaris", "locId": "L55847546", "locName": "501\u2013551 Brooklyn Rd, West Brooklyn US-IL 41.65734, -89.14897", "obsDt": "2025-12-09 15:16", "howMany": 4, "lat": 41.657341, "lng": -89.148975, "obsValid": true, "obsReviewed": false, "locationPrivate": true, "subId": "S287959229", "exoticCategory": "N"}, {"speciesCode": "sheowl", "comName": "Short-eared Owl", "sciName": "Asio flammeus", "locId": "L38676886", "locName": "Prairie Patch", "obsDt": "2025-12-09 14:45", "howMany": 1, "lat": 41.81384, "lng": -89.131772, "obsValid": true, "obsReviewed": false, "locationPrivate": true, "subId": "S288951216"}, {"speciesCode": "horlar", "comName": "Horned Lark", "sciName": "Eremophila alpestris", "locId": "L38676886", "locName": "Prairie Patch", "obsDt": "2025-12-09 14:45", "howMany": 12, "lat": 41.81384, "lng": -89.131772, "obsValid": true, "obsReviewed": false, "locationPrivate": true, "subId": "S288951216"}, {"speciesCode": "snobun", "comName": "Snow Bunting", "sciName": "Plectrophenax nivalis", "locId": "L38676886", "locName": "Prairie Patch", "obsDt": "2025-12-09 14:45", "howMany": 16, "lat": 41.81384, "lng": -89.131772, "obsValid": true, "obsReviewed": false, "locationPrivate": true, "subId": "S288951216"}, {"speciesCode": "dowwoo", "comName": "Downy Woodpecker", "sciName": "Dryobates pubescens", "locId": "L21464701", "locName": "719 East Fellows Street, Dixon, Illinois, US (41.852, -89.476)", "obsDt": "2025-12-09 12:00", "howMany": 2, "lat": 41.8520222, "lng": -89.4761897, "obsValid": true, "obsReviewed": false, "locationPrivate": true, "subId": "S287970973"}, {"speciesCode": "amecro", "comName": "American Crow", "sciName": "Corvus brachyrhynchos", "locId": "L21464701", "locName": "719 East Fellows Street, Dixon, Illinois, US (41.852, -89.476)", "obsDt": "2025-12-09 12:00", "howMany": 1, "lat": 41.8520222, "lng": -89.4761897, "obsValid": true, "obsReviewed": false, "locationPrivate": true, "subId": "S287970973"}, {"speciesCode": "bkcchi", "comName": "Black-capped Chickadee", "sciName": "Poecile atricapillus", "locId": "L21464701", "locName": "719 East Fellows Street, Dixon, Illinois, US (41.852, -89.476)", "obsDt": "2025-12-09 12:00", "howMany": 2, "lat": 41.8520222, "lng": -89.4761897, "obsValid": true, "obsReviewed": false, "locationPrivate": true, "subId": "S287970973"}, {"speciesCode": "whbnut", "comName": "White-breasted Nuthatch", "sciName": "Sitta carolinensis", "locId": "L21464701", "locName": "719 East Fellows Street, Dixon, Illinois, US (41.852, -89.476)", "obsDt": "2025-12-09 12:00", "howMany": 1, "lat": 41.8520222, "lng": -89.4761897, "obsValid": true, "obsReviewed": false, "locationPrivate": true, "subId": "S287970973"}, {"speciesCode": "houspa", "comName": "House Sparrow", "sciName": "Passer domesticus", "locId": "L21464701", "locName": "719 East Fellows Street, Dixon, Illinois, US (41.852, -89.476)", "obsDt": "2025-12-09 12:00", "howMany": 6, "lat": 41.8520222, "lng": -89.4761897, "obsValid": true, "obsReviewed": false, "locationPrivate": true, "subId": "S287970973", "exoticCategory": "N"}, {"speciesCode": "daejun", "comName": "Dark-eyed Junco", "sciName": "Junco hyemalis", "locId": "L21464701", "locName": "719 East Fellows Street, Dixon, Illinois, US (41.852, -89.476)", "obsDt": "2025-12-09 12:00", "howMany": 2, "lat": 41.8520222, "lng": -89.4761897, "obsValid": true, "obsReviewed": false, "locationPrivate": true, "subId": "S287970973"}, {"speciesCode": "ribgul", "comName": "Ring-billed Gull", "sciName": "Larus delawarensis", "locId": "L55841697", "locName": "329 IL-2 N, Dixon US-IL 41.82293, -89.56625", "obsDt": "2025-12-09 10:39", "howMany": 1, "lat": 41.822933, "lng": -89.56625, "obsValid": true, "obsReviewed": false, "locationPrivate": true, "subId": "S287925678"}, {"speciesCode": "amtspa", "comName": "American Tree Sparrow", "sciName": "Spizelloides arborea", "locId": "L55841697", "locName": "329 IL-2 N, Dixon US-IL 41.82293, -89.56625", "obsDt": "2025-12-09 10:39", "howMany": 4, "lat": 41.822933, "lng": -89.56625, "obsValid": true, "obsReviewed": false, "locationPrivate": true, "subId": "S287925678"}, {"speciesCode": "rocpig", "comName": "Rock Pigeon", "sciName": "Columba livia", "locId": "L55841352", "locName": "Sauk Valley Community College, Rock Falls US-IL (41.8217,-89.5964)", "obsDt": "2025-12-09 10:23", "howMany": 3, "lat": 41.82166, "lng": -89.596425, "obsValid": true, "obsReviewed": false, "locationPrivate": true, "subId": "S287923906", "exoticCategory": "N"}, {"speciesCode": "rinphe1", "comName": "Ring-necked Pheasant", "sciName": "Phasianus colchicus", "locId": "L233838", "locName": "Gremel Wildlife Sanctuary/Green Wing Environmental Laboratory", "obsDt": "2025-12-09 09:00", "howMany": 2, "lat": 41.699929, "lng": -89.2719247, "obsValid": true, "obsReviewed": false, "locationPrivate": false, "subId": "S288012441", "exoticCategory": "N"}, {"speciesCode": "rehwoo", "comName": "Red-headed Woodpecker", "sciName": "Melanerpes erythrocephalus", "locId": "L233838", "locName": "Gremel Wildlife Sanctuary/Green Wing Environmental Laboratory", "obsDt": "2025-12-09 09:00", "howMany": 1, "lat": 41.699929, "lng": -89.2719247, "obsValid": true, "obsReviewed": false, "locationPrivate": false, "subId": "S288012441"}, {"speciesCode": "rebwoo", "comName": "Red-bellied Woodpecker", "sciName": "Melanerpes carolinus", "locId": "L233838", "locName": "Gremel Wildlife Sanctuary/Green Wing Environmental Laboratory", "obsDt": "2025-12-09 09:00", "howMany": 1, "lat": 41.699929, "lng": -89.2719247, "obsValid": true, "obsReviewed": false, "locationPrivate": false, "subId": "S288012441"}, {"speciesCode": "haiwoo", "comName": "Hairy Woodpecker", "sciName": "Leuconotopicus villosus", "locId": "L233838", "locName": "Gremel Wildlife Sanctuary/Green Wing Environmental Laboratory", "obsDt": "2025-12-09 09:00", "howMany": 1, "lat": 41.699929, "lng": -89.2719247, "obsValid": true, "obsReviewed": false, "locationPrivate": false, "subId": "S288012441"}, {"speciesCode": "norfli", "comName": "Northern Flicker", "sciName": "Colaptes auratus", "locId": "L233838", "locName": "Gremel Wildlife Sanctuary/Green Wing Environmental Laboratory", "obsDt": "2025-12-09 09:00", "howMany": 1, "lat": 41.699929, "lng": -89.2719247, "obsValid": true, "obsReviewed": false, "locationPrivate": false, "subId": "S288012441"}, {"speciesCode": "blujay", "comName": "Blue Jay", "sciName": "Cyanocitta cristata", "locId": "L233838", "locName": "Gremel Wildlife Sanctuary/Green Wing Environmental Laboratory", "obsDt": "2025-12-09 09:00", "howMany": 6, "lat": 41.699929, "lng": -89.2719247, "obsValid": true, "obsReviewed": false, "locationPrivate": false, "subId": "S288012441"}, {"speciesCode": "purfin", "comName": "Purple Finch", "sciName": "Haemorhous purpureus", "locId": "L233838", "locName": "Gremel Wildlife Sanctuary/Green Wing Environmental Laboratory", "obsDt": "2025-12-09 09:00", "howMany": 2, "lat": 41.699929, "lng": -89.2719247, "obsValid": true, "obsReviewed": false, "locationPrivate": false, "subId": "S288012441"}, {"speciesCode": "norcar", "comName": "Northern Cardinal", "sciName": "Cardinalis cardinalis", "locId": "L233838", "locName": "Gremel Wildlife Sanctuary/Green Wing Environmental Laboratory", "obsDt": "2025-12-09 09:00", "howMany": 1, "lat": 41.699929, "lng": -89.2719247, "obsValid": true, "obsReviewed": false, "locationPrivate": false, "subId": "S288012441"}]