[{"speciesCode": "amekes", "comName": "American Kestrel", "sciName": "Falco sparverius", "locId": "L23475725", "locName": "Cnty Rd 1400 N b/w 100E & 200E", "obsDt": "2025-12-06 16:37", "howMany": 1, "lat": 40.0834049, "lng": -88.4407014, "obsValid": true, "obsReviewed": false, "locationPrivate": true, "subId": "S287766189"}, {"speciesCode": "cangoo", "comName": "Canada Goose", "sciName": "Branta canadensis", "locId": "L4298167", "locName": "Middle Fork River FP--Campground", "obsDt": "2025-12-06 16:28", "howMany": 25, "lat": 40.3778931, "lng": -87.9563177, "obsValid": true, "obsReviewed": false, "locationPrivate": false, "subId": "S287583900"}, {"speciesCode": "rinphe1", "comName": "Ring-necked Pheasant", "sciName": "Phasianus colchicus", "locId": "L4298167", "locName": "Middle Fork River FP--Campground", "obsDt": "2025-12-06 16:28", "howMany": 20, "lat": 40.3778931, "lng": -87.9563177, "obsValid": true, "obsReviewed": false, "locationPrivate": false, "subId": "S287583900", "exoticCategory": "N"}, {"speciesCode": "moudov", "comName": "Mourning Dove", "sciName": "Zenaida macroura", "locId": "L4298167", "locName": "Middle Fork River FP--Campground", "obsDt": "2025-12-06 16:28", "howMany": 20, "lat": 40.3778931, "lng": -87.9563177, "obsValid": true, "obsReviewed": false, "locationPrivate": false, "subId": "S287583900"}, {"speciesCode": "amecro", "comName": "American Crow", "sciName": "Corvus brachyrhynchos", "locId": "L4298167", "locName": "Middle Fork River FP--Campground", "obsDt": "2025-12-06 16:28", "howMany": 2, "lat": 40.3778931, "lng": -87.9563177, "obsValid": true, "obsReviewed": false, "locationPrivate": false, "subId": "S287583900"}, {"speciesCode": "amtspa", "comName": "American Tree Sparrow", "sciName": "Spizelloides arborea", "locId": "L4298167", "locName": "Middle Fork River FP--Campground", "obsDt": "2025-12-06 16:28", "howMany": 10, "lat": 40.3778931, "lng": -87.9563177, "obsValid": true, "obsReviewed": false, "locationPrivate": false, "subId": "S287583900"}, {"speciesCode": "daejun", "comName": "Dark-eyed Junco", "sciName": "Junco hyemalis", "locId": "L4298167", "locName": "Middle Fork River FP--Campground", "obsDt": "2025-12-06 16:28", "howMany": 10, "lat": 40.3778931, "lng": -87.9563177, "obsValid": true, "obsReviewed": false, "locationPrivate": false, "subId": "S287583900"}, {"speciesCode": "wooduc", "comName": "Wood Duck", "sciName": "Aix sponsa", "locId": "L2312431", "locName": "Kaufman Lake, Champaign", "obsDt": "2025-12-06 16:06", "howMany": 1, "lat": 40.1139309, "lng": -88.2897592, "obsValid": true, "obsReviewed": false, "locationPrivate": false, "subId": "S287576751"}, {"speciesCode": "mallar3", "comName": "Mallard", "sciName": "Anas platyrhynchos", "locId": "L2312431", "locName": "Kaufman Lake, Champaign", "obsDt": "2025-12-06 16:06", "howMany": 100, "lat": 40.1139309, "lng": -88.2897592, "obsValid": true, "obsReviewed": false, "locationPrivate": false, "subId": "S287576751"}, {"speciesCode": "lessca", "comName": "Lesser Scaup", "sciName": "Aythya affinis", "locId": "L2312431", "locName": "Kaufman Lake, Champaign", "obsDt": "2025-12-06 16:06", "howMany": 1, "lat": 40.1139309, "lng": -88.2897592, "obsValid": true, "obsReviewed": false, "locationPrivate": false, "subId": "S287576751"}, {"speciesCode": "belkin1", "comName": "Belted Kingfisher", "sciName": "Megaceryle alcyon", "locId": "L2312431", "locName": "Kaufman Lake, Champaign", "obsDt": "2025-12-06 16:06", "howMany": 1, "lat": 40.1139309, "lng": -88.2897592, "obsValid": true, "obsReviewed": false, "locationPrivate": false, "subId": "S287576751"}, {"speciesCode": "eursta", "comName": "European Starling", "sciName": "Sturnus vulgaris", "locId": "L2312431", "locName": "Kaufman Lake, Champaign", "obsDt": "2025-12-06 16:06", "howMany": 10, "lat": 40.1139309, "lng": -88.2897592, "obsValid": true, "obsReviewed": false, "locationPrivate": false, "subId": "S287576751", "exoticCategory": "N"}, {"speciesCode": "amerob", "comName": "American Robin", "sciName": "Turdus migratorius", "locId": "L2312431", "locName": "Kaufman Lake, Champaign", "obsDt": "2025-12-06 16:06", "howMany": 10, "lat": 40.1139309, "lng": -88.2897592, "obsValid": true, "obsReviewed": false, "locationPrivate": false, "subId": "S287576751"}, {"speciesCode": "rebwoo", "comName": "Red-bellied Woodpecker", "sciName": "Melanerpes carolinus", "locId": "L47262200", "locName": "Middle Fork River FP--Old Miner's Trail", "obsDt": "2025-12-06 15:53", "howMany": 2, "lat": 40.39893, "lng": -87.97574, "obsValid": true, "obsReviewed": false, "locationPrivate": false, "subId": "S287583671"}, {"speciesCode": "laplon", "comName": "Lapland Longspur", "sciName": "Calcarius lapponicus", "locId": "L55768432", "locName": "Mid America Rd, Mahomet US-IL 40.17488, -88.42571", "obsDt": "2025-12-06 15:49", "lat": 40.174882, "lng": -88.425711, "obsValid": true, "obsReviewed": false, "locationPrivate": true, "subId": "S287565627"}, {"speciesCode": "whcspa", "comName": "White-crowned Sparrow", "sciName": "Zonotrichia leucophrys", "locId": "L55768432", "locName": "Mid America Rd, Mahomet US-IL 40.17488, -88.42571", "obsDt": "2025-12-06 15:49", "howMany": 1, "lat": 40.174882, "lng": -88.425711, "obsValid": true, "obsReviewed": false, "locationPrivate": true, "subId": "S287565627"}, {"speciesCode": "blujay", "comName": "Blue Jay", "sciName": "Cyanocitta cristata", "locId": "L10751561", "locName": "Riverbend Blvd", "obsDt": "2025-12-06 15:40", "howMany": 3, "lat": 40.178442, "lng": -88.4127142, "obsValid": true, "obsReviewed": false, "locationPrivate": true, "subId": "S288436687"}, {"speciesCode": "houspa", "comName": "House Sparrow", "sciName": "Passer domesticus", "locId": "L10751561", "locName": "Riverbend Blvd", "obsDt": "2025-12-06 15:40", "howMany": 5, "lat": 40.178442, "lng": -88.4127142, "obsValid": true, "obsReviewed": false, "locationPrivate": true, "subId": "S288436687", "exoticCategory": "N"}, {"speciesCode": "eutspa", "comName": "Eurasian Tree Sparrow", "sciName": "Passer montanus", "locId": "L10751561", "locName": "Riverbend Blvd", "obsDt": "2025-12-06 15:40", "howMany": 8, "lat": 40.178442, "lng": -88.4127142, "obsValid": true, "obsReviewed": true, "locationPrivate": true, "subId": "S288436687", "exoticCategory": "N"}, {"speciesCode": "houfin", "comName": "House Finch", "sciName": "Haemorhous mexicanus", "locId": "L10751561", "locName": "Riverbend Blvd", "obsDt": "2025-12-06 15:40", "howMany": 2, "lat": 40.178442, "lng": -88.4127142, "obsValid": true, "obsReviewed": false, "locationPrivate": true, "subId": "S288436687", "exoticCategory": "N"}, {"speciesCode": "whtspa", "comName": "White-throated Sparrow", "sciName": "Zonotrichia albicollis", "locId": "L10751561", "locName": "Riverbend Blvd", "obsDt": "2025-12-06 15:40", "howMany": 2, "lat": 40.178442, "lng": -88.4127142, "obsValid": true, "obsReviewed": false, "locationPrivate": true, "subId": "S288436687"}, {"speciesCode": "comgra", "comName": "Common Grackle", "sciName": "Quiscalus quiscula", "locId": "L10751561", "locName": "Riverbend Blvd", "obsDt": "2025-12-06 15:40", "howMany": 1, "lat": 40.178442, "lng": -88.4127142, "obsValid": true, "obsReviewed": false, "locationPrivate": true, "subId": "S288436687"}, {"speciesCode": "norcar", "comName": "Northern Cardinal", "sciName": "Cardinalis cardinalis", "locId": "L10751561", "locName": "Riverbend Blvd", "obsDt": "2025-12-06 15:40", "howMany": 4, "lat": 40.178442, "lng": -88.4127142, "obsValid": true, "obsReviewed": false, "locationPrivate": true, "subId": "S288436687"}, {"speciesCode": "rethaw", "comName": "Red-tailed Hawk", "sciName": "Buteo jamaicensis", "locId": "L18685194", "locName": "1800 N. and Rising Rd. Fluddle", "obsDt": "2025-12-06 15:38", "howMany": 1, "lat": 40.14216, "lng": -88.332035, "obsValid": true, "obsReviewed": false, "locationPrivate": false, "subId": "S287576527"}, {"speciesCode": "horlar", "comName": "Horned Lark", "sciName": "Eremophila alpestris", "locId": "L18685194", "locName": "1800 N. and Rising Rd. Fluddle", "obsDt": "2025-12-06 15:38", "howMany": 7, "lat": 40.14216, "lng": -88.332035, "obsValid": true, "obsReviewed": false, "locationPrivate": false, "subId": "S287576527"}, {"speciesCode": "snobun", "comName": "Snow Bunting", "sciName": "Plectrophenax nivalis", "locId": "L18685194", "locName": "1800 N. and Rising Rd. Fluddle", "obsDt": "2025-12-06 15:38", "howMany": 1, "lat": 40.14216, "lng": -88.332035, "obsValid": true, "obsReviewed": false, "locationPrivate": false, "subId": "S287576527"}, {"speciesCode": "savspa", "comName": "Savannah Sparrow", "sciName": "Passerculus sandwichensis", "locId": "L18685194", "locName": "1800 N. and Rising Rd. Fluddle", "obsDt": "2025-12-06 15:38", "howMany": 1, "lat": 40.14216, "lng": -88.332035, "obsValid": true, "obsReviewed": false, "locationPrivate": false, "subId": "S287576527"}, {"speciesCode": "rehwoo", "comName": "Red-headed Woodpecker", "sciName": "Melanerpes erythrocephalus", "locId": "L3030036", "locName": "Middle Fork River FP--North Waterfowl Management Area", "obsDt": "2025-12-06 15:13", "howMany": 1, "lat": 40.38557, "lng": -87.97878, "obsValid": true, "obsReviewed": false, "locationPrivate": false, "subId": "S287583555"}, {"speciesCode": "amegfi", "comName": "American Goldfinch", "sciName": "Spinus tristis", "locId": "L3030036", "locName": "Middle Fork River FP--North Waterfowl Management Area", "obsDt": "2025-12-06 15:13", "howMany": 2, "lat": 40.38557, "lng": -87.97878, "obsValid": true, "obsReviewed": false, "locationPrivate": false, "subId": "S287583555"}, {"speciesCode": "rewbla", "comName": "Red-winged Blackbird", "sciName": "Agelaius phoeniceus", "locId": "L3030036", "locName": "Middle Fork River FP--North Waterfowl Management Area", "obsDt": "2025-12-06 15:13", "howMany": 4, "lat": 40.38557, "lng": -87.97878, "obsValid": true, "obsReviewed": false, "locationPrivate": false, "subId": "S287583555"}, {"speciesCode": "truswa", "comName": "Trumpeter Swan", "sciName": "Cygnus buccinator", "locId": "L1126198", "locName": "River Bend Forest Preserve", "obsDt": "2025-12-06 15:07", "howMany": 5, "lat": 40.1824734, "lng": -88.4262085, "obsValid": true, "obsReviewed": false, "locationPrivate": false, "subId": "S287563971"}, {"speciesCode": "rinduc", "comName": "Ring-necked Duck", "sciName": "Aythya collaris", "locId": "L1126198", "locName": "River Bend Forest Preserve", "obsDt": "2025-12-06 15:07", "howMany": 6, "lat": 40.1824734, "lng": -88.4262085, "obsValid": true, "obsReviewed": false, "locationPrivate": false, "subId": "S287563971"}, {"speciesCode": "commer", "comName": "Common Merganser", "sciName": "Mergus merganser", "locId": "L1126198", "locName": "River Bend Forest Preserve", "obsDt": "2025-12-06 15:07", "howMany": 1, "lat": 40.1824734, "lng": -88.4262085, "obsValid": true, "obsReviewed": false, "locationPrivate": false, "subId": "S287563971"}, {"speciesCode": "y00475", "comName": "American Coot", "sciName": "Fulica americana", "locId": "L1126198", "locName": "River Bend Forest Preserve", "obsDt": "2025-12-06 15:07", "howMany": 21, "lat": 40.1824734, "lng": -88.4262085, "obsValid": true, "obsReviewed": false, "locationPrivate": false, "subId": "S287563971"}, {"speciesCode": "killde", "comName": "Killdeer", "sciName": "Charadrius vociferus", "locId": "L1126198", "locName": "River Bend Forest Preserve", "obsDt": "2025-12-06 15:07", "howMany": 1, "lat": 40.1824734, "lng": -88.4262085, "obsValid": true, "obsReviewed": false, "locationPrivate": false, "subId": "S287563971"}, {"speciesCode": "pibgre", "comName": "Pied-billed Grebe", "sciName": "Podilymbus podiceps", "locId": "L1126198", "locName": "River Bend Forest Preserve", "obsDt": "2025-12-06 15:07", "howMany": 2, "lat": 40.1824734, "lng": -88.4262085, "obsValid": true, "obsReviewed": false, "locationPrivate": false, "subId": "S287563971"}, {"speciesCode": "baleag", "comName": "Bald Eagle", "sciName": "Haliaeetus leucocephalus", "locId": "L1126198", "locName": "River Bend Forest Preserve", "obsDt": "2025-12-06 15:07", "howMany": 1, "lat": 40.1824734, "lng": -88.4262085, "obsValid": true, "obsReviewed": false, "locationPrivate": false, "subId": "S287563971"}, {"speciesCode": "dowwoo", "comName": "Downy Woodpecker", "sciName": "Dryobates pubescens", "locId": "L1126198", "locName": "River Bend Forest Preserve", "obsDt": "2025-12-06 15:07", "howMany": 1, "lat": 40.1824734, "lng": -88.4262085, "obsValid": true, "obsReviewed": false, "locationPrivate": false, "subId": "S287563971"}, {"speciesCode": "norfli", "comName": "Northern Flicker", "sciName": "Colaptes auratus", "locId": "L1126198", "locName": "River Bend Forest Preserve", "obsDt": "2025-12-06 15:07", "howMany": 2, "lat": 40.1824734, "lng": -88.4262085, "obsValid": true, "obsReviewed": false, "locationPrivate": false, "subId": "S287563971"}, {"speciesCode": "bkcchi", "comName": "Black-capped Chickadee", "sciName": "Poecile atricapillus", "locId": "L1126198", "locName": "River Bend Forest Preserve", "obsDt": "2025-12-06 15:07", "howMany": 2, "lat": 40.1824734, "lng": -88.4262085, "obsValid": true, "obsReviewed": false, "locationPrivate": false, "subId": "S287563971"}, {"speciesCode": "whbnut", "comName": "White-breasted Nuthatch", "sciName": "Sitta carolinensis", "locId": "L2093410", "locName": "207 GH Baker", "obsDt": "2025-12-06 15:00", "howMany": 2, "lat": 40.1329207, "lng": -88.2065034, "obsValid": true, "obsReviewed": false, "locationPrivate": true, "subId": "S287566978"}, {"speciesCode": "rebnut", "comName": "Red-breasted Nuthatch", "sciName": "Sitta canadensis", "locId": "L2093410", "locName": "207 GH Baker", "obsDt": "2025-12-06 15:00", "howMany": 1, "lat": 40.1329207, "lng": -88.2065034, "obsValid": true, "obsReviewed": false, "locationPrivate": true, "subId": "S287566978"}, {"speciesCode": "carwre", "comName": "Carolina Wren", "sciName": "Thryothorus ludovicianus", "locId": "L2093410", "locName": "207 GH Baker", "obsDt": "2025-12-06 15:00", "howMany": 1, "lat": 40.1329207, "lng": -88.2065034, "obsValid": true, "obsReviewed": false, "locationPrivate": true, "subId": "S287566978"}, {"speciesCode": "foxspa", "comName": "Fox Sparrow", "sciName": "Passerella iliaca", "locId": "L2093410", "locName": "207 GH Baker", "obsDt": "2025-12-06 15:00", "howMany": 2, "lat": 40.1329207, "lng": -88.2065034, "obsValid": true, "obsReviewed": false, "locationPrivate": true, "subId": "S287566978"}, {"speciesCode": "bnhcow", "comName": "Brown-headed Cowbird", "sciName": "Molothrus ater", "locId": "L2093410", "locName": "207 GH Baker", "obsDt": "2025-12-06 15:00", "howMany": 3, "lat": 40.1329207, "lng": -88.2065034, "obsValid": true, "obsReviewed": false, "locationPrivate": true, "subId": "S287566978"}, {"speciesCode": "comgol", "comName": "Common Goldeneye", "sciName": "Bucephala clangula", "locId": "L1126198", "locName": "River Bend Forest Preserve", "obsDt": "2025-12-06 14:51", "howMany": 6, "lat": 40.1824734, "lng": -88.4262085, "obsValid": true, "obsReviewed": false, "locationPrivate": false, "subId": "S287558334"}, {"speciesCode": "gadwal", "comName": "Gadwall", "sciName": "Mareca strepera", "locId": "L1126198", "locName": "River Bend Forest Preserve", "obsDt": "2025-12-06 14:30", "howMany": 2, "lat": 40.1824734, "lng": -88.4262085, "obsValid": true, "obsReviewed": false, "locationPrivate": false, "subId": "S287591926"}, {"speciesCode": "cedwax", "comName": "Cedar Waxwing", "sciName": "Bombycilla cedrorum", "locId": "L1126198", "locName": "River Bend Forest Preserve", "obsDt": "2025-12-06 13:58", "howMany": 2, "lat": 40.1824734, "lng": -88.4262085, "obsValid": true, "obsReviewed": false, "locationPrivate": false, "subId": "S287576369"}, {"speciesCode": "ribgul", "comName": "Ring-billed Gull", "sciName": "Larus delawarensis", "locId": "L1126198", "locName": "River Bend Forest Preserve", "obsDt": "2025-12-06 13:32", "howMany": 3, "lat": 40.1824734, "lng": -88.4262085, "obsValid": true, "obsReviewed": false, "locationPrivate": false, "subId": "S287578038"}, {"speciesCode": "grbher3", "comName": "Great Blue Heron", "sciName": "Ardea herodias", "locId": "L1126198", "locName": "River Bend Forest Preserve", "obsDt": "2025-12-06 13:32", "howMany": 1, "lat": 40.1824734, "lng": -88.4262085, "obsValid": true, "obsReviewed": false, "locationPrivate": false, "subId": "S287578038"}, {"speciesCode": "shshaw", "comName": "Sharp-shinned Hawk", "sciName": "Accipiter striatus", "locId": "L1126198", "locName": "River Bend Forest Preserve", "obsDt": "2025-12-06 13:32", "howMany": 1, "lat": 40.1824734, "lng": -88.4262085, "obsValid": true, "obsReviewed": false, "locationPrivate": false, "subId": "S287578038"}, {"speciesCode": "easblu", "comName": "Eastern Bluebird", "sciName": "Sialia sialis", "locId": "L1126198", "locName": "River Bend Forest Preserve", "obsDt": "2025-12-06 13:32", "howMany": 6, "lat": 40.1824734, "lng": -88.4262085, "obsValid": true, "obsReviewed": false, "locationPrivate": false, "subId": "S287578038"}, {"speciesCode": "sonspa", "comName": "Song Sparrow", "sciName": "Melospiza melodia", "locId": "L2312431", "locName": "Kaufman Lake, Champaign", "obsDt": "2025-12-06 13:32", "howMany": 1, "lat": 40.1139309, "lng": -88.2897592, "obsValid": true, "obsReviewed": false, "locationPrivate": false, "subId": "S287548743"}, {"speciesCode": "norsho", "comName": "Northern Shoveler", "sciName": "Spatula clypeata", "locId": "L55762651", "locName": "2172 Homer Lake Rd N, Saint Joseph US-IL 40.09189, -88.05093", "obsDt": "2025-12-06 13:00", "howMany": 1, "lat": 40.091892, "lng": -88.05093, "obsValid": true, "obsReviewed": false, "locationPrivate": true, "subId": "S287540123"}, {"speciesCode": "wilsni1", "comName": "Wilson's Snipe", "sciName": "Gallinago delicata", "locId": "L55762651", "locName": "2172 Homer Lake Rd N, Saint Joseph US-IL 40.09189, -88.05093", "obsDt": "2025-12-06 13:00", "howMany": 1, "lat": 40.091892, "lng": -88.05093, "obsValid": true, "obsReviewed": false, "locationPrivate": true, "subId": "S287540123"}, {"speciesCode": "carchi", "comName": "Carolina Chickadee", "sciName": "Poecile carolinensis", "locId": "L217019", "locName": "Homer Lake Forest Preserve", "obsDt": "2025-12-06 12:28", "howMany": 2, "lat": 40.0653229, "lng": -87.9867235, "obsValid": true, "obsReviewed": false, "locationPrivate": false, "subId": "S287536540"}, {"speciesCode": "tuftit", "comName": "Tufted Titmouse", "sciName": "Baeolophus bicolor", "locId": "L217019", "locName": "Homer Lake Forest Preserve", "obsDt": "2025-12-06 12:28", "howMany": 4, "lat": 40.0653229, "lng": -87.9867235, "obsValid": true, "obsReviewed": false, "locationPrivate": false, "subId": "S287536540"}, {"speciesCode": "robgro", "comName": "Rose-breasted Grosbeak", "sciName": "Pheucticus ludovicianus", "locId": "L217019", "locName": "Homer Lake Forest Preserve", "obsDt": "2025-12-06 12:28", "howMany": 1, "lat": 40.0653229, "lng": -87.9867235, "obsValid": true, "obsReviewed": true, "locationPrivate": false, "subId": "S287536540"}, {"speciesCode": "cacgoo1", "comName": "Cackling Goose", "sciName": "Branta hutchinsii", "locId": "L55770223", "locName": "Homer Lake Rd \u2014 Salt Fork Crossing", "obsDt": "2025-12-06 12:22", "howMany": 1, "lat": 40.091716, "lng": -88.050857, "obsValid": true, "obsReviewed": false, "locationPrivate": true, "subId": "S287572985"}, {"speciesCode": "coohaw", "comName": "Cooper's Hawk", "sciName": "Astur cooperii", "locId": "L13012138", "locName": "Home on Staley Rd, Champaign", "obsDt": "2025-12-06 12:22", "howMany": 1, "lat": 40.0881307, "lng": -88.3137176, "obsValid": true, "obsReviewed": false, "locationPrivate": true, "subId": "S287573096"}, {"speciesCode": "easmea", "comName": "Eastern Meadowlark", "sciName": "Sturnella magna", "locId": "L55760651", "locName": "376 County Road 1400 North, Champaign, Illinois, US (40.084, -88.393)", "obsDt": "2025-12-06 12:09", "howMany": 4, "lat": 40.0841927, "lng": -88.3925651, "obsValid": true, "obsReviewed": false, "locationPrivate": true, "subId": "S287531342"}, {"speciesCode": "rolhaw", "comName": "Rough-legged Hawk", "sciName": "Buteo lagopus", "locId": "L55760442", "locName": "1401\u20131447 County Road 1900 E, Urbana US-IL 40.08855, -88.10479", "obsDt": "2025-12-06 12:03", "howMany": 1, "lat": 40.088551, "lng": -88.10479, "obsValid": true, "obsReviewed": false, "locationPrivate": true, "subId": "S287530316"}, {"speciesCode": "merlin", "comName": "Merlin", "sciName": "Falco columbarius", "locId": "L10274233", "locName": "303 County Road 1500 North, Seymour, Illinois, US (40.099, -88.407)", "obsDt": "2025-12-06 12:02", "howMany": 1, "lat": 40.0986502, "lng": -88.4073349, "obsValid": true, "obsReviewed": false, "locationPrivate": true, "subId": "S287530282"}, {"speciesCode": "ambduc", "comName": "American Black Duck", "sciName": "Anas rubripes", "locId": "L2312431", "locName": "Kaufman Lake, Champaign", "obsDt": "2025-12-06 11:30", "howMany": 3, "lat": 40.1139309, "lng": -88.2897592, "obsValid": true, "obsReviewed": false, "locationPrivate": false, "subId": "S287538283"}, {"speciesCode": "reshaw", "comName": "Red-shouldered Hawk", "sciName": "Buteo lineatus", "locId": "L2312431", "locName": "Kaufman Lake, Champaign", "obsDt": "2025-12-06 11:30", "howMany": 1, "lat": 40.1139309, "lng": -88.2897592, "obsValid": true, "obsReviewed": false, "locationPrivate": false, "subId": "S287538283"}, {"speciesCode": "buwtea", "comName": "Blue-winged Teal", "sciName": "Spatula discors", "locId": "L1126198", "locName": "River Bend Forest Preserve", "obsDt": "2025-12-06 11:20", "howMany": 1, "lat": 40.1824734, "lng": -88.4262085, "obsValid": true, "obsReviewed": true, "locationPrivate": false, "subId": "S287548173"}, {"speciesCode": "haiwoo", "comName": "Hairy Woodpecker", "sciName": "Leuconotopicus villosus", "locId": "L1126198", "locName": "River Bend Forest Preserve", "obsDt": "2025-12-06 11:20", "howMany": 2, "lat": 40.1824734, "lng": -88.4262085, "obsValid": true, "obsReviewed": false, "locationPrivate": false, "subId": "S287548173"}, {"speciesCode": "gockin", "comName": "Golden-crowned Kinglet", "sciName": "Regulus satrapa", "locId": "L1126198", "locName": "River Bend Forest Preserve", "obsDt": "2025-12-06 11:20", "howMany": 1, "lat": 40.1824734, "lng": -88.4262085, "obsValid": true, "obsReviewed": false, "locationPrivate": false, "subId": "S287548173"}, {"speciesCode": "herthr", "comName": "Hermit Thrush", "sciName": "Catharus guttatus", "locId": "L1126198", "locName": "River Bend Forest Preserve", "obsDt": "2025-12-06 11:20", "howMany": 1, "lat": 40.1824734, "lng": -88.4262085, "obsValid": true, "obsReviewed": false, "locationPrivate": false, "subId": "S287548173"}, {"speciesCode": "amepip", "comName": "American Pipit", "sciName": "Anthus rubescens", "locId": "L1126198", "locName": "River Bend Forest Preserve", "obsDt": "2025-12-06 11:20", "howMany": 1, "lat": 40.1824734, "lng": -88.4262085, "obsValid": true, "obsReviewed": false, "locationPrivate": false, "subId": "S287548173"}, {"speciesCode": "brncre", "comName": "Brown Creeper", "sciName": "Certhia americana", "locId": "L49654656", "locName": "Busey Birding", "obsDt": "2025-12-06 10:01", "howMany": 1, "lat": 40.105253, "lng": -88.217965, "obsValid": true, "obsReviewed": false, "locationPrivate": true, "subId": "S287507846"}, {"speciesCode": "rudduc", "comName": "Ruddy Duck", "sciName": "Oxyura jamaicensis", "locId": "L1126198", "locName": "River Bend Forest Preserve", "obsDt": "2025-12-06 09:34", "howMany": 1, "lat": 40.1824734, "lng": -88.4262085, "obsValid": true, "obsReviewed": false, "locationPrivate": false, "subId": "S287516958"}, {"speciesCode": "gwfgoo", "comName": "Greater White-fronted Goose", "sciName": "Anser albifrons", "locId": "L1126198", "locName": "River Bend Forest Preserve", "obsDt": "2025-12-06 07:45", "howMany": 75, "lat": 40.1824734, "lng": -88.4262085, "obsValid": true, "obsReviewed": false, "locationPrivate": false, "subId": "S287537711"}, {"speciesCode": "hoomer", "comName": "Hooded Merganser", "sciName": "Lophodytes cucullatus", "locId": "L1126198", "locName": "River Bend Forest Preserve", "obsDt": "2025-12-06 07:45", "howMany": 1, "lat": 40.1824734, "lng": -88.4262085, "obsValid": true, "obsReviewed": false, "locationPrivate": false, "subId": "S287537711"}, {"speciesCode": "norhar2", "comName": "Northern Harrier", "sciName": "Circus hudsonius", "locId": "L1126198", "locName": "River Bend Forest Preserve", "obsDt": "2025-12-06 07:38", "howMany": 1, "lat": 40.1824734, "lng": -88.4262085, "obsValid": true, "obsReviewed": false, "locationPrivate": false, "subId": "S287536211"}, {"speciesCode": "yetwar", "comName": "Yellow-throated Warbler", "sciName": "Setophaga dominica", "locId": "L200211", "locName": "Price home", "obsDt": "2025-12-06 07:00", "howMany": 1, "lat": 40.1149569, "lng": -88.0352425, "obsValid": true, "obsReviewed": true, "locationPrivate": true, "subId": "S287485649"}, {"speciesCode": "pilwoo", "comName": "Pileated Woodpecker", "sciName": "Dryocopus pileatus", "locId": "L10434752", "locName": "1207 County Road 2500 East, Saint Joseph, Illinois, US (40.054, -87.996)", "obsDt": "2025-12-06 06:57", "lat": 40.0543378, "lng": -87.9959202, "obsValid": true, "obsReviewed": false, "locationPrivate": true, "subId": "S287481812"}, {"speciesCode": "pinsis", "comName": "Pine Siskin", "sciName": "Spinus pinus", "locId": "L14546720", "locName": "Charles Street", "obsDt": "2025-12-06 06:14", "howMany": 1, "lat": 40.106462, "lng": -88.259658, "obsValid": true, "obsReviewed": false, "locationPrivate": true, "subId": "S287481563"}, {"speciesCode": "yerwar", "comName": "Yellow-rumped Warbler", "sciName": "Setophaga coronata", "locId": "L14546720", "locName": "Charles Street", "obsDt": "2025-12-06 06:14", "howMany": 1, "lat": 40.106462, "lng": -88.259658, "obsValid": true, "obsReviewed": false, "locationPrivate": true, "subId": "S287481563"}]