[{"speciesCode": "herthr", "comName": "Hermit Thrush", "sciName": "Catharus guttatus", "locId": "L4657484", "locName": "Evergreen Lake--Shady Hallow Area", "obsDt": "2025-12-10 17:37", "howMany": 1, "lat": 40.620969, "lng": -89.015071, "obsValid": true, "obsReviewed": false, "locationPrivate": false, "subId": "S288080313"}, {"speciesCode": "cangoo", "comName": "Canada Goose", "sciName": "Branta canadensis", "locId": "L29223908", "locName": "24209\u201324219 Ron Smith Memorial Hwy, Lexington US-IL 40.63930, -88.91753", "obsDt": "2025-12-10 15:00", "howMany": 100, "lat": 40.639299, "lng": -88.917534, "obsValid": true, "obsReviewed": false, "locationPrivate": true, "subId": "S288067859"}, {"speciesCode": "rebwoo", "comName": "Red-bellied Woodpecker", "sciName": "Melanerpes carolinus", "locId": "L29223908", "locName": "24209\u201324219 Ron Smith Memorial Hwy, Lexington US-IL 40.63930, -88.91753", "obsDt": "2025-12-10 15:00", "howMany": 2, "lat": 40.639299, "lng": -88.917534, "obsValid": true, "obsReviewed": false, "locationPrivate": true, "subId": "S288067859"}, {"speciesCode": "dowwoo", "comName": "Downy Woodpecker", "sciName": "Dryobates pubescens", "locId": "L29223908", "locName": "24209\u201324219 Ron Smith Memorial Hwy, Lexington US-IL 40.63930, -88.91753", "obsDt": "2025-12-10 15:00", "howMany": 1, "lat": 40.639299, "lng": -88.917534, "obsValid": true, "obsReviewed": false, "locationPrivate": true, "subId": "S288067859"}, {"speciesCode": "blujay", "comName": "Blue Jay", "sciName": "Cyanocitta cristata", "locId": "L29223908", "locName": "24209\u201324219 Ron Smith Memorial Hwy, Lexington US-IL 40.63930, -88.91753", "obsDt": "2025-12-10 15:00", "howMany": 5, "lat": 40.639299, "lng": -88.917534, "obsValid": true, "obsReviewed": false, "locationPrivate": true, "subId": "S288067859"}, {"speciesCode": "bkcchi", "comName": "Black-capped Chickadee", "sciName": "Poecile atricapillus", "locId": "L29223908", "locName": "24209\u201324219 Ron Smith Memorial Hwy, Lexington US-IL 40.63930, -88.91753", "obsDt": "2025-12-10 15:00", "howMany": 2, "lat": 40.639299, "lng": -88.917534, "obsValid": true, "obsReviewed": false, "locationPrivate": true, "subId": "S288067859"}, {"speciesCode": "whbnut", "comName": "White-breasted Nuthatch", "sciName": "Sitta carolinensis", "locId": "L29223908", "locName": "24209\u201324219 Ron Smith Memorial Hwy, Lexington US-IL 40.63930, -88.91753", "obsDt": "2025-12-10 15:00", "howMany": 1, "lat": 40.639299, "lng": -88.917534, "obsValid": true, "obsReviewed": false, "locationPrivate": true, "subId": "S288067859"}, {"speciesCode": "rebnut", "comName": "Red-breasted Nuthatch", "sciName": "Sitta canadensis", "locId": "L29223908", "locName": "24209\u201324219 Ron Smith Memorial Hwy, Lexington US-IL 40.63930, -88.91753", "obsDt": "2025-12-10 15:00", "howMany": 1, "lat": 40.639299, "lng": -88.917534, "obsValid": true, "obsReviewed": false, "locationPrivate": true, "subId": "S288067859"}, {"speciesCode": "carwre", "comName": "Carolina Wren", "sciName": "Thryothorus ludovicianus", "locId": "L29223908", "locName": "24209\u201324219 Ron Smith Memorial Hwy, Lexington US-IL 40.63930, -88.91753", "obsDt": "2025-12-10 15:00", "howMany": 2, "lat": 40.639299, "lng": -88.917534, "obsValid": true, "obsReviewed": false, "locationPrivate": true, "subId": "S288067859"}, {"speciesCode": "foxspa", "comName": "Fox Sparrow", "sciName": "Passerella iliaca", "locId": "L29223908", "locName": "24209\u201324219 Ron Smith Memorial Hwy, Lexington US-IL 40.63930, -88.91753", "obsDt": "2025-12-10 15:00", "howMany": 2, "lat": 40.639299, "lng": -88.917534, "obsValid": true, "obsReviewed": false, "locationPrivate": true, "subId": "S288067859"}, {"speciesCode": "daejun", "comName": "Dark-eyed Junco", "sciName": "Junco hyemalis", "locId": "L29223908", "locName": "24209\u201324219 Ron Smith Memorial Hwy, Lexington US-IL 40.63930, -88.91753", "obsDt": "2025-12-10 15:00", "howMany": 6, "lat": 40.639299, "lng": -88.917534, "obsValid": true, "obsReviewed": false, "locationPrivate": true, "subId": "S288067859"}, {"speciesCode": "norcar", "comName": "Northern Cardinal", "sciName": "Cardinalis cardinalis", "locId": "L29223908", "locName": "24209\u201324219 Ron Smith Memorial Hwy, Lexington US-IL 40.63930, -88.91753", "obsDt": "2025-12-10 15:00", "howMany": 2, "lat": 40.639299, "lng": -88.917534, "obsValid": true, "obsReviewed": false, "locationPrivate": true, "subId": "S288067859"}, {"speciesCode": "houspa", "comName": "House Sparrow", "sciName": "Passer domesticus", "locId": "L3123797", "locName": "Bellemont Rd, Bloomington IL", "obsDt": "2025-12-10 14:39", "howMany": 2, "lat": 40.4786432, "lng": -88.9618027, "obsValid": true, "obsReviewed": false, "locationPrivate": true, "subId": "S288065340", "exoticCategory": "N"}, {"speciesCode": "houfin", "comName": "House Finch", "sciName": "Haemorhous mexicanus", "locId": "L3123797", "locName": "Bellemont Rd, Bloomington IL", "obsDt": "2025-12-10 14:39", "howMany": 1, "lat": 40.4786432, "lng": -88.9618027, "obsValid": true, "obsReviewed": false, "locationPrivate": true, "subId": "S288065340", "exoticCategory": "N"}, {"speciesCode": "pinsis", "comName": "Pine Siskin", "sciName": "Spinus pinus", "locId": "L3123797", "locName": "Bellemont Rd, Bloomington IL", "obsDt": "2025-12-10 14:39", "howMany": 1, "lat": 40.4786432, "lng": -88.9618027, "obsValid": true, "obsReviewed": false, "locationPrivate": true, "subId": "S288065340"}, {"speciesCode": "amegfi", "comName": "American Goldfinch", "sciName": "Spinus tristis", "locId": "L3123797", "locName": "Bellemont Rd, Bloomington IL", "obsDt": "2025-12-10 14:39", "howMany": 2, "lat": 40.4786432, "lng": -88.9618027, "obsValid": true, "obsReviewed": false, "locationPrivate": true, "subId": "S288065340"}, {"speciesCode": "bnhcow", "comName": "Brown-headed Cowbird", "sciName": "Molothrus ater", "locId": "L3123797", "locName": "Bellemont Rd, Bloomington IL", "obsDt": "2025-12-10 14:39", "howMany": 1, "lat": 40.4786432, "lng": -88.9618027, "obsValid": true, "obsReviewed": false, "locationPrivate": true, "subId": "S288065340"}, {"speciesCode": "norsho", "comName": "Northern Shoveler", "sciName": "Spatula clypeata", "locId": "L300463", "locName": "Lake Bloomington", "obsDt": "2025-12-10 14:21", "howMany": 6, "lat": 40.6463803, "lng": -88.9258229, "obsValid": true, "obsReviewed": false, "locationPrivate": false, "subId": "S288065298"}, {"speciesCode": "mallar3", "comName": "Mallard", "sciName": "Anas platyrhynchos", "locId": "L300463", "locName": "Lake Bloomington", "obsDt": "2025-12-10 14:21", "howMany": 4, "lat": 40.6463803, "lng": -88.9258229, "obsValid": true, "obsReviewed": false, "locationPrivate": false, "subId": "S288065298"}, {"speciesCode": "ambduc", "comName": "American Black Duck", "sciName": "Anas rubripes", "locId": "L300463", "locName": "Lake Bloomington", "obsDt": "2025-12-10 14:21", "howMany": 1, "lat": 40.6463803, "lng": -88.9258229, "obsValid": true, "obsReviewed": false, "locationPrivate": false, "subId": "S288065298"}, {"speciesCode": "lessca", "comName": "Lesser Scaup", "sciName": "Aythya affinis", "locId": "L300463", "locName": "Lake Bloomington", "obsDt": "2025-12-10 14:21", "howMany": 6, "lat": 40.6463803, "lng": -88.9258229, "obsValid": true, "obsReviewed": false, "locationPrivate": false, "subId": "S288065298"}, {"speciesCode": "comgol", "comName": "Common Goldeneye", "sciName": "Bucephala clangula", "locId": "L300463", "locName": "Lake Bloomington", "obsDt": "2025-12-10 14:21", "howMany": 2, "lat": 40.6463803, "lng": -88.9258229, "obsValid": true, "obsReviewed": false, "locationPrivate": false, "subId": "S288065298"}, {"speciesCode": "hoomer", "comName": "Hooded Merganser", "sciName": "Lophodytes cucullatus", "locId": "L300463", "locName": "Lake Bloomington", "obsDt": "2025-12-10 14:21", "howMany": 3, "lat": 40.6463803, "lng": -88.9258229, "obsValid": true, "obsReviewed": false, "locationPrivate": false, "subId": "S288065298"}, {"speciesCode": "commer", "comName": "Common Merganser", "sciName": "Mergus merganser", "locId": "L300463", "locName": "Lake Bloomington", "obsDt": "2025-12-10 14:21", "howMany": 1, "lat": 40.6463803, "lng": -88.9258229, "obsValid": true, "obsReviewed": false, "locationPrivate": false, "subId": "S288065298"}, {"speciesCode": "baleag", "comName": "Bald Eagle", "sciName": "Haliaeetus leucocephalus", "locId": "L300463", "locName": "Lake Bloomington", "obsDt": "2025-12-10 14:21", "howMany": 5, "lat": 40.6463803, "lng": -88.9258229, "obsValid": true, "obsReviewed": false, "locationPrivate": false, "subId": "S288065298"}, {"speciesCode": "amecro", "comName": "American Crow", "sciName": "Corvus brachyrhynchos", "locId": "L30896610", "locName": "482 Wylie Dr, Normal US-IL 40.49551, -89.03324", "obsDt": "2025-12-10 13:13", "howMany": 30, "lat": 40.495511, "lng": -89.033243, "obsValid": true, "obsReviewed": false, "locationPrivate": true, "subId": "S288057085"}, {"speciesCode": "mutswa", "comName": "Mute Swan", "sciName": "Cygnus olor", "locId": "L4137491", "locName": "Downs Quarry Ponds (roadside birding only)", "obsDt": "2025-12-10 12:34", "howMany": 7, "lat": 40.388235, "lng": -88.881895, "obsValid": true, "obsReviewed": false, "locationPrivate": false, "subId": "S288056822", "exoticCategory": "N"}, {"speciesCode": "amewig", "comName": "American Wigeon", "sciName": "Mareca americana", "locId": "L4137491", "locName": "Downs Quarry Ponds (roadside birding only)", "obsDt": "2025-12-10 12:34", "howMany": 3, "lat": 40.388235, "lng": -88.881895, "obsValid": true, "obsReviewed": false, "locationPrivate": false, "subId": "S288056822"}, {"speciesCode": "canvas", "comName": "Canvasback", "sciName": "Aythya valisineria", "locId": "L4137491", "locName": "Downs Quarry Ponds (roadside birding only)", "obsDt": "2025-12-10 12:34", "howMany": 2, "lat": 40.388235, "lng": -88.881895, "obsValid": true, "obsReviewed": false, "locationPrivate": false, "subId": "S288056822"}, {"speciesCode": "buffle", "comName": "Bufflehead", "sciName": "Bucephala albeola", "locId": "L4137491", "locName": "Downs Quarry Ponds (roadside birding only)", "obsDt": "2025-12-10 12:34", "howMany": 1, "lat": 40.388235, "lng": -88.881895, "obsValid": true, "obsReviewed": false, "locationPrivate": false, "subId": "S288056822"}, {"speciesCode": "y00475", "comName": "American Coot", "sciName": "Fulica americana", "locId": "L4137491", "locName": "Downs Quarry Ponds (roadside birding only)", "obsDt": "2025-12-10 12:34", "howMany": 8, "lat": 40.388235, "lng": -88.881895, "obsValid": true, "obsReviewed": false, "locationPrivate": false, "subId": "S288056822"}, {"speciesCode": "moudov", "comName": "Mourning Dove", "sciName": "Zenaida macroura", "locId": "L29268145", "locName": "GreyFoxJewel", "obsDt": "2025-12-10 11:51", "howMany": 1, "lat": 40.453345, "lng": -89.0305, "obsValid": true, "obsReviewed": false, "locationPrivate": true, "subId": "S288051648"}, {"speciesCode": "amerob", "comName": "American Robin", "sciName": "Turdus migratorius", "locId": "L29268145", "locName": "GreyFoxJewel", "obsDt": "2025-12-10 11:51", "howMany": 1, "lat": 40.453345, "lng": -89.0305, "obsValid": true, "obsReviewed": false, "locationPrivate": true, "subId": "S288051648"}, {"speciesCode": "killde", "comName": "Killdeer", "sciName": "Charadrius vociferus", "locId": "L474309", "locName": "State Farm Corporate South, Bloomington", "obsDt": "2025-12-10 08:23", "howMany": 1, "lat": 40.4583114, "lng": -88.9520073, "obsValid": true, "obsReviewed": false, "locationPrivate": false, "subId": "S288050324"}, {"speciesCode": "eursta", "comName": "European Starling", "sciName": "Sturnus vulgaris", "locId": "L474309", "locName": "State Farm Corporate South, Bloomington", "obsDt": "2025-12-10 08:23", "howMany": 200, "lat": 40.4583114, "lng": -88.9520073, "obsValid": true, "obsReviewed": false, "locationPrivate": false, "subId": "S288050324", "exoticCategory": "N"}]