[{"speciesCode": "moudov", "comName": "Mourning Dove", "sciName": "Zenaida macroura", "locId": "L16368777", "locName": "25912 W Timber Ridge Dr, Channahon US-IL 41.42399, -88.24084", "obsDt": "2025-12-29 16:02", "howMany": 7, "lat": 41.423985, "lng": -88.240839, "obsValid": true, "obsReviewed": false, "locationPrivate": true, "subId": "S291076943"}, {"speciesCode": "houspa", "comName": "House Sparrow", "sciName": "Passer domesticus", "locId": "L16368777", "locName": "25912 W Timber Ridge Dr, Channahon US-IL 41.42399, -88.24084", "obsDt": "2025-12-29 16:02", "howMany": 2, "lat": 41.423985, "lng": -88.240839, "obsValid": true, "obsReviewed": false, "locationPrivate": true, "subId": "S291076943", "exoticCategory": "N"}, {"speciesCode": "houfin", "comName": "House Finch", "sciName": "Haemorhous mexicanus", "locId": "L16368777", "locName": "25912 W Timber Ridge Dr, Channahon US-IL 41.42399, -88.24084", "obsDt": "2025-12-29 16:02", "howMany": 2, "lat": 41.423985, "lng": -88.240839, "obsValid": true, "obsReviewed": false, "locationPrivate": true, "subId": "S291076943", "exoticCategory": "N"}, {"speciesCode": "daejun", "comName": "Dark-eyed Junco", "sciName": "Junco hyemalis", "locId": "L16368777", "locName": "25912 W Timber Ridge Dr, Channahon US-IL 41.42399, -88.24084", "obsDt": "2025-12-29 16:02", "howMany": 5, "lat": 41.423985, "lng": -88.240839, "obsValid": true, "obsReviewed": false, "locationPrivate": true, "subId": "S291076943"}, {"speciesCode": "whtspa", "comName": "White-throated Sparrow", "sciName": "Zonotrichia albicollis", "locId": "L16368777", "locName": "25912 W Timber Ridge Dr, Channahon US-IL 41.42399, -88.24084", "obsDt": "2025-12-29 16:02", "howMany": 1, "lat": 41.423985, "lng": -88.240839, "obsValid": true, "obsReviewed": false, "locationPrivate": true, "subId": "S291076943"}, {"speciesCode": "norcar", "comName": "Northern Cardinal", "sciName": "Cardinalis cardinalis", "locId": "L16368777", "locName": "25912 W Timber Ridge Dr, Channahon US-IL 41.42399, -88.24084", "obsDt": "2025-12-29 16:02", "howMany": 6, "lat": 41.423985, "lng": -88.240839, "obsValid": true, "obsReviewed": false, "locationPrivate": true, "subId": "S291076943"}, {"speciesCode": "rebwoo", "comName": "Red-bellied Woodpecker", "sciName": "Melanerpes carolinus", "locId": "L2226110", "locName": "Beaver Den Trl", "obsDt": "2025-12-29 14:52", "howMany": 2, "lat": 41.5948384, "lng": -87.9273969, "obsValid": true, "obsReviewed": false, "locationPrivate": true, "subId": "S291091564"}, {"speciesCode": "dowwoo", "comName": "Downy Woodpecker", "sciName": "Dryobates pubescens", "locId": "L2226110", "locName": "Beaver Den Trl", "obsDt": "2025-12-29 14:52", "howMany": 1, "lat": 41.5948384, "lng": -87.9273969, "obsValid": true, "obsReviewed": false, "locationPrivate": true, "subId": "S291091564"}, {"speciesCode": "rebnut", "comName": "Red-breasted Nuthatch", "sciName": "Sitta canadensis", "locId": "L2226110", "locName": "Beaver Den Trl", "obsDt": "2025-12-29 14:52", "howMany": 1, "lat": 41.5948384, "lng": -87.9273969, "obsValid": true, "obsReviewed": false, "locationPrivate": true, "subId": "S291091564"}, {"speciesCode": "cangoo", "comName": "Canada Goose", "sciName": "Branta canadensis", "locId": "L56337525", "locName": "W Eagle Lake Rd, Beecher US-IL", "obsDt": "2025-12-29 14:50", "howMany": 78, "lat": 41.369651, "lng": -87.673002, "obsValid": true, "obsReviewed": false, "locationPrivate": true, "subId": "S291100674"}, {"speciesCode": "mallar3", "comName": "Mallard", "sciName": "Anas platyrhynchos", "locId": "L56337525", "locName": "W Eagle Lake Rd, Beecher US-IL", "obsDt": "2025-12-29 14:50", "howMany": 6, "lat": 41.369651, "lng": -87.673002, "obsValid": true, "obsReviewed": false, "locationPrivate": true, "subId": "S291100674"}, {"speciesCode": "rinduc", "comName": "Ring-necked Duck", "sciName": "Aythya collaris", "locId": "L56337525", "locName": "W Eagle Lake Rd, Beecher US-IL", "obsDt": "2025-12-29 14:50", "howMany": 1, "lat": 41.369651, "lng": -87.673002, "obsValid": true, "obsReviewed": false, "locationPrivate": true, "subId": "S291100674"}, {"speciesCode": "wiltur", "comName": "Wild Turkey", "sciName": "Meleagris gallopavo", "locId": "L56337525", "locName": "W Eagle Lake Rd, Beecher US-IL", "obsDt": "2025-12-29 14:50", "howMany": 9, "lat": 41.369651, "lng": -87.673002, "obsValid": true, "obsReviewed": false, "locationPrivate": true, "subId": "S291100674"}, {"speciesCode": "coohaw", "comName": "Cooper's Hawk", "sciName": "Astur cooperii", "locId": "L56337525", "locName": "W Eagle Lake Rd, Beecher US-IL", "obsDt": "2025-12-29 14:50", "howMany": 1, "lat": 41.369651, "lng": -87.673002, "obsValid": true, "obsReviewed": false, "locationPrivate": true, "subId": "S291100674"}, {"speciesCode": "amtspa", "comName": "American Tree Sparrow", "sciName": "Spizelloides arborea", "locId": "L56337525", "locName": "W Eagle Lake Rd, Beecher US-IL", "obsDt": "2025-12-29 14:50", "howMany": 12, "lat": 41.369651, "lng": -87.673002, "obsValid": true, "obsReviewed": false, "locationPrivate": true, "subId": "S291100674"}, {"speciesCode": "yebsap", "comName": "Yellow-bellied Sapsucker", "sciName": "Sphyrapicus varius", "locId": "L16368777", "locName": "25912 W Timber Ridge Dr, Channahon US-IL 41.42399, -88.24084", "obsDt": "2025-12-29 14:49", "howMany": 1, "lat": 41.423985, "lng": -88.240839, "obsValid": true, "obsReviewed": false, "locationPrivate": true, "subId": "S291062560"}, {"speciesCode": "sancra", "comName": "Sandhill Crane", "sciName": "Antigone canadensis", "locId": "L20176403", "locName": "Prestwick South", "obsDt": "2025-12-29 13:40", "lat": 41.4913926, "lng": -87.7977388, "obsValid": true, "obsReviewed": false, "locationPrivate": true, "subId": "S291050063"}, {"speciesCode": "rethaw", "comName": "Red-tailed Hawk", "sciName": "Buteo jamaicensis", "locId": "L2084289", "locName": "Clorox Company West Pond", "obsDt": "2025-12-29 13:21", "howMany": 1, "lat": 41.4444122, "lng": -87.7388871, "obsValid": true, "obsReviewed": false, "locationPrivate": true, "subId": "S291100589"}, {"speciesCode": "snogoo", "comName": "Snow Goose", "sciName": "Anser caerulescens", "locId": "L1399503", "locName": "Black Walnut Creek Preserve", "obsDt": "2025-12-29 12:32", "howMany": 1, "lat": 41.4219182, "lng": -87.6672689, "obsValid": true, "obsReviewed": false, "locationPrivate": false, "subId": "S291100487"}, {"speciesCode": "norpin", "comName": "Northern Pintail", "sciName": "Anas acuta", "locId": "L1399503", "locName": "Black Walnut Creek Preserve", "obsDt": "2025-12-29 12:32", "howMany": 27, "lat": 41.4219182, "lng": -87.6672689, "obsValid": true, "obsReviewed": false, "locationPrivate": false, "subId": "S291100487"}, {"speciesCode": "comgol", "comName": "Common Goldeneye", "sciName": "Bucephala clangula", "locId": "L1399503", "locName": "Black Walnut Creek Preserve", "obsDt": "2025-12-29 12:32", "howMany": 5, "lat": 41.4219182, "lng": -87.6672689, "obsValid": true, "obsReviewed": false, "locationPrivate": false, "subId": "S291100487"}, {"speciesCode": "norhar2", "comName": "Northern Harrier", "sciName": "Circus hudsonius", "locId": "L1399503", "locName": "Black Walnut Creek Preserve", "obsDt": "2025-12-29 12:32", "howMany": 1, "lat": 41.4219182, "lng": -87.6672689, "obsValid": true, "obsReviewed": false, "locationPrivate": false, "subId": "S291100487"}, {"speciesCode": "blujay", "comName": "Blue Jay", "sciName": "Cyanocitta cristata", "locId": "L1399503", "locName": "Black Walnut Creek Preserve", "obsDt": "2025-12-29 12:32", "howMany": 1, "lat": 41.4219182, "lng": -87.6672689, "obsValid": true, "obsReviewed": false, "locationPrivate": false, "subId": "S291100487"}, {"speciesCode": "horlar", "comName": "Horned Lark", "sciName": "Eremophila alpestris", "locId": "L1399503", "locName": "Black Walnut Creek Preserve", "obsDt": "2025-12-29 12:32", "howMany": 1, "lat": 41.4219182, "lng": -87.6672689, "obsValid": true, "obsReviewed": false, "locationPrivate": false, "subId": "S291100487"}, {"speciesCode": "eursta", "comName": "European Starling", "sciName": "Sturnus vulgaris", "locId": "L1399503", "locName": "Black Walnut Creek Preserve", "obsDt": "2025-12-29 12:32", "howMany": 139, "lat": 41.4219182, "lng": -87.6672689, "obsValid": true, "obsReviewed": false, "locationPrivate": false, "subId": "S291100487", "exoticCategory": "N"}, {"speciesCode": "whcspa", "comName": "White-crowned Sparrow", "sciName": "Zonotrichia leucophrys", "locId": "L1399503", "locName": "Black Walnut Creek Preserve", "obsDt": "2025-12-29 12:32", "howMany": 1, "lat": 41.4219182, "lng": -87.6672689, "obsValid": true, "obsReviewed": false, "locationPrivate": false, "subId": "S291100487"}, {"speciesCode": "sonspa", "comName": "Song Sparrow", "sciName": "Melospiza melodia", "locId": "L1399503", "locName": "Black Walnut Creek Preserve", "obsDt": "2025-12-29 12:32", "howMany": 1, "lat": 41.4219182, "lng": -87.6672689, "obsValid": true, "obsReviewed": false, "locationPrivate": false, "subId": "S291100487"}, {"speciesCode": "shshaw", "comName": "Sharp-shinned Hawk", "sciName": "Accipiter striatus", "locId": "L1441996", "locName": "Sangamon St, (Roadside only) Crete", "obsDt": "2025-12-29 12:24", "howMany": 1, "lat": 41.4208999, "lng": -87.6421876, "obsValid": true, "obsReviewed": false, "locationPrivate": true, "subId": "S291097478"}, {"speciesCode": "amegfi", "comName": "American Goldfinch", "sciName": "Spinus tristis", "locId": "L46842287", "locName": "Pheasant Landing", "obsDt": "2025-12-29 11:49", "howMany": 1, "lat": 41.548418, "lng": -88.192441, "obsValid": true, "obsReviewed": false, "locationPrivate": true, "subId": "S291033127"}, {"speciesCode": "baleag", "comName": "Bald Eagle", "sciName": "Haliaeetus leucocephalus", "locId": "L16070375", "locName": "Carlson Pond (Private Property)", "obsDt": "2025-12-29 10:57", "howMany": 1, "lat": 41.4095732, "lng": -87.7179467, "obsValid": true, "obsReviewed": false, "locationPrivate": true, "subId": "S291152542"}, {"speciesCode": "rewbla", "comName": "Red-winged Blackbird", "sciName": "Agelaius phoeniceus", "locId": "L16070375", "locName": "Carlson Pond (Private Property)", "obsDt": "2025-12-29 10:57", "howMany": 2, "lat": 41.4095732, "lng": -87.7179467, "obsValid": true, "obsReviewed": false, "locationPrivate": true, "subId": "S291152542"}, {"speciesCode": "bnhcow", "comName": "Brown-headed Cowbird", "sciName": "Molothrus ater", "locId": "L16070375", "locName": "Carlson Pond (Private Property)", "obsDt": "2025-12-29 10:57", "howMany": 2, "lat": 41.4095732, "lng": -87.7179467, "obsValid": true, "obsReviewed": false, "locationPrivate": true, "subId": "S291152542"}, {"speciesCode": "comgra", "comName": "Common Grackle", "sciName": "Quiscalus quiscula", "locId": "L16070375", "locName": "Carlson Pond (Private Property)", "obsDt": "2025-12-29 10:57", "howMany": 1, "lat": 41.4095732, "lng": -87.7179467, "obsValid": true, "obsReviewed": false, "locationPrivate": true, "subId": "S291152542"}, {"speciesCode": "bkcchi", "comName": "Black-capped Chickadee", "sciName": "Poecile atricapillus", "locId": "L41778989", "locName": "127th an Naperville plainfield rd in Plainfield il", "obsDt": "2025-12-29 10:45", "howMany": 2, "lat": 41.6524591, "lng": -88.1801046, "obsValid": true, "obsReviewed": false, "locationPrivate": true, "subId": "S291101803"}, {"speciesCode": "amerob", "comName": "American Robin", "sciName": "Turdus migratorius", "locId": "L152661", "locName": "Keepataw Forest Preserve", "obsDt": "2025-12-29 10:20", "howMany": 20, "lat": 41.6762, "lng": -88.0327, "obsValid": true, "obsReviewed": false, "locationPrivate": false, "subId": "S291026311"}, {"speciesCode": "norfli", "comName": "Northern Flicker", "sciName": "Colaptes auratus", "locId": "L16368777", "locName": "25912 W Timber Ridge Dr, Channahon US-IL 41.42399, -88.24084", "obsDt": "2025-12-29 09:38", "howMany": 1, "lat": 41.423985, "lng": -88.240839, "obsValid": true, "obsReviewed": false, "locationPrivate": true, "subId": "S291010272"}, {"speciesCode": "haiwoo", "comName": "Hairy Woodpecker", "sciName": "Leuconotopicus villosus", "locId": "L20176403", "locName": "Prestwick South", "obsDt": "2025-12-29 07:21", "howMany": 1, "lat": 41.4913926, "lng": -87.7977388, "obsValid": true, "obsReviewed": false, "locationPrivate": true, "subId": "S291079229"}, {"speciesCode": "tuftit", "comName": "Tufted Titmouse", "sciName": "Baeolophus bicolor", "locId": "L20176403", "locName": "Prestwick South", "obsDt": "2025-12-29 07:21", "howMany": 1, "lat": 41.4913926, "lng": -87.7977388, "obsValid": true, "obsReviewed": false, "locationPrivate": true, "subId": "S291079229"}, {"speciesCode": "whbnut", "comName": "White-breasted Nuthatch", "sciName": "Sitta carolinensis", "locId": "L20176403", "locName": "Prestwick South", "obsDt": "2025-12-29 07:21", "howMany": 2, "lat": 41.4913926, "lng": -87.7977388, "obsValid": true, "obsReviewed": false, "locationPrivate": true, "subId": "S291079229"}, {"speciesCode": "brncre", "comName": "Brown Creeper", "sciName": "Certhia americana", "locId": "L20176403", "locName": "Prestwick South", "obsDt": "2025-12-29 07:21", "howMany": 1, "lat": 41.4913926, "lng": -87.7977388, "obsValid": true, "obsReviewed": false, "locationPrivate": true, "subId": "S291079229"}, {"speciesCode": "carwre", "comName": "Carolina Wren", "sciName": "Thryothorus ludovicianus", "locId": "L20176403", "locName": "Prestwick South", "obsDt": "2025-12-29 07:21", "howMany": 1, "lat": 41.4913926, "lng": -87.7977388, "obsValid": true, "obsReviewed": false, "locationPrivate": true, "subId": "S291079229"}, {"speciesCode": "foxspa", "comName": "Fox Sparrow", "sciName": "Passerella iliaca", "locId": "L20176403", "locName": "Prestwick South", "obsDt": "2025-12-29 07:21", "howMany": 1, "lat": 41.4913926, "lng": -87.7977388, "obsValid": true, "obsReviewed": false, "locationPrivate": true, "subId": "S291079229"}]