[{"speciesCode": "moudov", "comName": "Mourning Dove", "sciName": "Zenaida macroura", "locId": "L5776430", "locName": "My Yard", "obsDt": "2025-12-15 15:45", "howMany": 2, "lat": 42.286788, "lng": -88.983632, "obsValid": true, "obsReviewed": false, "locationPrivate": true, "subId": "S288758494"}, {"speciesCode": "dowwoo", "comName": "Downy Woodpecker", "sciName": "Dryobates pubescens", "locId": "L5776430", "locName": "My Yard", "obsDt": "2025-12-15 15:45", "howMany": 1, "lat": 42.286788, "lng": -88.983632, "obsValid": true, "obsReviewed": false, "locationPrivate": true, "subId": "S288758494"}, {"speciesCode": "rebnut", "comName": "Red-breasted Nuthatch", "sciName": "Sitta canadensis", "locId": "L5776430", "locName": "My Yard", "obsDt": "2025-12-15 15:45", "howMany": 1, "lat": 42.286788, "lng": -88.983632, "obsValid": true, "obsReviewed": false, "locationPrivate": true, "subId": "S288758494"}, {"speciesCode": "eursta", "comName": "European Starling", "sciName": "Sturnus vulgaris", "locId": "L5776430", "locName": "My Yard", "obsDt": "2025-12-15 15:45", "howMany": 1, "lat": 42.286788, "lng": -88.983632, "obsValid": true, "obsReviewed": false, "locationPrivate": true, "subId": "S288758494", "exoticCategory": "N"}, {"speciesCode": "amerob", "comName": "American Robin", "sciName": "Turdus migratorius", "locId": "L5776430", "locName": "My Yard", "obsDt": "2025-12-15 15:45", "howMany": 5, "lat": 42.286788, "lng": -88.983632, "obsValid": true, "obsReviewed": false, "locationPrivate": true, "subId": "S288758494"}, {"speciesCode": "houfin", "comName": "House Finch", "sciName": "Haemorhous mexicanus", "locId": "L5776430", "locName": "My Yard", "obsDt": "2025-12-15 15:45", "howMany": 15, "lat": 42.286788, "lng": -88.983632, "obsValid": true, "obsReviewed": false, "locationPrivate": true, "subId": "S288758494", "exoticCategory": "N"}, {"speciesCode": "amegfi", "comName": "American Goldfinch", "sciName": "Spinus tristis", "locId": "L5776430", "locName": "My Yard", "obsDt": "2025-12-15 15:45", "howMany": 7, "lat": 42.286788, "lng": -88.983632, "obsValid": true, "obsReviewed": false, "locationPrivate": true, "subId": "S288758494"}, {"speciesCode": "daejun", "comName": "Dark-eyed Junco", "sciName": "Junco hyemalis", "locId": "L5776430", "locName": "My Yard", "obsDt": "2025-12-15 15:45", "howMany": 23, "lat": 42.286788, "lng": -88.983632, "obsValid": true, "obsReviewed": false, "locationPrivate": true, "subId": "S288758494"}, {"speciesCode": "whcspa", "comName": "White-crowned Sparrow", "sciName": "Zonotrichia leucophrys", "locId": "L5776430", "locName": "My Yard", "obsDt": "2025-12-15 15:45", "howMany": 1, "lat": 42.286788, "lng": -88.983632, "obsValid": true, "obsReviewed": false, "locationPrivate": true, "subId": "S288758494"}, {"speciesCode": "rethaw", "comName": "Red-tailed Hawk", "sciName": "Buteo jamaicensis", "locId": "L56139327", "locName": "Exit 15 I90", "obsDt": "2025-12-15 15:36", "howMany": 2, "lat": 42.2717235, "lng": -88.9625599, "obsValid": true, "obsReviewed": false, "locationPrivate": true, "subId": "S289346806"}, {"speciesCode": "wiltur", "comName": "Wild Turkey", "sciName": "Meleagris gallopavo", "locId": "L56009196", "locName": "Rock Cut State Park, Loves Park US-IL 42.36728, -88.97936", "obsDt": "2025-12-15 13:22", "howMany": 3, "lat": 42.367279, "lng": -88.979358, "obsValid": true, "obsReviewed": false, "locationPrivate": true, "subId": "S288745374"}, {"speciesCode": "norfli", "comName": "Northern Flicker", "sciName": "Colaptes auratus", "locId": "L56009196", "locName": "Rock Cut State Park, Loves Park US-IL 42.36728, -88.97936", "obsDt": "2025-12-15 13:22", "howMany": 1, "lat": 42.367279, "lng": -88.979358, "obsValid": true, "obsReviewed": false, "locationPrivate": true, "subId": "S288745374"}, {"speciesCode": "blujay", "comName": "Blue Jay", "sciName": "Cyanocitta cristata", "locId": "L56009196", "locName": "Rock Cut State Park, Loves Park US-IL 42.36728, -88.97936", "obsDt": "2025-12-15 13:22", "howMany": 1, "lat": 42.367279, "lng": -88.979358, "obsValid": true, "obsReviewed": false, "locationPrivate": true, "subId": "S288745374"}, {"speciesCode": "norcar", "comName": "Northern Cardinal", "sciName": "Cardinalis cardinalis", "locId": "L56009196", "locName": "Rock Cut State Park, Loves Park US-IL 42.36728, -88.97936", "obsDt": "2025-12-15 13:22", "howMany": 2, "lat": 42.367279, "lng": -88.979358, "obsValid": true, "obsReviewed": false, "locationPrivate": true, "subId": "S288745374"}, {"speciesCode": "bkcchi", "comName": "Black-capped Chickadee", "sciName": "Poecile atricapillus", "locId": "L1259962", "locName": "Home", "obsDt": "2025-12-15 13:10", "howMany": 3, "lat": 42.426753, "lng": -89.0254623, "obsValid": true, "obsReviewed": false, "locationPrivate": true, "subId": "S288740153"}, {"speciesCode": "houspa", "comName": "House Sparrow", "sciName": "Passer domesticus", "locId": "L1259962", "locName": "Home", "obsDt": "2025-12-15 13:10", "howMany": 6, "lat": 42.426753, "lng": -89.0254623, "obsValid": true, "obsReviewed": false, "locationPrivate": true, "subId": "S288740153", "exoticCategory": "N"}, {"speciesCode": "mallar3", "comName": "Mallard", "sciName": "Anas platyrhynchos", "locId": "L18097378", "locName": "15th. Ave. Bridge", "obsDt": "2025-12-15 12:03", "howMany": 1, "lat": 42.2505396, "lng": -89.1026934, "obsValid": true, "obsReviewed": false, "locationPrivate": true, "subId": "S288733116"}, {"speciesCode": "comgol", "comName": "Common Goldeneye", "sciName": "Bucephala clangula", "locId": "L18097378", "locName": "15th. Ave. Bridge", "obsDt": "2025-12-15 12:03", "howMany": 29, "lat": 42.2505396, "lng": -89.1026934, "obsValid": true, "obsReviewed": false, "locationPrivate": true, "subId": "S288733116"}, {"speciesCode": "commer", "comName": "Common Merganser", "sciName": "Mergus merganser", "locId": "L18097378", "locName": "15th. Ave. Bridge", "obsDt": "2025-12-15 12:03", "howMany": 12, "lat": 42.2505396, "lng": -89.1026934, "obsValid": true, "obsReviewed": false, "locationPrivate": true, "subId": "S288733116"}, {"speciesCode": "ribgul", "comName": "Ring-billed Gull", "sciName": "Larus delawarensis", "locId": "L18097378", "locName": "15th. Ave. Bridge", "obsDt": "2025-12-15 12:03", "howMany": 3, "lat": 42.2505396, "lng": -89.1026934, "obsValid": true, "obsReviewed": false, "locationPrivate": true, "subId": "S288733116"}, {"speciesCode": "baleag", "comName": "Bald Eagle", "sciName": "Haliaeetus leucocephalus", "locId": "L18097378", "locName": "15th. Ave. Bridge", "obsDt": "2025-12-15 12:03", "howMany": 1, "lat": 42.2505396, "lng": -89.1026934, "obsValid": true, "obsReviewed": false, "locationPrivate": true, "subId": "S288733116"}, {"speciesCode": "herthr", "comName": "Hermit Thrush", "sciName": "Catharus guttatus", "locId": "L865897", "locName": "Klehm Arboretum and Botanic Garden, Rockford", "obsDt": "2025-12-15 10:57", "howMany": 1, "lat": 42.2444835, "lng": -89.1122746, "obsValid": true, "obsReviewed": false, "locationPrivate": false, "subId": "S288736756"}, {"speciesCode": "foxspa", "comName": "Fox Sparrow", "sciName": "Passerella iliaca", "locId": "L865897", "locName": "Klehm Arboretum and Botanic Garden, Rockford", "obsDt": "2025-12-15 10:57", "howMany": 5, "lat": 42.2444835, "lng": -89.1122746, "obsValid": true, "obsReviewed": false, "locationPrivate": false, "subId": "S288736756"}, {"speciesCode": "norshr4", "comName": "Northern Shrike", "sciName": "Lanius borealis", "locId": "L18065848", "locName": "Harrison Rd Auburn to Dickenson", "obsDt": "2025-12-15 09:54", "howMany": 1, "lat": 42.2886354, "lng": -89.1996694, "obsValid": true, "obsReviewed": false, "locationPrivate": true, "subId": "S288717256"}, {"speciesCode": "amecro", "comName": "American Crow", "sciName": "Corvus brachyrhynchos", "locId": "L13585161", "locName": "St. Anthony Field", "obsDt": "2025-12-15 09:27", "howMany": 1, "lat": 42.2746901, "lng": -89.0077025, "obsValid": true, "obsReviewed": false, "locationPrivate": true, "subId": "S288714445"}, {"speciesCode": "whtspa", "comName": "White-throated Sparrow", "sciName": "Zonotrichia albicollis", "locId": "L13585161", "locName": "St. Anthony Field", "obsDt": "2025-12-15 09:27", "howMany": 2, "lat": 42.2746901, "lng": -89.0077025, "obsValid": true, "obsReviewed": false, "locationPrivate": true, "subId": "S288714445"}, {"speciesCode": "cangoo", "comName": "Canada Goose", "sciName": "Branta canadensis", "locId": "L56015116", "locName": "rockton Township Cemetery", "obsDt": "2025-12-15", "howMany": 50, "lat": 42.4593148, "lng": -89.0812743, "obsValid": true, "obsReviewed": false, "locationPrivate": true, "subId": "S288774891"}, {"speciesCode": "tunswa", "comName": "Tundra Swan", "sciName": "Cygnus columbianus", "locId": "L56015116", "locName": "rockton Township Cemetery", "obsDt": "2025-12-15", "howMany": 2, "lat": 42.4593148, "lng": -89.0812743, "obsValid": true, "obsReviewed": false, "locationPrivate": true, "subId": "S288774891"}, {"speciesCode": "brncre", "comName": "Brown Creeper", "sciName": "Certhia americana", "locId": "L56015116", "locName": "rockton Township Cemetery", "obsDt": "2025-12-15", "howMany": 1, "lat": 42.4593148, "lng": -89.0812743, "obsValid": true, "obsReviewed": false, "locationPrivate": true, "subId": "S288774891"}, {"speciesCode": "easblu", "comName": "Eastern Bluebird", "sciName": "Sialia sialis", "locId": "L56015116", "locName": "rockton Township Cemetery", "obsDt": "2025-12-15", "howMany": 5, "lat": 42.4593148, "lng": -89.0812743, "obsValid": true, "obsReviewed": false, "locationPrivate": true, "subId": "S288774891"}]