[{"speciesCode": "cangoo", "comName": "Canada Goose", "sciName": "Branta canadensis", "locId": "L1808867", "locName": "Wood Dale Reservoir", "obsDt": "2025-12-21 16:15", "howMany": 12, "lat": 41.9726752, "lng": -87.9885417, "obsValid": true, "obsReviewed": false, "locationPrivate": false, "subId": "S289642281"}, {"speciesCode": "mallar3", "comName": "Mallard", "sciName": "Anas platyrhynchos", "locId": "L1808867", "locName": "Wood Dale Reservoir", "obsDt": "2025-12-21 16:15", "howMany": 7, "lat": 41.9726752, "lng": -87.9885417, "obsValid": true, "obsReviewed": false, "locationPrivate": false, "subId": "S289642281"}, {"speciesCode": "moudov", "comName": "Mourning Dove", "sciName": "Zenaida macroura", "locId": "L1808867", "locName": "Wood Dale Reservoir", "obsDt": "2025-12-21 16:15", "howMany": 2, "lat": 41.9726752, "lng": -87.9885417, "obsValid": true, "obsReviewed": false, "locationPrivate": false, "subId": "S289642281"}, {"speciesCode": "coohaw", "comName": "Cooper's Hawk", "sciName": "Astur cooperii", "locId": "L1808867", "locName": "Wood Dale Reservoir", "obsDt": "2025-12-21 16:15", "howMany": 1, "lat": 41.9726752, "lng": -87.9885417, "obsValid": true, "obsReviewed": false, "locationPrivate": false, "subId": "S289642281"}, {"speciesCode": "amtspa", "comName": "American Tree Sparrow", "sciName": "Spizelloides arborea", "locId": "L1808867", "locName": "Wood Dale Reservoir", "obsDt": "2025-12-21 16:15", "howMany": 10, "lat": 41.9726752, "lng": -87.9885417, "obsValid": true, "obsReviewed": false, "locationPrivate": false, "subId": "S289642281"}, {"speciesCode": "blujay", "comName": "Blue Jay", "sciName": "Cyanocitta cristata", "locId": "L10811046", "locName": "DE Naperville House", "obsDt": "2025-12-21 16:08", "howMany": 1, "lat": 41.738502, "lng": -88.197618, "obsValid": true, "obsReviewed": false, "locationPrivate": true, "subId": "S289639729"}, {"speciesCode": "bkcchi", "comName": "Black-capped Chickadee", "sciName": "Poecile atricapillus", "locId": "L10811046", "locName": "DE Naperville House", "obsDt": "2025-12-21 16:08", "howMany": 1, "lat": 41.738502, "lng": -88.197618, "obsValid": true, "obsReviewed": false, "locationPrivate": true, "subId": "S289639729"}, {"speciesCode": "rebnut", "comName": "Red-breasted Nuthatch", "sciName": "Sitta canadensis", "locId": "L10811046", "locName": "DE Naperville House", "obsDt": "2025-12-21 16:08", "howMany": 1, "lat": 41.738502, "lng": -88.197618, "obsValid": true, "obsReviewed": false, "locationPrivate": true, "subId": "S289639729"}, {"speciesCode": "houspa", "comName": "House Sparrow", "sciName": "Passer domesticus", "locId": "L10811046", "locName": "DE Naperville House", "obsDt": "2025-12-21 16:08", "howMany": 7, "lat": 41.738502, "lng": -88.197618, "obsValid": true, "obsReviewed": false, "locationPrivate": true, "subId": "S289639729", "exoticCategory": "N"}, {"speciesCode": "houfin", "comName": "House Finch", "sciName": "Haemorhous mexicanus", "locId": "L10811046", "locName": "DE Naperville House", "obsDt": "2025-12-21 16:08", "howMany": 17, "lat": 41.738502, "lng": -88.197618, "obsValid": true, "obsReviewed": false, "locationPrivate": true, "subId": "S289639729", "exoticCategory": "N"}, {"speciesCode": "amegfi", "comName": "American Goldfinch", "sciName": "Spinus tristis", "locId": "L10811046", "locName": "DE Naperville House", "obsDt": "2025-12-21 16:08", "howMany": 2, "lat": 41.738502, "lng": -88.197618, "obsValid": true, "obsReviewed": false, "locationPrivate": true, "subId": "S289639729"}, {"speciesCode": "daejun", "comName": "Dark-eyed Junco", "sciName": "Junco hyemalis", "locId": "L10811046", "locName": "DE Naperville House", "obsDt": "2025-12-21 16:08", "howMany": 8, "lat": 41.738502, "lng": -88.197618, "obsValid": true, "obsReviewed": false, "locationPrivate": true, "subId": "S289639729"}, {"speciesCode": "grhowl", "comName": "Great Horned Owl", "sciName": "Bubo virginianus", "locId": "L1623187", "locName": "The Backyard", "obsDt": "2025-12-21 15:57", "howMany": 1, "lat": 41.8668604, "lng": -88.0739594, "obsValid": true, "obsReviewed": false, "locationPrivate": true, "subId": "S289761845"}, {"speciesCode": "comgol", "comName": "Common Goldeneye", "sciName": "Bucephala clangula", "locId": "L679066", "locName": "West Branch Forest Preserve", "obsDt": "2025-12-21 15:45", "howMany": 4, "lat": 41.9326501, "lng": -88.1819773, "obsValid": true, "obsReviewed": false, "locationPrivate": false, "subId": "S289623307"}, {"speciesCode": "belkin1", "comName": "Belted Kingfisher", "sciName": "Megaceryle alcyon", "locId": "L679066", "locName": "West Branch Forest Preserve", "obsDt": "2025-12-21 15:45", "howMany": 1, "lat": 41.9326501, "lng": -88.1819773, "obsValid": true, "obsReviewed": false, "locationPrivate": false, "subId": "S289623307"}, {"speciesCode": "amerob", "comName": "American Robin", "sciName": "Turdus migratorius", "locId": "L679066", "locName": "West Branch Forest Preserve", "obsDt": "2025-12-21 15:45", "howMany": 2, "lat": 41.9326501, "lng": -88.1819773, "obsValid": true, "obsReviewed": false, "locationPrivate": false, "subId": "S289623307"}, {"speciesCode": "norcar", "comName": "Northern Cardinal", "sciName": "Cardinalis cardinalis", "locId": "L679066", "locName": "West Branch Forest Preserve", "obsDt": "2025-12-21 15:45", "howMany": 1, "lat": 41.9326501, "lng": -88.1819773, "obsValid": true, "obsReviewed": false, "locationPrivate": false, "subId": "S289623307"}, {"speciesCode": "rethaw", "comName": "Red-tailed Hawk", "sciName": "Buteo jamaicensis", "locId": "L12954527", "locName": "Berens Park", "obsDt": "2025-12-21 15:40", "howMany": 1, "lat": 41.9165369, "lng": -87.9511398, "obsValid": true, "obsReviewed": false, "locationPrivate": true, "subId": "S289642399"}, {"speciesCode": "rebwoo", "comName": "Red-bellied Woodpecker", "sciName": "Melanerpes carolinus", "locId": "L428626", "locName": "James \"Pate\" Philip State Park", "obsDt": "2025-12-21 14:18", "howMany": 1, "lat": 41.98112, "lng": -88.2583666, "obsValid": true, "obsReviewed": false, "locationPrivate": false, "subId": "S289596175"}, {"speciesCode": "amekes", "comName": "American Kestrel", "sciName": "Falco sparverius", "locId": "L428626", "locName": "James \"Pate\" Philip State Park", "obsDt": "2025-12-21 14:18", "howMany": 1, "lat": 41.98112, "lng": -88.2583666, "obsValid": true, "obsReviewed": false, "locationPrivate": false, "subId": "S289596175"}, {"speciesCode": "mutswa", "comName": "Mute Swan", "sciName": "Cygnus olor", "locId": "L2717205", "locName": "Centennial Trail--West of Route 83 (DuPage Co.)", "obsDt": "2025-12-21 13:22", "howMany": 5, "lat": 41.6877722, "lng": -87.9814202, "obsValid": true, "obsReviewed": false, "locationPrivate": false, "subId": "S289612089", "exoticCategory": "N"}, {"speciesCode": "ambduc", "comName": "American Black Duck", "sciName": "Anas rubripes", "locId": "L2717205", "locName": "Centennial Trail--West of Route 83 (DuPage Co.)", "obsDt": "2025-12-21 13:22", "howMany": 1, "lat": 41.6877722, "lng": -87.9814202, "obsValid": true, "obsReviewed": false, "locationPrivate": false, "subId": "S289612089"}, {"speciesCode": "commer", "comName": "Common Merganser", "sciName": "Mergus merganser", "locId": "L2717205", "locName": "Centennial Trail--West of Route 83 (DuPage Co.)", "obsDt": "2025-12-21 13:22", "howMany": 15, "lat": 41.6877722, "lng": -87.9814202, "obsValid": true, "obsReviewed": false, "locationPrivate": false, "subId": "S289612089"}, {"speciesCode": "amhgul1", "comName": "American Herring Gull", "sciName": "Larus smithsonianus", "locId": "L2717205", "locName": "Centennial Trail--West of Route 83 (DuPage Co.)", "obsDt": "2025-12-21 13:22", "howMany": 2, "lat": 41.6877722, "lng": -87.9814202, "obsValid": true, "obsReviewed": false, "locationPrivate": false, "subId": "S289612089"}, {"speciesCode": "grbher3", "comName": "Great Blue Heron", "sciName": "Ardea herodias", "locId": "L2717205", "locName": "Centennial Trail--West of Route 83 (DuPage Co.)", "obsDt": "2025-12-21 13:22", "howMany": 3, "lat": 41.6877722, "lng": -87.9814202, "obsValid": true, "obsReviewed": false, "locationPrivate": false, "subId": "S289612089"}, {"speciesCode": "baleag", "comName": "Bald Eagle", "sciName": "Haliaeetus leucocephalus", "locId": "L2717205", "locName": "Centennial Trail--West of Route 83 (DuPage Co.)", "obsDt": "2025-12-21 13:22", "howMany": 2, "lat": 41.6877722, "lng": -87.9814202, "obsValid": true, "obsReviewed": false, "locationPrivate": false, "subId": "S289612089"}, {"speciesCode": "dowwoo", "comName": "Downy Woodpecker", "sciName": "Dryobates pubescens", "locId": "L2717205", "locName": "Centennial Trail--West of Route 83 (DuPage Co.)", "obsDt": "2025-12-21 13:22", "howMany": 2, "lat": 41.6877722, "lng": -87.9814202, "obsValid": true, "obsReviewed": false, "locationPrivate": false, "subId": "S289612089"}, {"speciesCode": "haiwoo", "comName": "Hairy Woodpecker", "sciName": "Leuconotopicus villosus", "locId": "L132618", "locName": "Morton Arboretum--East Side", "obsDt": "2025-12-21 13:22", "howMany": 1, "lat": 41.8143142, "lng": -88.0647755, "obsValid": true, "obsReviewed": false, "locationPrivate": false, "subId": "S289584929"}, {"speciesCode": "pilwoo", "comName": "Pileated Woodpecker", "sciName": "Dryocopus pileatus", "locId": "L2717205", "locName": "Centennial Trail--West of Route 83 (DuPage Co.)", "obsDt": "2025-12-21 13:22", "howMany": 1, "lat": 41.6877722, "lng": -87.9814202, "obsValid": true, "obsReviewed": false, "locationPrivate": false, "subId": "S289612089"}, {"speciesCode": "gockin", "comName": "Golden-crowned Kinglet", "sciName": "Regulus satrapa", "locId": "L2717205", "locName": "Centennial Trail--West of Route 83 (DuPage Co.)", "obsDt": "2025-12-21 13:22", "howMany": 1, "lat": 41.6877722, "lng": -87.9814202, "obsValid": true, "obsReviewed": false, "locationPrivate": false, "subId": "S289612089"}, {"speciesCode": "whbnut", "comName": "White-breasted Nuthatch", "sciName": "Sitta carolinensis", "locId": "L2717205", "locName": "Centennial Trail--West of Route 83 (DuPage Co.)", "obsDt": "2025-12-21 13:22", "howMany": 4, "lat": 41.6877722, "lng": -87.9814202, "obsValid": true, "obsReviewed": false, "locationPrivate": false, "subId": "S289612089"}, {"speciesCode": "carwre", "comName": "Carolina Wren", "sciName": "Thryothorus ludovicianus", "locId": "L2717205", "locName": "Centennial Trail--West of Route 83 (DuPage Co.)", "obsDt": "2025-12-21 13:22", "howMany": 3, "lat": 41.6877722, "lng": -87.9814202, "obsValid": true, "obsReviewed": false, "locationPrivate": false, "subId": "S289612089"}, {"speciesCode": "easblu", "comName": "Eastern Bluebird", "sciName": "Sialia sialis", "locId": "L2717205", "locName": "Centennial Trail--West of Route 83 (DuPage Co.)", "obsDt": "2025-12-21 13:22", "howMany": 1, "lat": 41.6877722, "lng": -87.9814202, "obsValid": true, "obsReviewed": false, "locationPrivate": false, "subId": "S289612089"}, {"speciesCode": "herthr", "comName": "Hermit Thrush", "sciName": "Catharus guttatus", "locId": "L2717205", "locName": "Centennial Trail--West of Route 83 (DuPage Co.)", "obsDt": "2025-12-21 13:22", "howMany": 1, "lat": 41.6877722, "lng": -87.9814202, "obsValid": true, "obsReviewed": false, "locationPrivate": false, "subId": "S289612089"}, {"speciesCode": "sonspa", "comName": "Song Sparrow", "sciName": "Melospiza melodia", "locId": "L2717205", "locName": "Centennial Trail--West of Route 83 (DuPage Co.)", "obsDt": "2025-12-21 13:22", "howMany": 2, "lat": 41.6877722, "lng": -87.9814202, "obsValid": true, "obsReviewed": false, "locationPrivate": false, "subId": "S289612089"}, {"speciesCode": "whtspa", "comName": "White-throated Sparrow", "sciName": "Zonotrichia albicollis", "locId": "L152646", "locName": "Greene Valley Forest Preserve", "obsDt": "2025-12-21 13:08", "howMany": 3, "lat": 41.7385, "lng": -88.0777, "obsValid": true, "obsReviewed": false, "locationPrivate": false, "subId": "S289574882"}, {"speciesCode": "ribgul", "comName": "Ring-billed Gull", "sciName": "Larus delawarensis", "locId": "L152651", "locName": "Herrick Lake Forest Preserve", "obsDt": "2025-12-21 13:05", "howMany": 2, "lat": 41.8166, "lng": -88.1372, "obsValid": true, "obsReviewed": false, "locationPrivate": false, "subId": "S289586112"}, {"speciesCode": "merlin", "comName": "Merlin", "sciName": "Falco columbarius", "locId": "L152651", "locName": "Herrick Lake Forest Preserve", "obsDt": "2025-12-21 13:05", "howMany": 1, "lat": 41.8166, "lng": -88.1372, "obsValid": true, "obsReviewed": false, "locationPrivate": false, "subId": "S289586112"}, {"speciesCode": "amecro", "comName": "American Crow", "sciName": "Corvus brachyrhynchos", "locId": "L152651", "locName": "Herrick Lake Forest Preserve", "obsDt": "2025-12-21 13:05", "howMany": 1, "lat": 41.8166, "lng": -88.1372, "obsValid": true, "obsReviewed": false, "locationPrivate": false, "subId": "S289586112"}, {"speciesCode": "winwre3", "comName": "Winter Wren", "sciName": "Troglodytes hiemalis", "locId": "L9192385", "locName": "Four Lakes", "obsDt": "2025-12-21 13:03", "howMany": 1, "lat": 41.7826378, "lng": -88.0820061, "obsValid": true, "obsReviewed": false, "locationPrivate": false, "subId": "S289591503"}, {"speciesCode": "hoomer", "comName": "Hooded Merganser", "sciName": "Lophodytes cucullatus", "locId": "L2306429", "locName": "Bensenville Ditch", "obsDt": "2025-12-21 10:45", "howMany": 1, "lat": 41.9430427, "lng": -87.9301588, "obsValid": true, "obsReviewed": false, "locationPrivate": false, "subId": "S289561836"}, {"speciesCode": "rebmer", "comName": "Red-breasted Merganser", "sciName": "Mergus serrator", "locId": "L2306429", "locName": "Bensenville Ditch", "obsDt": "2025-12-21 10:45", "howMany": 1, "lat": 41.9430427, "lng": -87.9301588, "obsValid": true, "obsReviewed": false, "locationPrivate": false, "subId": "S289561836"}, {"speciesCode": "brncre", "comName": "Brown Creeper", "sciName": "Certhia americana", "locId": "L49198400", "locName": "195 S Ellyn Ave, Glen Ellyn US-IL 41.85230, -88.05994", "obsDt": "2025-12-21 10:25", "howMany": 1, "lat": 41.852304, "lng": -88.059938, "obsValid": true, "obsReviewed": false, "locationPrivate": true, "subId": "S289543052"}, {"speciesCode": "eursta", "comName": "European Starling", "sciName": "Sturnus vulgaris", "locId": "L126348", "locName": "Lyman Woods Forest Preserve", "obsDt": "2025-12-21 09:45", "howMany": 5, "lat": 41.8295475, "lng": -88.0086934, "obsValid": true, "obsReviewed": false, "locationPrivate": false, "subId": "S289560270", "exoticCategory": "N"}, {"speciesCode": "swaspa", "comName": "Swamp Sparrow", "sciName": "Melospiza georgiana", "locId": "L126348", "locName": "Lyman Woods Forest Preserve", "obsDt": "2025-12-21 09:45", "howMany": 2, "lat": 41.8295475, "lng": -88.0086934, "obsValid": true, "obsReviewed": false, "locationPrivate": false, "subId": "S289560270"}, {"speciesCode": "yerwar", "comName": "Yellow-rumped Warbler", "sciName": "Setophaga coronata", "locId": "L126348", "locName": "Lyman Woods Forest Preserve", "obsDt": "2025-12-21 09:45", "howMany": 3, "lat": 41.8295475, "lng": -88.0086934, "obsValid": true, "obsReviewed": false, "locationPrivate": false, "subId": "S289560270"}, {"speciesCode": "truswa", "comName": "Trumpeter Swan", "sciName": "Cygnus buccinator", "locId": "L2717205", "locName": "Centennial Trail--West of Route 83 (DuPage Co.)", "obsDt": "2025-12-21 09:30", "howMany": 4, "lat": 41.6877722, "lng": -87.9814202, "obsValid": true, "obsReviewed": false, "locationPrivate": false, "subId": "S289535823"}, {"speciesCode": "horlar", "comName": "Horned Lark", "sciName": "Eremophila alpestris", "locId": "L2717205", "locName": "Centennial Trail--West of Route 83 (DuPage Co.)", "obsDt": "2025-12-21 09:30", "howMany": 1, "lat": 41.6877722, "lng": -87.9814202, "obsValid": true, "obsReviewed": false, "locationPrivate": false, "subId": "S289535823"}, {"speciesCode": "x00004", "comName": "Mallard x American Black Duck (hybrid)", "sciName": "Anas platyrhynchos x rubripes", "locId": "L1808867", "locName": "Wood Dale Reservoir", "obsDt": "2025-12-21 09:15", "howMany": 1, "lat": 41.9726752, "lng": -87.9885417, "obsValid": true, "obsReviewed": false, "locationPrivate": false, "subId": "S289560638"}, {"speciesCode": "rocpig", "comName": "Rock Pigeon", "sciName": "Columba livia", "locId": "L56177557", "locName": "Ronald Reagan Memorial Tollway, Downers Grove US-IL 41.81012, -88.06268", "obsDt": "2025-12-21 08:46", "howMany": 17, "lat": 41.810119, "lng": -88.062679, "obsValid": true, "obsReviewed": false, "locationPrivate": true, "subId": "S289522252", "exoticCategory": "N"}, {"speciesCode": "pinsis", "comName": "Pine Siskin", "sciName": "Spinus pinus", "locId": "L1160738", "locName": "Mayslake Forest Preserve", "obsDt": "2025-12-21 08:28", "howMany": 3, "lat": 41.8303048, "lng": -87.9567146, "obsValid": true, "obsReviewed": false, "locationPrivate": false, "subId": "S289527415"}, {"speciesCode": "bnhcow", "comName": "Brown-headed Cowbird", "sciName": "Molothrus ater", "locId": "L3526290", "locName": "Woodridge home", "obsDt": "2025-12-21 06:37", "howMany": 1, "lat": 41.7442406, "lng": -88.0443585, "obsValid": true, "obsReviewed": false, "locationPrivate": true, "subId": "S289611470"}]