[{"speciesCode": "normoc", "comName": "Northern Mockingbird", "sciName": "Mimus polyglottos", "locId": "L20319928", "locName": "Sunset Drive and Rod Lane", "obsDt": "2025-12-14 16:20", "howMany": 1, "lat": 37.726804, "lng": -89.254635, "obsValid": true, "obsReviewed": false, "locationPrivate": true, "subId": "S288635694"}, {"speciesCode": "amerob", "comName": "American Robin", "sciName": "Turdus migratorius", "locId": "L20319928", "locName": "Sunset Drive and Rod Lane", "obsDt": "2025-12-14 16:20", "howMany": 5, "lat": 37.726804, "lng": -89.254635, "obsValid": true, "obsReviewed": false, "locationPrivate": true, "subId": "S288635694"}, {"speciesCode": "whtspa", "comName": "White-throated Sparrow", "sciName": "Zonotrichia albicollis", "locId": "L20319928", "locName": "Sunset Drive and Rod Lane", "obsDt": "2025-12-14 16:20", "howMany": 2, "lat": 37.726804, "lng": -89.254635, "obsValid": true, "obsReviewed": false, "locationPrivate": true, "subId": "S288635694"}, {"speciesCode": "norcar", "comName": "Northern Cardinal", "sciName": "Cardinalis cardinalis", "locId": "L20319928", "locName": "Sunset Drive and Rod Lane", "obsDt": "2025-12-14 16:20", "howMany": 2, "lat": 37.726804, "lng": -89.254635, "obsValid": true, "obsReviewed": false, "locationPrivate": true, "subId": "S288635694"}, {"speciesCode": "amekes", "comName": "American Kestrel", "sciName": "Falco sparverius", "locId": "L13766474", "locName": "Beaucoup Rd, Vergennes", "obsDt": "2025-12-14 15:10", "howMany": 1, "lat": 37.908232, "lng": -89.360814, "obsValid": true, "obsReviewed": false, "locationPrivate": false, "subId": "S288623162"}, {"speciesCode": "horlar", "comName": "Horned Lark", "sciName": "Eremophila alpestris", "locId": "L13766474", "locName": "Beaucoup Rd, Vergennes", "obsDt": "2025-12-14 15:10", "howMany": 3, "lat": 37.908232, "lng": -89.360814, "obsValid": true, "obsReviewed": false, "locationPrivate": false, "subId": "S288623162"}, {"speciesCode": "snogoo", "comName": "Snow Goose", "sciName": "Anser caerulescens", "locId": "L4303296", "locName": "Knight Hawk Strip Mine (restricted access)", "obsDt": "2025-12-14 13:58", "howMany": 30, "lat": 37.908038, "lng": -89.394383, "obsValid": true, "obsReviewed": false, "locationPrivate": false, "subId": "S288633363"}, {"speciesCode": "rudduc", "comName": "Ruddy Duck", "sciName": "Oxyura jamaicensis", "locId": "L4303296", "locName": "Knight Hawk Strip Mine (restricted access)", "obsDt": "2025-12-14 13:58", "howMany": 12, "lat": 37.908038, "lng": -89.394383, "obsValid": true, "obsReviewed": false, "locationPrivate": false, "subId": "S288633363"}, {"speciesCode": "reshaw", "comName": "Red-shouldered Hawk", "sciName": "Buteo lineatus", "locId": "L4303296", "locName": "Knight Hawk Strip Mine (restricted access)", "obsDt": "2025-12-14 13:58", "howMany": 1, "lat": 37.908038, "lng": -89.394383, "obsValid": true, "obsReviewed": false, "locationPrivate": false, "subId": "S288633363"}, {"speciesCode": "daejun", "comName": "Dark-eyed Junco", "sciName": "Junco hyemalis", "locId": "L4303296", "locName": "Knight Hawk Strip Mine (restricted access)", "obsDt": "2025-12-14 13:58", "howMany": 4, "lat": 37.908038, "lng": -89.394383, "obsValid": true, "obsReviewed": false, "locationPrivate": false, "subId": "S288633363"}, {"speciesCode": "turvul", "comName": "Turkey Vulture", "sciName": "Cathartes aura", "locId": "L2382690", "locName": "Cedar Lake", "obsDt": "2025-12-14 13:45", "howMany": 9, "lat": 37.634544, "lng": -89.2797947, "obsValid": true, "obsReviewed": false, "locationPrivate": false, "subId": "S288611396"}, {"speciesCode": "rethaw", "comName": "Red-tailed Hawk", "sciName": "Buteo jamaicensis", "locId": "L2382690", "locName": "Cedar Lake", "obsDt": "2025-12-14 13:45", "howMany": 1, "lat": 37.634544, "lng": -89.2797947, "obsValid": true, "obsReviewed": false, "locationPrivate": false, "subId": "S288611396"}, {"speciesCode": "dowwoo", "comName": "Downy Woodpecker", "sciName": "Dryobates pubescens", "locId": "L2382690", "locName": "Cedar Lake", "obsDt": "2025-12-14 13:45", "howMany": 1, "lat": 37.634544, "lng": -89.2797947, "obsValid": true, "obsReviewed": false, "locationPrivate": false, "subId": "S288611396"}, {"speciesCode": "norfli", "comName": "Northern Flicker", "sciName": "Colaptes auratus", "locId": "L2382690", "locName": "Cedar Lake", "obsDt": "2025-12-14 13:45", "howMany": 3, "lat": 37.634544, "lng": -89.2797947, "obsValid": true, "obsReviewed": false, "locationPrivate": false, "subId": "S288611396"}, {"speciesCode": "blujay", "comName": "Blue Jay", "sciName": "Cyanocitta cristata", "locId": "L2382690", "locName": "Cedar Lake", "obsDt": "2025-12-14 13:45", "howMany": 1, "lat": 37.634544, "lng": -89.2797947, "obsValid": true, "obsReviewed": false, "locationPrivate": false, "subId": "S288611396"}, {"speciesCode": "tuftit", "comName": "Tufted Titmouse", "sciName": "Baeolophus bicolor", "locId": "L2382690", "locName": "Cedar Lake", "obsDt": "2025-12-14 13:45", "howMany": 2, "lat": 37.634544, "lng": -89.2797947, "obsValid": true, "obsReviewed": false, "locationPrivate": false, "subId": "S288611396"}, {"speciesCode": "brncre", "comName": "Brown Creeper", "sciName": "Certhia americana", "locId": "L2382690", "locName": "Cedar Lake", "obsDt": "2025-12-14 13:45", "howMany": 1, "lat": 37.634544, "lng": -89.2797947, "obsValid": true, "obsReviewed": false, "locationPrivate": false, "subId": "S288611396"}, {"speciesCode": "blkvul", "comName": "Black Vulture", "sciName": "Coragyps atratus", "locId": "L7873559", "locName": "Brush Hill Preserve", "obsDt": "2025-12-14 08:54", "howMany": 1, "lat": 37.7121648, "lng": -89.2002293, "obsValid": true, "obsReviewed": false, "locationPrivate": false, "subId": "S288562248"}, {"speciesCode": "rebwoo", "comName": "Red-bellied Woodpecker", "sciName": "Melanerpes carolinus", "locId": "L7873559", "locName": "Brush Hill Preserve", "obsDt": "2025-12-14 08:54", "howMany": 3, "lat": 37.7121648, "lng": -89.2002293, "obsValid": true, "obsReviewed": false, "locationPrivate": false, "subId": "S288562248"}, {"speciesCode": "haiwoo", "comName": "Hairy Woodpecker", "sciName": "Leuconotopicus villosus", "locId": "L7873559", "locName": "Brush Hill Preserve", "obsDt": "2025-12-14 08:54", "howMany": 1, "lat": 37.7121648, "lng": -89.2002293, "obsValid": true, "obsReviewed": false, "locationPrivate": false, "subId": "S288562248"}, {"speciesCode": "carchi", "comName": "Carolina Chickadee", "sciName": "Poecile carolinensis", "locId": "L7873559", "locName": "Brush Hill Preserve", "obsDt": "2025-12-14 08:54", "howMany": 1, "lat": 37.7121648, "lng": -89.2002293, "obsValid": true, "obsReviewed": false, "locationPrivate": false, "subId": "S288562248"}, {"speciesCode": "gockin", "comName": "Golden-crowned Kinglet", "sciName": "Regulus satrapa", "locId": "L7873559", "locName": "Brush Hill Preserve", "obsDt": "2025-12-14 08:54", "howMany": 2, "lat": 37.7121648, "lng": -89.2002293, "obsValid": true, "obsReviewed": false, "locationPrivate": false, "subId": "S288562248"}, {"speciesCode": "whbnut", "comName": "White-breasted Nuthatch", "sciName": "Sitta carolinensis", "locId": "L7873559", "locName": "Brush Hill Preserve", "obsDt": "2025-12-14 08:54", "howMany": 1, "lat": 37.7121648, "lng": -89.2002293, "obsValid": true, "obsReviewed": false, "locationPrivate": false, "subId": "S288562248"}, {"speciesCode": "carwre", "comName": "Carolina Wren", "sciName": "Thryothorus ludovicianus", "locId": "L7873559", "locName": "Brush Hill Preserve", "obsDt": "2025-12-14 08:54", "howMany": 3, "lat": 37.7121648, "lng": -89.2002293, "obsValid": true, "obsReviewed": false, "locationPrivate": false, "subId": "S288562248"}, {"speciesCode": "cangoo", "comName": "Canada Goose", "sciName": "Branta canadensis", "locId": "L51498211", "locName": "226 E New Thompson Lake Rd, Carbondale US-IL 37.74504, -89.25462", "obsDt": "2025-12-14 07:44", "howMany": 38, "lat": 37.745044, "lng": -89.254619, "obsValid": true, "obsReviewed": false, "locationPrivate": true, "subId": "S288540237"}]