[{"speciesCode": "cangoo", "comName": "Canada Goose", "sciName": "Branta canadensis", "locId": "L1006379", "locName": "Evergreen Lake--Comlara Co. Park", "obsDt": "2025-12-31 14:37", "howMany": 200, "lat": 40.6403351, "lng": -89.0324306, "obsValid": true, "obsReviewed": false, "locationPrivate": false, "subId": "S291469901"}, {"speciesCode": "norsho", "comName": "Northern Shoveler", "sciName": "Spatula clypeata", "locId": "L1006379", "locName": "Evergreen Lake--Comlara Co. Park", "obsDt": "2025-12-31 14:37", "howMany": 8, "lat": 40.6403351, "lng": -89.0324306, "obsValid": true, "obsReviewed": false, "locationPrivate": false, "subId": "S291469901"}, {"speciesCode": "mallar3", "comName": "Mallard", "sciName": "Anas platyrhynchos", "locId": "L1006379", "locName": "Evergreen Lake--Comlara Co. Park", "obsDt": "2025-12-31 14:37", "howMany": 90, "lat": 40.6403351, "lng": -89.0324306, "obsValid": true, "obsReviewed": false, "locationPrivate": false, "subId": "S291469901"}, {"speciesCode": "commer", "comName": "Common Merganser", "sciName": "Mergus merganser", "locId": "L1006379", "locName": "Evergreen Lake--Comlara Co. Park", "obsDt": "2025-12-31 14:37", "howMany": 24, "lat": 40.6403351, "lng": -89.0324306, "obsValid": true, "obsReviewed": false, "locationPrivate": false, "subId": "S291469901"}, {"speciesCode": "coohaw", "comName": "Cooper's Hawk", "sciName": "Astur cooperii", "locId": "L1006379", "locName": "Evergreen Lake--Comlara Co. Park", "obsDt": "2025-12-31 14:37", "howMany": 1, "lat": 40.6403351, "lng": -89.0324306, "obsValid": true, "obsReviewed": false, "locationPrivate": false, "subId": "S291469901"}, {"speciesCode": "baleag", "comName": "Bald Eagle", "sciName": "Haliaeetus leucocephalus", "locId": "L1006379", "locName": "Evergreen Lake--Comlara Co. Park", "obsDt": "2025-12-31 14:37", "howMany": 1, "lat": 40.6403351, "lng": -89.0324306, "obsValid": true, "obsReviewed": false, "locationPrivate": false, "subId": "S291469901"}, {"speciesCode": "rebwoo", "comName": "Red-bellied Woodpecker", "sciName": "Melanerpes carolinus", "locId": "L1006379", "locName": "Evergreen Lake--Comlara Co. Park", "obsDt": "2025-12-31 14:37", "howMany": 3, "lat": 40.6403351, "lng": -89.0324306, "obsValid": true, "obsReviewed": false, "locationPrivate": false, "subId": "S291469901"}, {"speciesCode": "blujay", "comName": "Blue Jay", "sciName": "Cyanocitta cristata", "locId": "L1006379", "locName": "Evergreen Lake--Comlara Co. Park", "obsDt": "2025-12-31 14:37", "howMany": 2, "lat": 40.6403351, "lng": -89.0324306, "obsValid": true, "obsReviewed": false, "locationPrivate": false, "subId": "S291469901"}, {"speciesCode": "bkcchi", "comName": "Black-capped Chickadee", "sciName": "Poecile atricapillus", "locId": "L1006379", "locName": "Evergreen Lake--Comlara Co. Park", "obsDt": "2025-12-31 14:37", "howMany": 8, "lat": 40.6403351, "lng": -89.0324306, "obsValid": true, "obsReviewed": false, "locationPrivate": false, "subId": "S291469901"}, {"speciesCode": "whbnut", "comName": "White-breasted Nuthatch", "sciName": "Sitta carolinensis", "locId": "L1006379", "locName": "Evergreen Lake--Comlara Co. Park", "obsDt": "2025-12-31 14:37", "howMany": 1, "lat": 40.6403351, "lng": -89.0324306, "obsValid": true, "obsReviewed": false, "locationPrivate": false, "subId": "S291469901"}, {"speciesCode": "amerob", "comName": "American Robin", "sciName": "Turdus migratorius", "locId": "L1006379", "locName": "Evergreen Lake--Comlara Co. Park", "obsDt": "2025-12-31 14:37", "howMany": 1, "lat": 40.6403351, "lng": -89.0324306, "obsValid": true, "obsReviewed": false, "locationPrivate": false, "subId": "S291469901"}, {"speciesCode": "amegfi", "comName": "American Goldfinch", "sciName": "Spinus tristis", "locId": "L1006379", "locName": "Evergreen Lake--Comlara Co. Park", "obsDt": "2025-12-31 14:37", "howMany": 16, "lat": 40.6403351, "lng": -89.0324306, "obsValid": true, "obsReviewed": false, "locationPrivate": false, "subId": "S291469901"}, {"speciesCode": "amtspa", "comName": "American Tree Sparrow", "sciName": "Spizelloides arborea", "locId": "L1006379", "locName": "Evergreen Lake--Comlara Co. Park", "obsDt": "2025-12-31 14:37", "howMany": 20, "lat": 40.6403351, "lng": -89.0324306, "obsValid": true, "obsReviewed": false, "locationPrivate": false, "subId": "S291469901"}, {"speciesCode": "daejun", "comName": "Dark-eyed Junco", "sciName": "Junco hyemalis", "locId": "L1006379", "locName": "Evergreen Lake--Comlara Co. Park", "obsDt": "2025-12-31 14:37", "howMany": 20, "lat": 40.6403351, "lng": -89.0324306, "obsValid": true, "obsReviewed": false, "locationPrivate": false, "subId": "S291469901"}, {"speciesCode": "dowwoo", "comName": "Downy Woodpecker", "sciName": "Dryobates pubescens", "locId": "L293830", "locName": "Evergreen Lake (McLean Co.)", "obsDt": "2025-12-31 13:25", "howMany": 3, "lat": 40.6445574, "lng": -89.042146, "obsValid": true, "obsReviewed": false, "locationPrivate": false, "subId": "S291454493"}, {"speciesCode": "tuftit", "comName": "Tufted Titmouse", "sciName": "Baeolophus bicolor", "locId": "L293830", "locName": "Evergreen Lake (McLean Co.)", "obsDt": "2025-12-31 13:25", "howMany": 2, "lat": 40.6445574, "lng": -89.042146, "obsValid": true, "obsReviewed": false, "locationPrivate": false, "subId": "S291454493"}, {"speciesCode": "carwre", "comName": "Carolina Wren", "sciName": "Thryothorus ludovicianus", "locId": "L293830", "locName": "Evergreen Lake (McLean Co.)", "obsDt": "2025-12-31 13:25", "howMany": 1, "lat": 40.6445574, "lng": -89.042146, "obsValid": true, "obsReviewed": false, "locationPrivate": false, "subId": "S291454493"}, {"speciesCode": "norcar", "comName": "Northern Cardinal", "sciName": "Cardinalis cardinalis", "locId": "L293830", "locName": "Evergreen Lake (McLean Co.)", "obsDt": "2025-12-31 13:25", "howMany": 6, "lat": 40.6445574, "lng": -89.042146, "obsValid": true, "obsReviewed": false, "locationPrivate": false, "subId": "S291454493"}, {"speciesCode": "eucdov", "comName": "Eurasian Collared-Dove", "sciName": "Streptopelia decaocto", "locId": "L56620550", "locName": "2789 N 1100 East Rd, Heyworth US-IL (40.3233,-89.0549)", "obsDt": "2025-12-31 13:22", "howMany": 1, "lat": 40.323291, "lng": -89.054887, "obsValid": true, "obsReviewed": false, "locationPrivate": true, "subId": "S291442729", "exoticCategory": "N"}, {"speciesCode": "perfal", "comName": "Peregrine Falcon", "sciName": "Falco peregrinus", "locId": "L37092961", "locName": "405 Broadway Ave, Normal US-IL 40.50699, -88.98588", "obsDt": "2025-12-31 13:11", "howMany": 1, "lat": 40.506994, "lng": -88.98588, "obsValid": true, "obsReviewed": false, "locationPrivate": true, "subId": "S291440931"}, {"speciesCode": "moudov", "comName": "Mourning Dove", "sciName": "Zenaida macroura", "locId": "L29268145", "locName": "GreyFoxJewel", "obsDt": "2025-12-31 12:41", "howMany": 9, "lat": 40.453345, "lng": -89.0305, "obsValid": true, "obsReviewed": false, "locationPrivate": true, "subId": "S291440283"}, {"speciesCode": "houspa", "comName": "House Sparrow", "sciName": "Passer domesticus", "locId": "L29268145", "locName": "GreyFoxJewel", "obsDt": "2025-12-31 12:41", "howMany": 15, "lat": 40.453345, "lng": -89.0305, "obsValid": true, "obsReviewed": false, "locationPrivate": true, "subId": "S291440283", "exoticCategory": "N"}, {"speciesCode": "reshaw", "comName": "Red-shouldered Hawk", "sciName": "Buteo lineatus", "locId": "L11208014", "locName": "Heyworth Sewage Treatment Ponds (restricted access)", "obsDt": "2025-12-31 12:30", "howMany": 1, "lat": 40.3186068, "lng": -88.994445, "obsValid": true, "obsReviewed": false, "locationPrivate": false, "subId": "S291433142"}, {"speciesCode": "snogoo", "comName": "Snow Goose", "sciName": "Anser caerulescens", "locId": "L29498483", "locName": "Heyworth Quarry Ponds (roadside birding only)", "obsDt": "2025-12-31 12:09", "howMany": 2, "lat": 40.304406, "lng": -89.035533, "obsValid": true, "obsReviewed": false, "locationPrivate": false, "subId": "S291431937"}, {"speciesCode": "gwfgoo", "comName": "Greater White-fronted Goose", "sciName": "Anser albifrons", "locId": "L29498483", "locName": "Heyworth Quarry Ponds (roadside birding only)", "obsDt": "2025-12-31 12:09", "howMany": 300, "lat": 40.304406, "lng": -89.035533, "obsValid": true, "obsReviewed": false, "locationPrivate": false, "subId": "S291431937"}, {"speciesCode": "amewig", "comName": "American Wigeon", "sciName": "Mareca americana", "locId": "L29498483", "locName": "Heyworth Quarry Ponds (roadside birding only)", "obsDt": "2025-12-31 12:09", "howMany": 1, "lat": 40.304406, "lng": -89.035533, "obsValid": true, "obsReviewed": false, "locationPrivate": false, "subId": "S291431937"}, {"speciesCode": "norpin", "comName": "Northern Pintail", "sciName": "Anas acuta", "locId": "L29498483", "locName": "Heyworth Quarry Ponds (roadside birding only)", "obsDt": "2025-12-31 12:09", "howMany": 10, "lat": 40.304406, "lng": -89.035533, "obsValid": true, "obsReviewed": false, "locationPrivate": false, "subId": "S291431937"}, {"speciesCode": "comgol", "comName": "Common Goldeneye", "sciName": "Bucephala clangula", "locId": "L29498483", "locName": "Heyworth Quarry Ponds (roadside birding only)", "obsDt": "2025-12-31 12:09", "howMany": 1, "lat": 40.304406, "lng": -89.035533, "obsValid": true, "obsReviewed": false, "locationPrivate": false, "subId": "S291431937"}, {"speciesCode": "eursta", "comName": "European Starling", "sciName": "Sturnus vulgaris", "locId": "L29498483", "locName": "Heyworth Quarry Ponds (roadside birding only)", "obsDt": "2025-12-31 12:09", "howMany": 10, "lat": 40.304406, "lng": -89.035533, "obsValid": true, "obsReviewed": false, "locationPrivate": false, "subId": "S291431937", "exoticCategory": "N"}, {"speciesCode": "amecro", "comName": "American Crow", "sciName": "Corvus brachyrhynchos", "locId": "L474313", "locName": "Miller Park, Bloomington", "obsDt": "2025-12-31 12:01", "howMany": 1, "lat": 40.4705654, "lng": -89.0035481, "obsValid": true, "obsReviewed": false, "locationPrivate": false, "subId": "S291484316"}, {"speciesCode": "rebmer", "comName": "Red-breasted Merganser", "sciName": "Mergus serrator", "locId": "L29498483", "locName": "Heyworth Quarry Ponds (roadside birding only)", "obsDt": "2025-12-31 11:53", "howMany": 1, "lat": 40.304406, "lng": -89.035533, "obsValid": true, "obsReviewed": false, "locationPrivate": false, "subId": "S291464067"}, {"speciesCode": "amekes", "comName": "American Kestrel", "sciName": "Falco sparverius", "locId": "L29498483", "locName": "Heyworth Quarry Ponds (roadside birding only)", "obsDt": "2025-12-31 11:53", "howMany": 1, "lat": 40.304406, "lng": -89.035533, "obsValid": true, "obsReviewed": false, "locationPrivate": false, "subId": "S291464067"}, {"speciesCode": "rehwoo", "comName": "Red-headed Woodpecker", "sciName": "Melanerpes erythrocephalus", "locId": "L328859", "locName": "Merwin Nature Preserve--North of Mackinaw River", "obsDt": "2025-12-31 11:14", "howMany": 15, "lat": 40.6661824, "lng": -88.8987601, "obsValid": true, "obsReviewed": false, "locationPrivate": false, "subId": "S291456284"}, {"speciesCode": "norfli", "comName": "Northern Flicker", "sciName": "Colaptes auratus", "locId": "L328859", "locName": "Merwin Nature Preserve--North of Mackinaw River", "obsDt": "2025-12-31 11:14", "howMany": 2, "lat": 40.6661824, "lng": -88.8987601, "obsValid": true, "obsReviewed": false, "locationPrivate": false, "subId": "S291456284"}, {"speciesCode": "easblu", "comName": "Eastern Bluebird", "sciName": "Sialia sialis", "locId": "L328859", "locName": "Merwin Nature Preserve--North of Mackinaw River", "obsDt": "2025-12-31 11:14", "howMany": 1, "lat": 40.6661824, "lng": -88.8987601, "obsValid": true, "obsReviewed": false, "locationPrivate": false, "subId": "S291456284"}, {"speciesCode": "whtspa", "comName": "White-throated Sparrow", "sciName": "Zonotrichia albicollis", "locId": "L328859", "locName": "Merwin Nature Preserve--North of Mackinaw River", "obsDt": "2025-12-31 11:14", "howMany": 2, "lat": 40.6661824, "lng": -88.8987601, "obsValid": true, "obsReviewed": false, "locationPrivate": false, "subId": "S291456284"}, {"speciesCode": "cacgoo1", "comName": "Cackling Goose", "sciName": "Branta hutchinsii", "locId": "L1056875", "locName": "Centennial Park, Heyworth", "obsDt": "2025-12-31 10:53", "howMany": 1, "lat": 40.3153548, "lng": -89.0020436, "obsValid": true, "obsReviewed": false, "locationPrivate": false, "subId": "S291418088"}, {"speciesCode": "mutswa", "comName": "Mute Swan", "sciName": "Cygnus olor", "locId": "L1056875", "locName": "Centennial Park, Heyworth", "obsDt": "2025-12-31 10:53", "howMany": 15, "lat": 40.3153548, "lng": -89.0020436, "obsValid": true, "obsReviewed": true, "locationPrivate": false, "subId": "S291418088", "exoticCategory": "N"}, {"speciesCode": "gadwal", "comName": "Gadwall", "sciName": "Mareca strepera", "locId": "L1056875", "locName": "Centennial Park, Heyworth", "obsDt": "2025-12-31 10:53", "howMany": 55, "lat": 40.3153548, "lng": -89.0020436, "obsValid": true, "obsReviewed": false, "locationPrivate": false, "subId": "S291418088"}, {"speciesCode": "gnwtea", "comName": "Green-winged Teal", "sciName": "Anas crecca", "locId": "L1056875", "locName": "Centennial Park, Heyworth", "obsDt": "2025-12-31 10:53", "howMany": 1, "lat": 40.3153548, "lng": -89.0020436, "obsValid": true, "obsReviewed": false, "locationPrivate": false, "subId": "S291418088"}, {"speciesCode": "canvas", "comName": "Canvasback", "sciName": "Aythya valisineria", "locId": "L1056875", "locName": "Centennial Park, Heyworth", "obsDt": "2025-12-31 10:53", "howMany": 3, "lat": 40.3153548, "lng": -89.0020436, "obsValid": true, "obsReviewed": false, "locationPrivate": false, "subId": "S291418088"}, {"speciesCode": "redhea", "comName": "Redhead", "sciName": "Aythya americana", "locId": "L1056875", "locName": "Centennial Park, Heyworth", "obsDt": "2025-12-31 10:53", "howMany": 2, "lat": 40.3153548, "lng": -89.0020436, "obsValid": true, "obsReviewed": false, "locationPrivate": false, "subId": "S291418088"}, {"speciesCode": "lessca", "comName": "Lesser Scaup", "sciName": "Aythya affinis", "locId": "L1056875", "locName": "Centennial Park, Heyworth", "obsDt": "2025-12-31 10:53", "howMany": 1, "lat": 40.3153548, "lng": -89.0020436, "obsValid": true, "obsReviewed": false, "locationPrivate": false, "subId": "S291418090"}, {"speciesCode": "belkin1", "comName": "Belted Kingfisher", "sciName": "Megaceryle alcyon", "locId": "L1056875", "locName": "Centennial Park, Heyworth", "obsDt": "2025-12-31 10:53", "howMany": 1, "lat": 40.3153548, "lng": -89.0020436, "obsValid": true, "obsReviewed": false, "locationPrivate": false, "subId": "S291418088"}, {"speciesCode": "eutspa", "comName": "Eurasian Tree Sparrow", "sciName": "Passer montanus", "locId": "L1056875", "locName": "Centennial Park, Heyworth", "obsDt": "2025-12-31 10:53", "howMany": 2, "lat": 40.3153548, "lng": -89.0020436, "obsValid": true, "obsReviewed": false, "locationPrivate": false, "subId": "S291418088", "exoticCategory": "N"}, {"speciesCode": "rocpig", "comName": "Rock Pigeon", "sciName": "Columba livia", "locId": "L11208014", "locName": "Heyworth Sewage Treatment Ponds (restricted access)", "obsDt": "2025-12-31 10:49", "howMany": 30, "lat": 40.3186068, "lng": -88.994445, "obsValid": true, "obsReviewed": false, "locationPrivate": false, "subId": "S291418189", "exoticCategory": "N"}, {"speciesCode": "houfin", "comName": "House Finch", "sciName": "Haemorhous mexicanus", "locId": "L1107665", "locName": "Angler's Lake Nature Preserve", "obsDt": "2025-12-31 10:39", "howMany": 25, "lat": 40.462921, "lng": -88.9666146, "obsValid": true, "obsReviewed": false, "locationPrivate": false, "subId": "S291418871", "exoticCategory": "N"}, {"speciesCode": "pinsis", "comName": "Pine Siskin", "sciName": "Spinus pinus", "locId": "L1107665", "locName": "Angler's Lake Nature Preserve", "obsDt": "2025-12-31 10:39", "howMany": 11, "lat": 40.462921, "lng": -88.9666146, "obsValid": true, "obsReviewed": false, "locationPrivate": false, "subId": "S291418871"}, {"speciesCode": "foxspa", "comName": "Fox Sparrow", "sciName": "Passerella iliaca", "locId": "L1107665", "locName": "Angler's Lake Nature Preserve", "obsDt": "2025-12-31 10:39", "howMany": 1, "lat": 40.462921, "lng": -88.9666146, "obsValid": true, "obsReviewed": false, "locationPrivate": false, "subId": "S291418871"}, {"speciesCode": "buffle", "comName": "Bufflehead", "sciName": "Bucephala albeola", "locId": "L1006379", "locName": "Evergreen Lake--Comlara Co. Park", "obsDt": "2025-12-31 10:30", "howMany": 1, "lat": 40.6403351, "lng": -89.0324306, "obsValid": true, "obsReviewed": false, "locationPrivate": false, "subId": "S291765343"}, {"speciesCode": "rethaw", "comName": "Red-tailed Hawk", "sciName": "Buteo jamaicensis", "locId": "L1006379", "locName": "Evergreen Lake--Comlara Co. Park", "obsDt": "2025-12-31 10:30", "howMany": 1, "lat": 40.6403351, "lng": -89.0324306, "obsValid": true, "obsReviewed": false, "locationPrivate": false, "subId": "S291765343"}, {"speciesCode": "gockin", "comName": "Golden-crowned Kinglet", "sciName": "Regulus satrapa", "locId": "L1006379", "locName": "Evergreen Lake--Comlara Co. Park", "obsDt": "2025-12-31 10:30", "howMany": 1, "lat": 40.6403351, "lng": -89.0324306, "obsValid": true, "obsReviewed": false, "locationPrivate": false, "subId": "S291765343"}, {"speciesCode": "rosgoo", "comName": "Ross's Goose", "sciName": "Anser rossii", "locId": "L55469896", "locName": "Kickapoo Creek and 600 E. (roadside birding only)", "obsDt": "2025-12-31 09:40", "howMany": 7, "lat": 40.3704468, "lng": -88.9149487, "obsValid": true, "obsReviewed": false, "locationPrivate": false, "subId": "S291418596"}, {"speciesCode": "brncre", "comName": "Brown Creeper", "sciName": "Certhia americana", "locId": "L55469896", "locName": "Kickapoo Creek and 600 E. (roadside birding only)", "obsDt": "2025-12-31 09:40", "howMany": 1, "lat": 40.3704468, "lng": -88.9149487, "obsValid": true, "obsReviewed": false, "locationPrivate": false, "subId": "S291418596"}, {"speciesCode": "ribgul", "comName": "Ring-billed Gull", "sciName": "Larus delawarensis", "locId": "L4137491", "locName": "Downs Quarry Ponds (roadside birding only)", "obsDt": "2025-12-31 09:24", "howMany": 2, "lat": 40.388235, "lng": -88.881895, "obsValid": true, "obsReviewed": false, "locationPrivate": false, "subId": "S291418789"}, {"speciesCode": "rebnut", "comName": "Red-breasted Nuthatch", "sciName": "Sitta canadensis", "locId": "L3123797", "locName": "Bellemont Rd, Bloomington IL", "obsDt": "2025-12-31 09:12", "howMany": 1, "lat": 40.4786432, "lng": -88.9618027, "obsValid": true, "obsReviewed": false, "locationPrivate": true, "subId": "S291447083"}]