[{"speciesCode": "cangoo", "comName": "Canada Goose", "sciName": "Branta canadensis", "locId": "L27549824", "locName": "Brisbin Rd. Sod Farm", "obsDt": "2025-12-04 15:50", "howMany": 300, "lat": 41.5698426, "lng": -88.3669085, "obsValid": true, "obsReviewed": false, "locationPrivate": false, "subId": "S287311451"}, {"speciesCode": "norhar2", "comName": "Northern Harrier", "sciName": "Circus hudsonius", "locId": "L27549824", "locName": "Brisbin Rd. Sod Farm", "obsDt": "2025-12-04 15:50", "howMany": 1, "lat": 41.5698426, "lng": -88.3669085, "obsValid": true, "obsReviewed": false, "locationPrivate": false, "subId": "S287311451"}, {"speciesCode": "horlar", "comName": "Horned Lark", "sciName": "Eremophila alpestris", "locId": "L27549824", "locName": "Brisbin Rd. Sod Farm", "obsDt": "2025-12-04 15:50", "howMany": 4, "lat": 41.5698426, "lng": -88.3669085, "obsValid": true, "obsReviewed": false, "locationPrivate": false, "subId": "S287311451"}, {"speciesCode": "laplon", "comName": "Lapland Longspur", "sciName": "Calcarius lapponicus", "locId": "L27549824", "locName": "Brisbin Rd. Sod Farm", "obsDt": "2025-12-04 15:50", "howMany": 100, "lat": 41.5698426, "lng": -88.3669085, "obsValid": true, "obsReviewed": false, "locationPrivate": false, "subId": "S287311451"}, {"speciesCode": "snobun", "comName": "Snow Bunting", "sciName": "Plectrophenax nivalis", "locId": "L27549824", "locName": "Brisbin Rd. Sod Farm", "obsDt": "2025-12-04 15:50", "howMany": 5, "lat": 41.5698426, "lng": -88.3669085, "obsValid": true, "obsReviewed": false, "locationPrivate": false, "subId": "S287311451"}, {"speciesCode": "amtspa", "comName": "American Tree Sparrow", "sciName": "Spizelloides arborea", "locId": "L55716461", "locName": "Chicago Road Creek", "obsDt": "2025-12-04 15:50", "howMany": 1, "lat": 41.5200576, "lng": -88.4182044, "obsValid": true, "obsReviewed": false, "locationPrivate": true, "subId": "S287319546"}, {"speciesCode": "foxspa", "comName": "Fox Sparrow", "sciName": "Passerella iliaca", "locId": "L55716461", "locName": "Chicago Road Creek", "obsDt": "2025-12-04 15:50", "howMany": 6, "lat": 41.5200576, "lng": -88.4182044, "obsValid": true, "obsReviewed": true, "locationPrivate": true, "subId": "S287319546"}, {"speciesCode": "daejun", "comName": "Dark-eyed Junco", "sciName": "Junco hyemalis", "locId": "L55716461", "locName": "Chicago Road Creek", "obsDt": "2025-12-04 15:50", "howMany": 2, "lat": 41.5200576, "lng": -88.4182044, "obsValid": true, "obsReviewed": false, "locationPrivate": true, "subId": "S287319546"}, {"speciesCode": "rinphe1", "comName": "Ring-necked Pheasant", "sciName": "Phasianus colchicus", "locId": "L9362029", "locName": "Anderson Rd., Newark (roadside birding only)", "obsDt": "2025-12-04 15:48", "howMany": 1, "lat": 41.5165277, "lng": -88.539681, "obsValid": true, "obsReviewed": false, "locationPrivate": false, "subId": "S287316699", "exoticCategory": "N"}, {"speciesCode": "rethaw", "comName": "Red-tailed Hawk", "sciName": "Buteo jamaicensis", "locId": "L9362029", "locName": "Anderson Rd., Newark (roadside birding only)", "obsDt": "2025-12-04 15:48", "howMany": 1, "lat": 41.5165277, "lng": -88.539681, "obsValid": true, "obsReviewed": false, "locationPrivate": false, "subId": "S287316699"}, {"speciesCode": "dowwoo", "comName": "Downy Woodpecker", "sciName": "Dryobates pubescens", "locId": "L9362029", "locName": "Anderson Rd., Newark (roadside birding only)", "obsDt": "2025-12-04 15:48", "howMany": 1, "lat": 41.5165277, "lng": -88.539681, "obsValid": true, "obsReviewed": false, "locationPrivate": false, "subId": "S287316699"}, {"speciesCode": "whcspa", "comName": "White-crowned Sparrow", "sciName": "Zonotrichia leucophrys", "locId": "L9362029", "locName": "Anderson Rd., Newark (roadside birding only)", "obsDt": "2025-12-04 15:48", "howMany": 1, "lat": 41.5165277, "lng": -88.539681, "obsValid": true, "obsReviewed": false, "locationPrivate": false, "subId": "S287316699"}, {"speciesCode": "moudov", "comName": "Mourning Dove", "sciName": "Zenaida macroura", "locId": "L13138980", "locName": "wheeler and hopkins", "obsDt": "2025-12-04 15:23", "howMany": 10, "lat": 41.5913851, "lng": -88.3776746, "obsValid": true, "obsReviewed": false, "locationPrivate": true, "subId": "S287317595"}, {"speciesCode": "eursta", "comName": "European Starling", "sciName": "Sturnus vulgaris", "locId": "L13138980", "locName": "wheeler and hopkins", "obsDt": "2025-12-04 15:23", "howMany": 50, "lat": 41.5913851, "lng": -88.3776746, "obsValid": true, "obsReviewed": false, "locationPrivate": true, "subId": "S287317595", "exoticCategory": "N"}, {"speciesCode": "mallar3", "comName": "Mallard", "sciName": "Anas platyrhynchos", "locId": "L1187422", "locName": "Saw Wee Kee Park", "obsDt": "2025-12-04 08:09", "howMany": 500, "lat": 41.6692574, "lng": -88.3966827, "obsValid": true, "obsReviewed": false, "locationPrivate": false, "subId": "S287263980"}, {"speciesCode": "norpin", "comName": "Northern Pintail", "sciName": "Anas acuta", "locId": "L1187422", "locName": "Saw Wee Kee Park", "obsDt": "2025-12-04 08:09", "howMany": 8, "lat": 41.6692574, "lng": -88.3966827, "obsValid": true, "obsReviewed": false, "locationPrivate": false, "subId": "S287263980"}, {"speciesCode": "amerob", "comName": "American Robin", "sciName": "Turdus migratorius", "locId": "L1187422", "locName": "Saw Wee Kee Park", "obsDt": "2025-12-04 08:09", "howMany": 6, "lat": 41.6692574, "lng": -88.3966827, "obsValid": true, "obsReviewed": false, "locationPrivate": false, "subId": "S287263980"}, {"speciesCode": "rebwoo", "comName": "Red-bellied Woodpecker", "sciName": "Melanerpes carolinus", "locId": "L10754350", "locName": "Lisbon Center/Townhouse Newark, IL", "obsDt": "2025-12-04 07:48", "howMany": 1, "lat": 41.5212003, "lng": -88.5647195, "obsValid": true, "obsReviewed": false, "locationPrivate": true, "subId": "S287262094"}, {"speciesCode": "blujay", "comName": "Blue Jay", "sciName": "Cyanocitta cristata", "locId": "L10754350", "locName": "Lisbon Center/Townhouse Newark, IL", "obsDt": "2025-12-04 07:48", "howMany": 1, "lat": 41.5212003, "lng": -88.5647195, "obsValid": true, "obsReviewed": false, "locationPrivate": true, "subId": "S287262094"}, {"speciesCode": "houspa", "comName": "House Sparrow", "sciName": "Passer domesticus", "locId": "L10754350", "locName": "Lisbon Center/Townhouse Newark, IL", "obsDt": "2025-12-04 07:48", "howMany": 10, "lat": 41.5212003, "lng": -88.5647195, "obsValid": true, "obsReviewed": false, "locationPrivate": true, "subId": "S287262094", "exoticCategory": "N"}, {"speciesCode": "houfin", "comName": "House Finch", "sciName": "Haemorhous mexicanus", "locId": "L10754350", "locName": "Lisbon Center/Townhouse Newark, IL", "obsDt": "2025-12-04 07:48", "howMany": 10, "lat": 41.5212003, "lng": -88.5647195, "obsValid": true, "obsReviewed": false, "locationPrivate": true, "subId": "S287262094", "exoticCategory": "N"}, {"speciesCode": "cacgoo1", "comName": "Cackling Goose", "sciName": "Branta hutchinsii", "locId": "L825517", "locName": "Yorkville Dam", "obsDt": "2025-12-04 07:17", "howMany": 5, "lat": 41.6432855, "lng": -88.4439754, "obsValid": true, "obsReviewed": false, "locationPrivate": false, "subId": "S287259632"}, {"speciesCode": "comgol", "comName": "Common Goldeneye", "sciName": "Bucephala clangula", "locId": "L825517", "locName": "Yorkville Dam", "obsDt": "2025-12-04 07:17", "howMany": 2, "lat": 41.6432855, "lng": -88.4439754, "obsValid": true, "obsReviewed": false, "locationPrivate": false, "subId": "S287259632"}, {"speciesCode": "commer", "comName": "Common Merganser", "sciName": "Mergus merganser", "locId": "L825517", "locName": "Yorkville Dam", "obsDt": "2025-12-04 07:17", "howMany": 6, "lat": 41.6432855, "lng": -88.4439754, "obsValid": true, "obsReviewed": false, "locationPrivate": false, "subId": "S287259632"}, {"speciesCode": "rocpig", "comName": "Rock Pigeon", "sciName": "Columba livia", "locId": "L825517", "locName": "Yorkville Dam", "obsDt": "2025-12-04 07:17", "howMany": 11, "lat": 41.6432855, "lng": -88.4439754, "obsValid": true, "obsReviewed": false, "locationPrivate": false, "subId": "S287259632", "exoticCategory": "N"}, {"speciesCode": "grbher3", "comName": "Great Blue Heron", "sciName": "Ardea herodias", "locId": "L825517", "locName": "Yorkville Dam", "obsDt": "2025-12-04 07:17", "howMany": 2, "lat": 41.6432855, "lng": -88.4439754, "obsValid": true, "obsReviewed": false, "locationPrivate": false, "subId": "S287259632"}, {"speciesCode": "amecro", "comName": "American Crow", "sciName": "Corvus brachyrhynchos", "locId": "L825517", "locName": "Yorkville Dam", "obsDt": "2025-12-04 07:17", "howMany": 2, "lat": 41.6432855, "lng": -88.4439754, "obsValid": true, "obsReviewed": false, "locationPrivate": false, "subId": "S287259632"}, {"speciesCode": "norcar", "comName": "Northern Cardinal", "sciName": "Cardinalis cardinalis", "locId": "L825517", "locName": "Yorkville Dam", "obsDt": "2025-12-04 07:17", "howMany": 2, "lat": 41.6432855, "lng": -88.4439754, "obsValid": true, "obsReviewed": false, "locationPrivate": false, "subId": "S287259632"}]