[{"speciesCode": "amecro", "comName": "American Crow", "sciName": "Corvus brachyrhynchos", "locId": "L55390687", "locName": "N St Anthony Pl, West Peoria US-IL 40.69743, -89.62917", "obsDt": "2025-12-02 15:38", "howMany": 1, "lat": 40.6974133, "lng": -89.6288999, "obsValid": true, "obsReviewed": false, "locationPrivate": true, "subId": "S287092990"}, {"speciesCode": "bkcchi", "comName": "Black-capped Chickadee", "sciName": "Poecile atricapillus", "locId": "L55390687", "locName": "N St Anthony Pl, West Peoria US-IL 40.69743, -89.62917", "obsDt": "2025-12-02 15:38", "howMany": 1, "lat": 40.6974133, "lng": -89.6288999, "obsValid": true, "obsReviewed": false, "locationPrivate": true, "subId": "S287092990"}, {"speciesCode": "rebnut", "comName": "Red-breasted Nuthatch", "sciName": "Sitta canadensis", "locId": "L55390687", "locName": "N St Anthony Pl, West Peoria US-IL 40.69743, -89.62917", "obsDt": "2025-12-02 15:38", "howMany": 1, "lat": 40.6974133, "lng": -89.6288999, "obsValid": true, "obsReviewed": false, "locationPrivate": true, "subId": "S287092990"}, {"speciesCode": "houspa", "comName": "House Sparrow", "sciName": "Passer domesticus", "locId": "L55390687", "locName": "N St Anthony Pl, West Peoria US-IL 40.69743, -89.62917", "obsDt": "2025-12-02 15:38", "howMany": 4, "lat": 40.6974133, "lng": -89.6288999, "obsValid": true, "obsReviewed": false, "locationPrivate": true, "subId": "S287092990", "exoticCategory": "N"}, {"speciesCode": "houfin", "comName": "House Finch", "sciName": "Haemorhous mexicanus", "locId": "L55390687", "locName": "N St Anthony Pl, West Peoria US-IL 40.69743, -89.62917", "obsDt": "2025-12-02 15:38", "howMany": 2, "lat": 40.6974133, "lng": -89.6288999, "obsValid": true, "obsReviewed": false, "locationPrivate": true, "subId": "S287092990", "exoticCategory": "N"}, {"speciesCode": "daejun", "comName": "Dark-eyed Junco", "sciName": "Junco hyemalis", "locId": "L55390687", "locName": "N St Anthony Pl, West Peoria US-IL 40.69743, -89.62917", "obsDt": "2025-12-02 15:38", "howMany": 8, "lat": 40.6974133, "lng": -89.6288999, "obsValid": true, "obsReviewed": false, "locationPrivate": true, "subId": "S287092990"}, {"speciesCode": "rebwoo", "comName": "Red-bellied Woodpecker", "sciName": "Melanerpes carolinus", "locId": "L16083094", "locName": "Mapleton Yard", "obsDt": "2025-12-02 15:22", "howMany": 1, "lat": 40.6379619, "lng": -89.7429678, "obsValid": true, "obsReviewed": false, "locationPrivate": true, "subId": "S287111149"}, {"speciesCode": "dowwoo", "comName": "Downy Woodpecker", "sciName": "Dryobates pubescens", "locId": "L16083094", "locName": "Mapleton Yard", "obsDt": "2025-12-02 15:22", "howMany": 4, "lat": 40.6379619, "lng": -89.7429678, "obsValid": true, "obsReviewed": false, "locationPrivate": true, "subId": "S287111149"}, {"speciesCode": "blujay", "comName": "Blue Jay", "sciName": "Cyanocitta cristata", "locId": "L16083094", "locName": "Mapleton Yard", "obsDt": "2025-12-02 15:22", "howMany": 1, "lat": 40.6379619, "lng": -89.7429678, "obsValid": true, "obsReviewed": false, "locationPrivate": true, "subId": "S287111149"}, {"speciesCode": "tuftit", "comName": "Tufted Titmouse", "sciName": "Baeolophus bicolor", "locId": "L16083094", "locName": "Mapleton Yard", "obsDt": "2025-12-02 15:22", "howMany": 3, "lat": 40.6379619, "lng": -89.7429678, "obsValid": true, "obsReviewed": false, "locationPrivate": true, "subId": "S287111149"}, {"speciesCode": "whbnut", "comName": "White-breasted Nuthatch", "sciName": "Sitta carolinensis", "locId": "L16083094", "locName": "Mapleton Yard", "obsDt": "2025-12-02 15:22", "howMany": 1, "lat": 40.6379619, "lng": -89.7429678, "obsValid": true, "obsReviewed": false, "locationPrivate": true, "subId": "S287111149"}, {"speciesCode": "carwre", "comName": "Carolina Wren", "sciName": "Thryothorus ludovicianus", "locId": "L16083094", "locName": "Mapleton Yard", "obsDt": "2025-12-02 15:22", "howMany": 2, "lat": 40.6379619, "lng": -89.7429678, "obsValid": true, "obsReviewed": false, "locationPrivate": true, "subId": "S287111149"}, {"speciesCode": "whtspa", "comName": "White-throated Sparrow", "sciName": "Zonotrichia albicollis", "locId": "L16083094", "locName": "Mapleton Yard", "obsDt": "2025-12-02 15:22", "howMany": 3, "lat": 40.6379619, "lng": -89.7429678, "obsValid": true, "obsReviewed": false, "locationPrivate": true, "subId": "S287111149"}, {"speciesCode": "norcar", "comName": "Northern Cardinal", "sciName": "Cardinalis cardinalis", "locId": "L16083094", "locName": "Mapleton Yard", "obsDt": "2025-12-02 15:22", "howMany": 3, "lat": 40.6379619, "lng": -89.7429678, "obsValid": true, "obsReviewed": false, "locationPrivate": true, "subId": "S287111149"}, {"speciesCode": "laplon", "comName": "Lapland Longspur", "sciName": "Calcarius lapponicus", "locId": "L55669529", "locName": "10913 Illinois 78, Elmwood, Illinois, US (40.823, -89.966)", "obsDt": "2025-12-02 14:19", "howMany": 62, "lat": 40.8226142, "lng": -89.9660542, "obsValid": true, "obsReviewed": false, "locationPrivate": true, "subId": "S287083740"}, {"speciesCode": "snobun", "comName": "Snow Bunting", "sciName": "Plectrophenax nivalis", "locId": "L55669529", "locName": "10913 Illinois 78, Elmwood, Illinois, US (40.823, -89.966)", "obsDt": "2025-12-02 14:19", "howMany": 1, "lat": 40.8226142, "lng": -89.9660542, "obsValid": true, "obsReviewed": false, "locationPrivate": true, "subId": "S287083740"}, {"speciesCode": "moudov", "comName": "Mourning Dove", "sciName": "Zenaida macroura", "locId": "L18409663", "locName": "1005 E Seneca Pl, Peoria US-IL 40.72032, -89.58052", "obsDt": "2025-12-02 13:32", "howMany": 7, "lat": 40.720319, "lng": -89.580521, "obsValid": true, "obsReviewed": false, "locationPrivate": true, "subId": "S287081737"}, {"speciesCode": "wiltur", "comName": "Wild Turkey", "sciName": "Meleagris gallopavo", "locId": "L297069", "locName": "Forest Park Nature Center", "obsDt": "2025-12-02 09:11", "howMany": 4, "lat": 40.7592353, "lng": -89.5750752, "obsValid": true, "obsReviewed": false, "locationPrivate": false, "subId": "S287084700"}, {"speciesCode": "amerob", "comName": "American Robin", "sciName": "Turdus migratorius", "locId": "L297069", "locName": "Forest Park Nature Center", "obsDt": "2025-12-02 09:11", "howMany": 1, "lat": 40.7592353, "lng": -89.5750752, "obsValid": true, "obsReviewed": false, "locationPrivate": false, "subId": "S287084700"}, {"speciesCode": "cangoo", "comName": "Canada Goose", "sciName": "Branta canadensis", "locId": "L8948029", "locName": "Cobblestone Lakes (Rural Residential/Limited Access)", "obsDt": "2025-12-02 08:19", "howMany": 80, "lat": 40.721431, "lng": -89.7565474, "obsValid": true, "obsReviewed": false, "locationPrivate": true, "subId": "S287077310"}, {"speciesCode": "mallar3", "comName": "Mallard", "sciName": "Anas platyrhynchos", "locId": "L8948029", "locName": "Cobblestone Lakes (Rural Residential/Limited Access)", "obsDt": "2025-12-02 08:19", "howMany": 3, "lat": 40.721431, "lng": -89.7565474, "obsValid": true, "obsReviewed": false, "locationPrivate": true, "subId": "S287077310"}, {"speciesCode": "eursta", "comName": "European Starling", "sciName": "Sturnus vulgaris", "locId": "L8948029", "locName": "Cobblestone Lakes (Rural Residential/Limited Access)", "obsDt": "2025-12-02 08:19", "howMany": 2, "lat": 40.721431, "lng": -89.7565474, "obsValid": true, "obsReviewed": false, "locationPrivate": true, "subId": "S287077310", "exoticCategory": "N"}]