[{"speciesCode": "cangoo", "comName": "Canada Goose", "sciName": "Branta canadensis", "locId": "L20811730", "locName": "Carl Sandburg High School, Orland Park US-IL 41.65076, -87.85815", "obsDt": "2025-12-04 19:26", "howMany": 1, "lat": 41.65076, "lng": -87.858154, "obsValid": true, "obsReviewed": false, "locationPrivate": true, "subId": "S287329286"}, {"speciesCode": "sancra", "comName": "Sandhill Crane", "sciName": "Antigone canadensis", "locId": "L39298557", "locName": "17930 Wolf Rd, Orland Park US-IL (41.5639,-87.8926)", "obsDt": "2025-12-04 17:15", "howMany": 43, "lat": 41.56386, "lng": -87.892609, "obsValid": true, "obsReviewed": false, "locationPrivate": true, "subId": "S287318314"}, {"speciesCode": "rocpig", "comName": "Rock Pigeon", "sciName": "Columba livia", "locId": "L17739771", "locName": "Collette Highlands Pk Area, 15850 108th Ave, Orland Park US-IL 41.60102, -87.88330", "obsDt": "2025-12-04 16:43", "howMany": 24, "lat": 41.60102, "lng": -87.8833, "obsValid": true, "obsReviewed": false, "locationPrivate": true, "subId": "S287318356", "exoticCategory": "N"}, {"speciesCode": "moudov", "comName": "Mourning Dove", "sciName": "Zenaida macroura", "locId": "L17739771", "locName": "Collette Highlands Pk Area, 15850 108th Ave, Orland Park US-IL 41.60102, -87.88330", "obsDt": "2025-12-04 16:43", "howMany": 3, "lat": 41.60102, "lng": -87.8833, "obsValid": true, "obsReviewed": false, "locationPrivate": true, "subId": "S287318356"}, {"speciesCode": "houspa", "comName": "House Sparrow", "sciName": "Passer domesticus", "locId": "L55717357", "locName": "Devon Market", "obsDt": "2025-12-04 16:37", "howMany": 1, "lat": 41.9983319, "lng": -87.6671004, "obsValid": true, "obsReviewed": false, "locationPrivate": true, "subId": "S287323846", "exoticCategory": "N"}, {"speciesCode": "mallar3", "comName": "Mallard", "sciName": "Anas platyrhynchos", "locId": "L1060606", "locName": "Loyola Park", "obsDt": "2025-12-04 16:34", "howMany": 17, "lat": 42.0087282, "lng": -87.6592684, "obsValid": true, "obsReviewed": false, "locationPrivate": false, "subId": "S287327701"}, {"speciesCode": "ribgul", "comName": "Ring-billed Gull", "sciName": "Larus delawarensis", "locId": "L1060606", "locName": "Loyola Park", "obsDt": "2025-12-04 16:34", "howMany": 1, "lat": 42.0087282, "lng": -87.6592684, "obsValid": true, "obsReviewed": false, "locationPrivate": false, "subId": "S287327701"}, {"speciesCode": "eursta", "comName": "European Starling", "sciName": "Sturnus vulgaris", "locId": "L1060606", "locName": "Loyola Park", "obsDt": "2025-12-04 16:34", "howMany": 10, "lat": 42.0087282, "lng": -87.6592684, "obsValid": true, "obsReviewed": false, "locationPrivate": false, "subId": "S287327701", "exoticCategory": "N"}, {"speciesCode": "norcar", "comName": "Northern Cardinal", "sciName": "Cardinalis cardinalis", "locId": "L1060606", "locName": "Loyola Park", "obsDt": "2025-12-04 16:34", "howMany": 1, "lat": 42.0087282, "lng": -87.6592684, "obsValid": true, "obsReviewed": false, "locationPrivate": false, "subId": "S287327701"}, {"speciesCode": "amerob", "comName": "American Robin", "sciName": "Turdus migratorius", "locId": "L27904528", "locName": "Edgewater - Devon/Glenwood", "obsDt": "2025-12-04 16:30", "howMany": 1, "lat": 41.9981406, "lng": -87.665508, "obsValid": true, "obsReviewed": false, "locationPrivate": true, "subId": "S287315489"}, {"speciesCode": "winwre3", "comName": "Winter Wren", "sciName": "Troglodytes hiemalis", "locId": "L55715382", "locName": "569 East Illinois Street, Chicago, Illinois, US (41.891, -87.612)", "obsDt": "2025-12-04 16:24", "howMany": 1, "lat": 41.8909315, "lng": -87.6122288, "obsValid": true, "obsReviewed": false, "locationPrivate": true, "subId": "S287314271"}, {"speciesCode": "coohaw", "comName": "Cooper's Hawk", "sciName": "Astur cooperii", "locId": "L39652613", "locName": "near home", "obsDt": "2025-12-04 16:15", "howMany": 1, "lat": 41.8746152, "lng": -87.7769802, "obsValid": true, "obsReviewed": false, "locationPrivate": true, "subId": "S287316223"}, {"speciesCode": "daejun", "comName": "Dark-eyed Junco", "sciName": "Junco hyemalis", "locId": "L5220425", "locName": "Normandy Pl, Evanston, IL", "obsDt": "2025-12-04 16:15", "howMany": 4, "lat": 42.0582826, "lng": -87.7189073, "obsValid": true, "obsReviewed": false, "locationPrivate": true, "subId": "S287314284"}, {"speciesCode": "reshaw", "comName": "Red-shouldered Hawk", "sciName": "Buteo lineatus", "locId": "L108479", "locName": "Columbus Park", "obsDt": "2025-12-04 16:08", "howMany": 1, "lat": 41.8751829, "lng": -87.7698144, "obsValid": true, "obsReviewed": false, "locationPrivate": false, "subId": "S287316097"}, {"speciesCode": "laplon", "comName": "Lapland Longspur", "sciName": "Calcarius lapponicus", "locId": "L343390", "locName": "Caldwell Preserves (Bunker Hill/Yates Flatwoods/Caldwell Woods)", "obsDt": "2025-12-04 16:08", "howMany": 1, "lat": 42.00125, "lng": -87.7851391, "obsValid": true, "obsReviewed": false, "locationPrivate": false, "subId": "S287314215"}, {"speciesCode": "rewbla", "comName": "Red-winged Blackbird", "sciName": "Agelaius phoeniceus", "locId": "L343390", "locName": "Caldwell Preserves (Bunker Hill/Yates Flatwoods/Caldwell Woods)", "obsDt": "2025-12-04 16:08", "howMany": 1, "lat": 42.00125, "lng": -87.7851391, "obsValid": true, "obsReviewed": false, "locationPrivate": false, "subId": "S287314215"}, {"speciesCode": "rusbla", "comName": "Rusty Blackbird", "sciName": "Euphagus carolinus", "locId": "L1573785", "locName": "Lincoln Park Zoo", "obsDt": "2025-12-04 16:08", "howMany": 1, "lat": 41.9207287, "lng": -87.6327196, "obsValid": true, "obsReviewed": false, "locationPrivate": false, "subId": "S287312717"}, {"speciesCode": "dowwoo", "comName": "Downy Woodpecker", "sciName": "Dryobates pubescens", "locId": "L1966503", "locName": "Streamwood backyard", "obsDt": "2025-12-04 16:04", "howMany": 1, "lat": 42.0185648, "lng": -88.1721497, "obsValid": true, "obsReviewed": false, "locationPrivate": true, "subId": "S287315569"}, {"speciesCode": "whbnut", "comName": "White-breasted Nuthatch", "sciName": "Sitta carolinensis", "locId": "L1966503", "locName": "Streamwood backyard", "obsDt": "2025-12-04 16:04", "howMany": 2, "lat": 42.0185648, "lng": -88.1721497, "obsValid": true, "obsReviewed": false, "locationPrivate": true, "subId": "S287315569"}, {"speciesCode": "amtspa", "comName": "American Tree Sparrow", "sciName": "Spizelloides arborea", "locId": "L1966503", "locName": "Streamwood backyard", "obsDt": "2025-12-04 16:04", "howMany": 2, "lat": 42.0185648, "lng": -88.1721497, "obsValid": true, "obsReviewed": false, "locationPrivate": true, "subId": "S287315569"}, {"speciesCode": "foxspa", "comName": "Fox Sparrow", "sciName": "Passerella iliaca", "locId": "L1966503", "locName": "Streamwood backyard", "obsDt": "2025-12-04 16:04", "howMany": 1, "lat": 42.0185648, "lng": -88.1721497, "obsValid": true, "obsReviewed": false, "locationPrivate": true, "subId": "S287315569"}, {"speciesCode": "whtspa", "comName": "White-throated Sparrow", "sciName": "Zonotrichia albicollis", "locId": "L1966503", "locName": "Streamwood backyard", "obsDt": "2025-12-04 16:04", "howMany": 3, "lat": 42.0185648, "lng": -88.1721497, "obsValid": true, "obsReviewed": false, "locationPrivate": true, "subId": "S287315569"}, {"speciesCode": "lotduc", "comName": "Long-tailed Duck", "sciName": "Clangula hyemalis", "locId": "L2057479", "locName": "Montrose Harbor", "obsDt": "2025-12-04 15:45", "howMany": 1, "lat": 41.9614367, "lng": -87.6386046, "obsValid": true, "obsReviewed": false, "locationPrivate": false, "subId": "S287315099"}, {"speciesCode": "rebmer", "comName": "Red-breasted Merganser", "sciName": "Mergus serrator", "locId": "L2057479", "locName": "Montrose Harbor", "obsDt": "2025-12-04 15:45", "howMany": 20, "lat": 41.9614367, "lng": -87.6386046, "obsValid": true, "obsReviewed": false, "locationPrivate": false, "subId": "S287315099"}, {"speciesCode": "comloo", "comName": "Common Loon", "sciName": "Gavia immer", "locId": "L108497", "locName": "Axehead Lake/Chippewa Woods", "obsDt": "2025-12-04 15:45", "howMany": 1, "lat": 42.007636, "lng": -87.8646934, "obsValid": true, "obsReviewed": false, "locationPrivate": false, "subId": "S287318095"}, {"speciesCode": "houfin", "comName": "House Finch", "sciName": "Haemorhous mexicanus", "locId": "L27986881", "locName": "Rogers Park - Hartigan Beach Park", "obsDt": "2025-12-04 15:44", "howMany": 1, "lat": 42.0025805, "lng": -87.6570904, "obsValid": true, "obsReviewed": false, "locationPrivate": true, "subId": "S287311849", "exoticCategory": "N"}, {"speciesCode": "rebwoo", "comName": "Red-bellied Woodpecker", "sciName": "Melanerpes carolinus", "locId": "L105600", "locName": "LaBagh Woods Forest Preserve", "obsDt": "2025-12-04 15:42", "howMany": 2, "lat": 41.9803903, "lng": -87.7412754, "obsValid": true, "obsReviewed": false, "locationPrivate": false, "subId": "S287316976"}, {"speciesCode": "haiwoo", "comName": "Hairy Woodpecker", "sciName": "Leuconotopicus villosus", "locId": "L105600", "locName": "LaBagh Woods Forest Preserve", "obsDt": "2025-12-04 15:42", "howMany": 1, "lat": 41.9803903, "lng": -87.7412754, "obsValid": true, "obsReviewed": false, "locationPrivate": false, "subId": "S287316976"}, {"speciesCode": "brncre", "comName": "Brown Creeper", "sciName": "Certhia americana", "locId": "L105600", "locName": "LaBagh Woods Forest Preserve", "obsDt": "2025-12-04 15:42", "howMany": 1, "lat": 41.9803903, "lng": -87.7412754, "obsValid": true, "obsReviewed": false, "locationPrivate": false, "subId": "S287316976"}, {"speciesCode": "rethaw", "comName": "Red-tailed Hawk", "sciName": "Buteo jamaicensis", "locId": "L343390", "locName": "Caldwell Preserves (Bunker Hill/Yates Flatwoods/Caldwell Woods)", "obsDt": "2025-12-04 15:40", "howMany": 1, "lat": 42.00125, "lng": -87.7851391, "obsValid": true, "obsReviewed": false, "locationPrivate": false, "subId": "S287371838"}, {"speciesCode": "gadwal", "comName": "Gadwall", "sciName": "Mareca strepera", "locId": "L161180", "locName": "Montrose Point Bird Sanctuary, Lincoln Park", "obsDt": "2025-12-04 15:32", "howMany": 1, "lat": 41.9633833, "lng": -87.6344204, "obsValid": true, "obsReviewed": false, "locationPrivate": false, "subId": "S287330041"}, {"speciesCode": "redhea", "comName": "Redhead", "sciName": "Aythya americana", "locId": "L161180", "locName": "Montrose Point Bird Sanctuary, Lincoln Park", "obsDt": "2025-12-04 15:32", "howMany": 1, "lat": 41.9633833, "lng": -87.6344204, "obsValid": true, "obsReviewed": false, "locationPrivate": false, "subId": "S287330041"}, {"speciesCode": "comgol", "comName": "Common Goldeneye", "sciName": "Bucephala clangula", "locId": "L161180", "locName": "Montrose Point Bird Sanctuary, Lincoln Park", "obsDt": "2025-12-04 15:32", "howMany": 5, "lat": 41.9633833, "lng": -87.6344204, "obsValid": true, "obsReviewed": false, "locationPrivate": false, "subId": "S287330041"}, {"speciesCode": "hoomer", "comName": "Hooded Merganser", "sciName": "Lophodytes cucullatus", "locId": "L161180", "locName": "Montrose Point Bird Sanctuary, Lincoln Park", "obsDt": "2025-12-04 15:32", "howMany": 3, "lat": 41.9633833, "lng": -87.6344204, "obsValid": true, "obsReviewed": false, "locationPrivate": false, "subId": "S287330041"}, {"speciesCode": "amhgul1", "comName": "American Herring Gull", "sciName": "Larus smithsonianus", "locId": "L161180", "locName": "Montrose Point Bird Sanctuary, Lincoln Park", "obsDt": "2025-12-04 15:32", "howMany": 4, "lat": 41.9633833, "lng": -87.6344204, "obsValid": true, "obsReviewed": false, "locationPrivate": false, "subId": "S287330041"}, {"speciesCode": "horgre", "comName": "Horned Grebe", "sciName": "Podiceps auritus", "locId": "L161180", "locName": "Montrose Point Bird Sanctuary, Lincoln Park", "obsDt": "2025-12-04 15:32", "howMany": 1, "lat": 41.9633833, "lng": -87.6344204, "obsValid": true, "obsReviewed": false, "locationPrivate": false, "subId": "S287330041"}, {"speciesCode": "amecro", "comName": "American Crow", "sciName": "Corvus brachyrhynchos", "locId": "L161180", "locName": "Montrose Point Bird Sanctuary, Lincoln Park", "obsDt": "2025-12-04 15:32", "howMany": 2, "lat": 41.9633833, "lng": -87.6344204, "obsValid": true, "obsReviewed": false, "locationPrivate": false, "subId": "S287330041"}, {"speciesCode": "bkcchi", "comName": "Black-capped Chickadee", "sciName": "Poecile atricapillus", "locId": "L161180", "locName": "Montrose Point Bird Sanctuary, Lincoln Park", "obsDt": "2025-12-04 15:32", "howMany": 1, "lat": 41.9633833, "lng": -87.6344204, "obsValid": true, "obsReviewed": false, "locationPrivate": false, "subId": "S287330041"}, {"speciesCode": "horlar", "comName": "Horned Lark", "sciName": "Eremophila alpestris", "locId": "L161180", "locName": "Montrose Point Bird Sanctuary, Lincoln Park", "obsDt": "2025-12-04 15:32", "howMany": 1, "lat": 41.9633833, "lng": -87.6344204, "obsValid": true, "obsReviewed": false, "locationPrivate": false, "subId": "S287330041"}, {"speciesCode": "norhar2", "comName": "Northern Harrier", "sciName": "Circus hudsonius", "locId": "L224192", "locName": "Killdeer (Tinley Creek) Wetlands", "obsDt": "2025-12-04 15:30", "howMany": 1, "lat": 41.5439, "lng": -87.7545, "obsValid": true, "obsReviewed": false, "locationPrivate": false, "subId": "S287321644"}, {"speciesCode": "sheowl", "comName": "Short-eared Owl", "sciName": "Asio flammeus", "locId": "L224192", "locName": "Killdeer (Tinley Creek) Wetlands", "obsDt": "2025-12-04 15:30", "howMany": 2, "lat": 41.5439, "lng": -87.7545, "obsValid": true, "obsReviewed": false, "locationPrivate": false, "subId": "S287321644"}, {"speciesCode": "merlin", "comName": "Merlin", "sciName": "Falco columbarius", "locId": "L152668", "locName": "Linne Woods Forest Preserve", "obsDt": "2025-12-04 15:23", "howMany": 1, "lat": 42.0454, "lng": -87.7844, "obsValid": true, "obsReviewed": false, "locationPrivate": false, "subId": "S289003424"}, {"speciesCode": "amegfi", "comName": "American Goldfinch", "sciName": "Spinus tristis", "locId": "L152668", "locName": "Linne Woods Forest Preserve", "obsDt": "2025-12-04 15:23", "howMany": 2, "lat": 42.0454, "lng": -87.7844, "obsValid": true, "obsReviewed": false, "locationPrivate": false, "subId": "S289003424"}, {"speciesCode": "y00475", "comName": "American Coot", "sciName": "Fulica americana", "locId": "L294426", "locName": "Northerly Island", "obsDt": "2025-12-04 15:02", "howMany": 2, "lat": 41.8596139, "lng": -87.6085684, "obsValid": true, "obsReviewed": false, "locationPrivate": false, "subId": "S287311273"}, {"speciesCode": "amekes", "comName": "American Kestrel", "sciName": "Falco sparverius", "locId": "L55718516", "locName": "94th Ave, Tinley Park", "obsDt": "2025-12-04 14:58", "howMany": 1, "lat": 41.562253, "lng": -87.846544, "obsValid": true, "obsReviewed": false, "locationPrivate": true, "subId": "S287328961"}, {"speciesCode": "easblu", "comName": "Eastern Bluebird", "sciName": "Sialia sialis", "locId": "L4090719", "locName": "Arie Crown Forest Preserve", "obsDt": "2025-12-04 14:44", "howMany": 1, "lat": 41.7685428, "lng": -87.873691, "obsValid": true, "obsReviewed": false, "locationPrivate": false, "subId": "S287304744"}, {"speciesCode": "whcspa", "comName": "White-crowned Sparrow", "sciName": "Zonotrichia leucophrys", "locId": "L4090719", "locName": "Arie Crown Forest Preserve", "obsDt": "2025-12-04 14:44", "howMany": 3, "lat": 41.7685428, "lng": -87.873691, "obsValid": true, "obsReviewed": false, "locationPrivate": false, "subId": "S287304744"}, {"speciesCode": "baleag", "comName": "Bald Eagle", "sciName": "Haliaeetus leucocephalus", "locId": "L44892233", "locName": "Home", "obsDt": "2025-12-04 14:30", "howMany": 1, "lat": 41.75947, "lng": -87.897173, "obsValid": true, "obsReviewed": false, "locationPrivate": true, "subId": "S287303140"}, {"speciesCode": "blujay", "comName": "Blue Jay", "sciName": "Cyanocitta cristata", "locId": "L44892233", "locName": "Home", "obsDt": "2025-12-04 14:30", "howMany": 1, "lat": 41.75947, "lng": -87.897173, "obsValid": true, "obsReviewed": false, "locationPrivate": true, "subId": "S287303140"}, {"speciesCode": "perfal", "comName": "Peregrine Falcon", "sciName": "Falco peregrinus", "locId": "L12151621", "locName": "Bedford Park", "obsDt": "2025-12-04 14:27", "howMany": 1, "lat": 41.7592554, "lng": -87.7674531, "obsValid": true, "obsReviewed": false, "locationPrivate": true, "subId": "S287302725"}, {"speciesCode": "norfli", "comName": "Northern Flicker", "sciName": "Colaptes auratus", "locId": "L679333", "locName": "Memorial Park Cemetery", "obsDt": "2025-12-04 14:09", "howMany": 2, "lat": 42.0601904, "lng": -87.7402496, "obsValid": true, "obsReviewed": false, "locationPrivate": false, "subId": "S287729447"}, {"speciesCode": "commer", "comName": "Common Merganser", "sciName": "Mergus merganser", "locId": "L161180", "locName": "Montrose Point Bird Sanctuary, Lincoln Park", "obsDt": "2025-12-04 13:50", "howMany": 20, "lat": 41.9633833, "lng": -87.6344204, "obsValid": true, "obsReviewed": false, "locationPrivate": false, "subId": "S287325546"}, {"speciesCode": "rudduc", "comName": "Ruddy Duck", "sciName": "Oxyura jamaicensis", "locId": "L161180", "locName": "Montrose Point Bird Sanctuary, Lincoln Park", "obsDt": "2025-12-04 13:50", "howMany": 1, "lat": 41.9633833, "lng": -87.6344204, "obsValid": true, "obsReviewed": false, "locationPrivate": false, "subId": "S287325546"}, {"speciesCode": "bnhcow", "comName": "Brown-headed Cowbird", "sciName": "Molothrus ater", "locId": "L161180", "locName": "Montrose Point Bird Sanctuary, Lincoln Park", "obsDt": "2025-12-04 13:50", "howMany": 1, "lat": 41.9633833, "lng": -87.6344204, "obsValid": true, "obsReviewed": false, "locationPrivate": false, "subId": "S287325546"}, {"speciesCode": "buffle", "comName": "Bufflehead", "sciName": "Bucephala albeola", "locId": "L1057281", "locName": "Chicago River--Diversey Turning Basin", "obsDt": "2025-12-04 13:42", "howMany": 4, "lat": 41.931337, "lng": -87.6815844, "obsValid": true, "obsReviewed": false, "locationPrivate": false, "subId": "S287299295"}, {"speciesCode": "sonspa", "comName": "Song Sparrow", "sciName": "Melospiza melodia", "locId": "L1057281", "locName": "Chicago River--Diversey Turning Basin", "obsDt": "2025-12-04 13:42", "howMany": 1, "lat": 41.931337, "lng": -87.6815844, "obsValid": true, "obsReviewed": false, "locationPrivate": false, "subId": "S287299295"}, {"speciesCode": "snobun", "comName": "Snow Bunting", "sciName": "Plectrophenax nivalis", "locId": "L224192", "locName": "Killdeer (Tinley Creek) Wetlands", "obsDt": "2025-12-04 13:37", "howMany": 2, "lat": 41.5439, "lng": -87.7545, "obsValid": true, "obsReviewed": false, "locationPrivate": false, "subId": "S287299257"}, {"speciesCode": "grbher3", "comName": "Great Blue Heron", "sciName": "Ardea herodias", "locId": "L7959717", "locName": "Riverbank Neighbors Park", "obsDt": "2025-12-04 13:28", "howMany": 1, "lat": 41.9586105, "lng": -87.6941299, "obsValid": true, "obsReviewed": false, "locationPrivate": false, "subId": "S287301084"}, {"speciesCode": "belkin1", "comName": "Belted Kingfisher", "sciName": "Megaceryle alcyon", "locId": "L7959717", "locName": "Riverbank Neighbors Park", "obsDt": "2025-12-04 13:28", "howMany": 1, "lat": 41.9586105, "lng": -87.6941299, "obsValid": true, "obsReviewed": false, "locationPrivate": false, "subId": "S287301084"}, {"speciesCode": "truswa", "comName": "Trumpeter Swan", "sciName": "Cygnus buccinator", "locId": "L6685513", "locName": "Centennial Trail--East of I-355 (Cook Co.)", "obsDt": "2025-12-04 12:37", "howMany": 16, "lat": 41.6809958, "lng": -88.0026126, "obsValid": true, "obsReviewed": true, "locationPrivate": false, "subId": "S287615896"}, {"speciesCode": "orcwar", "comName": "Orange-crowned Warbler", "sciName": "Leiothlypis celata", "locId": "L161180", "locName": "Montrose Point Bird Sanctuary, Lincoln Park", "obsDt": "2025-12-04 12:17", "howMany": 1, "lat": 41.9633833, "lng": -87.6344204, "obsValid": true, "obsReviewed": true, "locationPrivate": false, "subId": "S287306229"}, {"speciesCode": "cacgoo1", "comName": "Cackling Goose", "sciName": "Branta hutchinsii", "locId": "L837977", "locName": "Lake Calumet area--O'Brien Lock & Dam/CID Landfills", "obsDt": "2025-12-04 12:13", "howMany": 2, "lat": 41.6526975, "lng": -87.570734, "obsValid": true, "obsReviewed": false, "locationPrivate": false, "subId": "S287298667"}, {"speciesCode": "ambduc", "comName": "American Black Duck", "sciName": "Anas rubripes", "locId": "L837977", "locName": "Lake Calumet area--O'Brien Lock & Dam/CID Landfills", "obsDt": "2025-12-04 12:13", "howMany": 2, "lat": 41.6526975, "lng": -87.570734, "obsValid": true, "obsReviewed": false, "locationPrivate": false, "subId": "S287298667"}, {"speciesCode": "canvas", "comName": "Canvasback", "sciName": "Aythya valisineria", "locId": "L837977", "locName": "Lake Calumet area--O'Brien Lock & Dam/CID Landfills", "obsDt": "2025-12-04 12:13", "howMany": 1, "lat": 41.6526975, "lng": -87.570734, "obsValid": true, "obsReviewed": false, "locationPrivate": false, "subId": "S287298667"}, {"speciesCode": "rinduc", "comName": "Ring-necked Duck", "sciName": "Aythya collaris", "locId": "L837977", "locName": "Lake Calumet area--O'Brien Lock & Dam/CID Landfills", "obsDt": "2025-12-04 12:13", "howMany": 1, "lat": 41.6526975, "lng": -87.570734, "obsValid": true, "obsReviewed": false, "locationPrivate": false, "subId": "S287298667"}, {"speciesCode": "rolhaw", "comName": "Rough-legged Hawk", "sciName": "Buteo lagopus", "locId": "L837977", "locName": "Lake Calumet area--O'Brien Lock & Dam/CID Landfills", "obsDt": "2025-12-04 12:13", "howMany": 1, "lat": 41.6526975, "lng": -87.570734, "obsValid": true, "obsReviewed": false, "locationPrivate": false, "subId": "S287298667"}, {"speciesCode": "gnwtea", "comName": "Green-winged Teal", "sciName": "Anas crecca", "locId": "L1573785", "locName": "Lincoln Park Zoo", "obsDt": "2025-12-04 12:03", "howMany": 1, "lat": 41.9207287, "lng": -87.6327196, "obsValid": true, "obsReviewed": false, "locationPrivate": false, "subId": "S287374829"}, {"speciesCode": "rebnut", "comName": "Red-breasted Nuthatch", "sciName": "Sitta canadensis", "locId": "L55709154", "locName": "Cullom Front Feeder", "obsDt": "2025-12-04 11:30", "howMany": 1, "lat": 41.959657, "lng": -87.693524, "obsValid": true, "obsReviewed": false, "locationPrivate": true, "subId": "S287286752"}, {"speciesCode": "pinsis", "comName": "Pine Siskin", "sciName": "Spinus pinus", "locId": "L5814695", "locName": "Asbury", "obsDt": "2025-12-04 11:13", "howMany": 1, "lat": 42.0668493, "lng": -87.6890107, "obsValid": true, "obsReviewed": false, "locationPrivate": true, "subId": "S287382516"}, {"speciesCode": "comgra", "comName": "Common Grackle", "sciName": "Quiscalus quiscula", "locId": "L5814695", "locName": "Asbury", "obsDt": "2025-12-04 11:13", "howMany": 1, "lat": 42.0668493, "lng": -87.6890107, "obsValid": true, "obsReviewed": false, "locationPrivate": true, "subId": "S287382516"}, {"speciesCode": "cedwax", "comName": "Cedar Waxwing", "sciName": "Bombycilla cedrorum", "locId": "L55709495", "locName": "Illinois 58, Elgin, Illinois, US (42.047, -88.165)", "obsDt": "2025-12-04 11:12", "howMany": 1, "lat": 42.047175, "lng": -88.1650177, "obsValid": true, "obsReviewed": false, "locationPrivate": true, "subId": "S287285349"}, {"speciesCode": "sumtan", "comName": "Summer Tanager", "sciName": "Piranga rubra", "locId": "L8317018", "locName": "Home Brookfield US-IL (41.8300,-87.8372)", "obsDt": "2025-12-04 11:00", "howMany": 1, "lat": 41.829981, "lng": -87.837181, "obsValid": true, "obsReviewed": true, "locationPrivate": true, "subId": "S287291347"}, {"speciesCode": "mutswa", "comName": "Mute Swan", "sciName": "Cygnus olor", "locId": "L152739", "locName": "Wolf Lake/William Powers SRA", "obsDt": "2025-12-04 10:50", "howMany": 7, "lat": 41.6657309, "lng": -87.5301361, "obsValid": true, "obsReviewed": false, "locationPrivate": false, "subId": "S287297886", "exoticCategory": "N"}, {"speciesCode": "lessca", "comName": "Lesser Scaup", "sciName": "Aythya affinis", "locId": "L152739", "locName": "Wolf Lake/William Powers SRA", "obsDt": "2025-12-04 10:50", "howMany": 1, "lat": 41.6657309, "lng": -87.5301361, "obsValid": true, "obsReviewed": false, "locationPrivate": false, "subId": "S287297886"}, {"speciesCode": "pibgre", "comName": "Pied-billed Grebe", "sciName": "Podilymbus podiceps", "locId": "L152739", "locName": "Wolf Lake/William Powers SRA", "obsDt": "2025-12-04 10:50", "howMany": 1, "lat": 41.6657309, "lng": -87.5301361, "obsValid": true, "obsReviewed": false, "locationPrivate": false, "subId": "S287297886"}, {"speciesCode": "swaspa", "comName": "Swamp Sparrow", "sciName": "Melospiza georgiana", "locId": "L152739", "locName": "Wolf Lake/William Powers SRA", "obsDt": "2025-12-04 10:50", "howMany": 1, "lat": 41.6657309, "lng": -87.5301361, "obsValid": true, "obsReviewed": false, "locationPrivate": false, "subId": "S287297886"}, {"speciesCode": "norsho", "comName": "Northern Shoveler", "sciName": "Spatula clypeata", "locId": "L289205", "locName": "Lemont Quarries (Cook Co.)", "obsDt": "2025-12-04 10:44", "howMany": 12, "lat": 41.6822668, "lng": -87.9812559, "obsValid": true, "obsReviewed": false, "locationPrivate": false, "subId": "S288101755"}, {"speciesCode": "amewig", "comName": "American Wigeon", "sciName": "Mareca americana", "locId": "L289205", "locName": "Lemont Quarries (Cook Co.)", "obsDt": "2025-12-04 10:44", "howMany": 4, "lat": 41.6822668, "lng": -87.9812559, "obsValid": true, "obsReviewed": false, "locationPrivate": false, "subId": "S288101755"}, {"speciesCode": "killde", "comName": "Killdeer", "sciName": "Charadrius vociferus", "locId": "L289205", "locName": "Lemont Quarries (Cook Co.)", "obsDt": "2025-12-04 10:44", "howMany": 1, "lat": 41.6822668, "lng": -87.9812559, "obsValid": true, "obsReviewed": false, "locationPrivate": false, "subId": "S288101755"}, {"speciesCode": "carwre", "comName": "Carolina Wren", "sciName": "Thryothorus ludovicianus", "locId": "L289205", "locName": "Lemont Quarries (Cook Co.)", "obsDt": "2025-12-04 10:44", "howMany": 1, "lat": 41.6822668, "lng": -87.9812559, "obsValid": true, "obsReviewed": false, "locationPrivate": false, "subId": "S288101755"}, {"speciesCode": "gbbgul", "comName": "Great Black-backed Gull", "sciName": "Larus marinus", "locId": "L47957311", "locName": "Montrose Harbor", "obsDt": "2025-12-04 10:17", "howMany": 1, "lat": 41.961826, "lng": -87.643826, "obsValid": true, "obsReviewed": false, "locationPrivate": true, "subId": "S287282688"}, {"speciesCode": "savspa", "comName": "Savannah Sparrow", "sciName": "Passerculus sandwichensis", "locId": "L3934103", "locName": "Park No. 566", "obsDt": "2025-12-04 09:10", "howMany": 2, "lat": 41.7487879, "lng": -87.5365198, "obsValid": true, "obsReviewed": false, "locationPrivate": false, "subId": "S287330647"}, {"speciesCode": "amepip", "comName": "American Pipit", "sciName": "Anthus rubescens", "locId": "L161180", "locName": "Montrose Point Bird Sanctuary, Lincoln Park", "obsDt": "2025-12-04 07:57", "howMany": 1, "lat": 41.9633833, "lng": -87.6344204, "obsValid": true, "obsReviewed": false, "locationPrivate": false, "subId": "S287285898"}, {"speciesCode": "eucdov", "comName": "Eurasian Collared-Dove", "sciName": "Streptopelia decaocto", "locId": "L1270961", "locName": "Des Plaines River area, River Grove, IL", "obsDt": "2025-12-04 06:45", "howMany": 21, "lat": 41.9292298, "lng": -87.8438902, "obsValid": true, "obsReviewed": false, "locationPrivate": true, "subId": "S289551377", "exoticCategory": "N"}, {"speciesCode": "herthr", "comName": "Hermit Thrush", "sciName": "Catharus guttatus", "locId": "L877871", "locName": "Avondale 60618", "obsDt": "2025-12-04 01:50", "howMany": 1, "lat": 41.9349127, "lng": -87.7088356, "obsValid": true, "obsReviewed": false, "locationPrivate": true, "subId": "S287314018"}]