[{"speciesCode": "grhowl", "comName": "Great Horned Owl", "sciName": "Bubo virginianus", "locId": "L13607665", "locName": "My Home", "obsDt": "2025-12-06 19:48", "howMany": 1, "lat": 41.5596, "lng": -87.627321, "obsValid": true, "obsReviewed": false, "locationPrivate": true, "subId": "S287589163"}, {"speciesCode": "nswowl", "comName": "Northern Saw-whet Owl", "sciName": "Aegolius acadicus", "locId": "L165597", "locName": "Lincoln Park (general)", "obsDt": "2025-12-06 19:32", "howMany": 1, "lat": 41.92284, "lng": -87.6336, "obsValid": true, "obsReviewed": false, "locationPrivate": false, "subId": "S291010739"}, {"speciesCode": "truswa", "comName": "Trumpeter Swan", "sciName": "Cygnus buccinator", "locId": "L6685513", "locName": "Centennial Trail--East of I-355 (Cook Co.)", "obsDt": "2025-12-06 16:33", "howMany": 8, "lat": 41.6809958, "lng": -88.0026126, "obsValid": true, "obsReviewed": false, "locationPrivate": false, "subId": "S287573291"}, {"speciesCode": "moudov", "comName": "Mourning Dove", "sciName": "Zenaida macroura", "locId": "L6685513", "locName": "Centennial Trail--East of I-355 (Cook Co.)", "obsDt": "2025-12-06 16:33", "howMany": 1, "lat": 41.6809958, "lng": -88.0026126, "obsValid": true, "obsReviewed": false, "locationPrivate": false, "subId": "S287573291"}, {"speciesCode": "amtspa", "comName": "American Tree Sparrow", "sciName": "Spizelloides arborea", "locId": "L6685513", "locName": "Centennial Trail--East of I-355 (Cook Co.)", "obsDt": "2025-12-06 16:33", "howMany": 2, "lat": 41.6809958, "lng": -88.0026126, "obsValid": true, "obsReviewed": false, "locationPrivate": false, "subId": "S287573291"}, {"speciesCode": "daejun", "comName": "Dark-eyed Junco", "sciName": "Junco hyemalis", "locId": "L6685513", "locName": "Centennial Trail--East of I-355 (Cook Co.)", "obsDt": "2025-12-06 16:33", "howMany": 2, "lat": 41.6809958, "lng": -88.0026126, "obsValid": true, "obsReviewed": false, "locationPrivate": false, "subId": "S287573291"}, {"speciesCode": "sancra", "comName": "Sandhill Crane", "sciName": "Antigone canadensis", "locId": "L253843", "locName": "Prairie Stone Office Park, Hoffman Estates", "obsDt": "2025-12-06 16:19", "howMany": 200, "lat": 42.0719345, "lng": -88.2154481, "obsValid": true, "obsReviewed": false, "locationPrivate": false, "subId": "S287569344"}, {"speciesCode": "cangoo", "comName": "Canada Goose", "sciName": "Branta canadensis", "locId": "L224192", "locName": "Killdeer (Tinley Creek) Wetlands", "obsDt": "2025-12-06 16:11", "howMany": 2, "lat": 41.5439, "lng": -87.7545, "obsValid": true, "obsReviewed": false, "locationPrivate": false, "subId": "S287572356"}, {"speciesCode": "rolhaw", "comName": "Rough-legged Hawk", "sciName": "Buteo lagopus", "locId": "L224192", "locName": "Killdeer (Tinley Creek) Wetlands", "obsDt": "2025-12-06 16:11", "howMany": 1, "lat": 41.5439, "lng": -87.7545, "obsValid": true, "obsReviewed": false, "locationPrivate": false, "subId": "S287572356"}, {"speciesCode": "sheowl", "comName": "Short-eared Owl", "sciName": "Asio flammeus", "locId": "L224192", "locName": "Killdeer (Tinley Creek) Wetlands", "obsDt": "2025-12-06 16:11", "howMany": 5, "lat": 41.5439, "lng": -87.7545, "obsValid": true, "obsReviewed": false, "locationPrivate": false, "subId": "S287572356"}, {"speciesCode": "laplon", "comName": "Lapland Longspur", "sciName": "Calcarius lapponicus", "locId": "L224192", "locName": "Killdeer (Tinley Creek) Wetlands", "obsDt": "2025-12-06 16:11", "howMany": 25, "lat": 41.5439, "lng": -87.7545, "obsValid": true, "obsReviewed": false, "locationPrivate": false, "subId": "S287572356"}, {"speciesCode": "lotduc", "comName": "Long-tailed Duck", "sciName": "Clangula hyemalis", "locId": "L161180", "locName": "Montrose Point Bird Sanctuary, Lincoln Park", "obsDt": "2025-12-06 16:10", "howMany": 1, "lat": 41.9633833, "lng": -87.6344204, "obsValid": true, "obsReviewed": false, "locationPrivate": false, "subId": "S290174404"}, {"speciesCode": "comgol", "comName": "Common Goldeneye", "sciName": "Bucephala clangula", "locId": "L161180", "locName": "Montrose Point Bird Sanctuary, Lincoln Park", "obsDt": "2025-12-06 16:10", "howMany": 2, "lat": 41.9633833, "lng": -87.6344204, "obsValid": true, "obsReviewed": false, "locationPrivate": false, "subId": "S290174404"}, {"speciesCode": "hoomer", "comName": "Hooded Merganser", "sciName": "Lophodytes cucullatus", "locId": "L161180", "locName": "Montrose Point Bird Sanctuary, Lincoln Park", "obsDt": "2025-12-06 16:10", "howMany": 2, "lat": 41.9633833, "lng": -87.6344204, "obsValid": true, "obsReviewed": false, "locationPrivate": false, "subId": "S290174404"}, {"speciesCode": "rebmer", "comName": "Red-breasted Merganser", "sciName": "Mergus serrator", "locId": "L161180", "locName": "Montrose Point Bird Sanctuary, Lincoln Park", "obsDt": "2025-12-06 16:10", "howMany": 2, "lat": 41.9633833, "lng": -87.6344204, "obsValid": true, "obsReviewed": false, "locationPrivate": false, "subId": "S290174404"}, {"speciesCode": "horgre", "comName": "Horned Grebe", "sciName": "Podiceps auritus", "locId": "L161180", "locName": "Montrose Point Bird Sanctuary, Lincoln Park", "obsDt": "2025-12-06 16:10", "howMany": 1, "lat": 41.9633833, "lng": -87.6344204, "obsValid": true, "obsReviewed": false, "locationPrivate": false, "subId": "S290174404"}, {"speciesCode": "horlar", "comName": "Horned Lark", "sciName": "Eremophila alpestris", "locId": "L161180", "locName": "Montrose Point Bird Sanctuary, Lincoln Park", "obsDt": "2025-12-06 16:10", "howMany": 1, "lat": 41.9633833, "lng": -87.6344204, "obsValid": true, "obsReviewed": false, "locationPrivate": false, "subId": "S290174404"}, {"speciesCode": "amegfi", "comName": "American Goldfinch", "sciName": "Spinus tristis", "locId": "L161180", "locName": "Montrose Point Bird Sanctuary, Lincoln Park", "obsDt": "2025-12-06 16:10", "howMany": 1, "lat": 41.9633833, "lng": -87.6344204, "obsValid": true, "obsReviewed": false, "locationPrivate": false, "subId": "S290174404"}, {"speciesCode": "rethaw", "comName": "Red-tailed Hawk", "sciName": "Buteo jamaicensis", "locId": "L2187841", "locName": "Centennial Park, Orland Park", "obsDt": "2025-12-06 16:04", "howMany": 1, "lat": 41.6050863, "lng": -87.8657341, "obsValid": true, "obsReviewed": false, "locationPrivate": false, "subId": "S287580128"}, {"speciesCode": "dowwoo", "comName": "Downy Woodpecker", "sciName": "Dryobates pubescens", "locId": "L2187841", "locName": "Centennial Park, Orland Park", "obsDt": "2025-12-06 16:04", "howMany": 1, "lat": 41.6050863, "lng": -87.8657341, "obsValid": true, "obsReviewed": false, "locationPrivate": false, "subId": "S287580128"}, {"speciesCode": "eursta", "comName": "European Starling", "sciName": "Sturnus vulgaris", "locId": "L2187841", "locName": "Centennial Park, Orland Park", "obsDt": "2025-12-06 16:04", "howMany": 4, "lat": 41.6050863, "lng": -87.8657341, "obsValid": true, "obsReviewed": false, "locationPrivate": false, "subId": "S287580128", "exoticCategory": "N"}, {"speciesCode": "amerob", "comName": "American Robin", "sciName": "Turdus migratorius", "locId": "L2187841", "locName": "Centennial Park, Orland Park", "obsDt": "2025-12-06 16:04", "howMany": 18, "lat": 41.6050863, "lng": -87.8657341, "obsValid": true, "obsReviewed": false, "locationPrivate": false, "subId": "S287580128"}, {"speciesCode": "houspa", "comName": "House Sparrow", "sciName": "Passer domesticus", "locId": "L43556495", "locName": "my backyard", "obsDt": "2025-12-06 16:00", "howMany": 5, "lat": 42.0572014, "lng": -87.6891042, "obsValid": true, "obsReviewed": false, "locationPrivate": true, "subId": "S287692436", "exoticCategory": "N"}, {"speciesCode": "norcar", "comName": "Northern Cardinal", "sciName": "Cardinalis cardinalis", "locId": "L5220425", "locName": "Normandy Pl, Evanston, IL", "obsDt": "2025-12-06 16:00", "howMany": 1, "lat": 42.0582826, "lng": -87.7189073, "obsValid": true, "obsReviewed": false, "locationPrivate": true, "subId": "S288304619"}, {"speciesCode": "rocpig", "comName": "Rock Pigeon", "sciName": "Columba livia", "locId": "L27475692", "locName": "Edgewater - Ardmore/Kenmore", "obsDt": "2025-12-06 15:58", "howMany": 13, "lat": 41.9873333, "lng": -87.6567357, "obsValid": true, "obsReviewed": false, "locationPrivate": true, "subId": "S287567412", "exoticCategory": "N"}, {"speciesCode": "bkcchi", "comName": "Black-capped Chickadee", "sciName": "Poecile atricapillus", "locId": "L152623", "locName": "Crabtree Nature Center", "obsDt": "2025-12-06 15:58", "howMany": 1, "lat": 42.114, "lng": -88.161, "obsValid": true, "obsReviewed": false, "locationPrivate": false, "subId": "S287566683"}, {"speciesCode": "whbnut", "comName": "White-breasted Nuthatch", "sciName": "Sitta carolinensis", "locId": "L152623", "locName": "Crabtree Nature Center", "obsDt": "2025-12-06 15:58", "howMany": 1, "lat": 42.114, "lng": -88.161, "obsValid": true, "obsReviewed": false, "locationPrivate": false, "subId": "S287566683"}, {"speciesCode": "houfin", "comName": "House Finch", "sciName": "Haemorhous mexicanus", "locId": "L27475692", "locName": "Edgewater - Ardmore/Kenmore", "obsDt": "2025-12-06 15:58", "howMany": 3, "lat": 41.9873333, "lng": -87.6567357, "obsValid": true, "obsReviewed": false, "locationPrivate": true, "subId": "S287567412", "exoticCategory": "N"}, {"speciesCode": "whtspa", "comName": "White-throated Sparrow", "sciName": "Zonotrichia albicollis", "locId": "L27475692", "locName": "Edgewater - Ardmore/Kenmore", "obsDt": "2025-12-06 15:58", "howMany": 1, "lat": 41.9873333, "lng": -87.6567357, "obsValid": true, "obsReviewed": false, "locationPrivate": true, "subId": "S287567412"}, {"speciesCode": "sonspa", "comName": "Song Sparrow", "sciName": "Melospiza melodia", "locId": "L152623", "locName": "Crabtree Nature Center", "obsDt": "2025-12-06 15:58", "howMany": 1, "lat": 42.114, "lng": -88.161, "obsValid": true, "obsReviewed": false, "locationPrivate": false, "subId": "S287566683"}, {"speciesCode": "swaspa", "comName": "Swamp Sparrow", "sciName": "Melospiza georgiana", "locId": "L152623", "locName": "Crabtree Nature Center", "obsDt": "2025-12-06 15:58", "howMany": 1, "lat": 42.114, "lng": -88.161, "obsValid": true, "obsReviewed": false, "locationPrivate": false, "subId": "S287566683"}, {"speciesCode": "mallar3", "comName": "Mallard", "sciName": "Anas platyrhynchos", "locId": "L265942", "locName": "Jackson Park", "obsDt": "2025-12-06 15:56", "howMany": 3, "lat": 41.781201, "lng": -87.5813341, "obsValid": true, "obsReviewed": false, "locationPrivate": false, "subId": "S289088879"}, {"speciesCode": "amecro", "comName": "American Crow", "sciName": "Corvus brachyrhynchos", "locId": "L265942", "locName": "Jackson Park", "obsDt": "2025-12-06 15:56", "howMany": 1, "lat": 41.781201, "lng": -87.5813341, "obsValid": true, "obsReviewed": false, "locationPrivate": false, "subId": "S289088879"}, {"speciesCode": "easmea", "comName": "Eastern Meadowlark", "sciName": "Sturnella magna", "locId": "L152603", "locName": "Bartel Grassland", "obsDt": "2025-12-06 15:54", "howMany": 1, "lat": 41.5356, "lng": -87.7555, "obsValid": true, "obsReviewed": false, "locationPrivate": false, "subId": "S287571690"}, {"speciesCode": "snogoo", "comName": "Snow Goose", "sciName": "Anser caerulescens", "locId": "L55103134", "locName": "Montrose Harbor", "obsDt": "2025-12-06 15:51", "howMany": 1, "lat": 41.96285, "lng": -87.63708, "obsValid": true, "obsReviewed": false, "locationPrivate": true, "subId": "S287572044"}, {"speciesCode": "rebwoo", "comName": "Red-bellied Woodpecker", "sciName": "Melanerpes carolinus", "locId": "L55752181", "locName": "Illinois 58, Elgin, Illinois, US (42.047, -88.165)", "obsDt": "2025-12-06 15:50", "howMany": 1, "lat": 42.0474388, "lng": -88.1647664, "obsValid": true, "obsReviewed": false, "locationPrivate": true, "subId": "S287583560"}, {"speciesCode": "norsho", "comName": "Northern Shoveler", "sciName": "Spatula clypeata", "locId": "L289205", "locName": "Lemont Quarries (Cook Co.)", "obsDt": "2025-12-06 15:42", "howMany": 18, "lat": 41.6822668, "lng": -87.9812559, "obsValid": true, "obsReviewed": false, "locationPrivate": false, "subId": "S288101563"}, {"speciesCode": "gadwal", "comName": "Gadwall", "sciName": "Mareca strepera", "locId": "L289205", "locName": "Lemont Quarries (Cook Co.)", "obsDt": "2025-12-06 15:42", "howMany": 42, "lat": 41.6822668, "lng": -87.9812559, "obsValid": true, "obsReviewed": false, "locationPrivate": false, "subId": "S288101563"}, {"speciesCode": "ambduc", "comName": "American Black Duck", "sciName": "Anas rubripes", "locId": "L289205", "locName": "Lemont Quarries (Cook Co.)", "obsDt": "2025-12-06 15:42", "howMany": 2, "lat": 41.6822668, "lng": -87.9812559, "obsValid": true, "obsReviewed": false, "locationPrivate": false, "subId": "S288101563"}, {"speciesCode": "gnwtea", "comName": "Green-winged Teal", "sciName": "Anas crecca", "locId": "L289205", "locName": "Lemont Quarries (Cook Co.)", "obsDt": "2025-12-06 15:42", "howMany": 2, "lat": 41.6822668, "lng": -87.9812559, "obsValid": true, "obsReviewed": false, "locationPrivate": false, "subId": "S288101563"}, {"speciesCode": "rinduc", "comName": "Ring-necked Duck", "sciName": "Aythya collaris", "locId": "L289205", "locName": "Lemont Quarries (Cook Co.)", "obsDt": "2025-12-06 15:42", "howMany": 4, "lat": 41.6822668, "lng": -87.9812559, "obsValid": true, "obsReviewed": false, "locationPrivate": false, "subId": "S288101563"}, {"speciesCode": "y00475", "comName": "American Coot", "sciName": "Fulica americana", "locId": "L289205", "locName": "Lemont Quarries (Cook Co.)", "obsDt": "2025-12-06 15:42", "howMany": 1, "lat": 41.6822668, "lng": -87.9812559, "obsValid": true, "obsReviewed": false, "locationPrivate": false, "subId": "S288101563"}, {"speciesCode": "haiwoo", "comName": "Hairy Woodpecker", "sciName": "Leuconotopicus villosus", "locId": "L289205", "locName": "Lemont Quarries (Cook Co.)", "obsDt": "2025-12-06 15:42", "howMany": 1, "lat": 41.6822668, "lng": -87.9812559, "obsValid": true, "obsReviewed": false, "locationPrivate": false, "subId": "S288101563"}, {"speciesCode": "blujay", "comName": "Blue Jay", "sciName": "Cyanocitta cristata", "locId": "L289205", "locName": "Lemont Quarries (Cook Co.)", "obsDt": "2025-12-06 15:42", "howMany": 1, "lat": 41.6822668, "lng": -87.9812559, "obsValid": true, "obsReviewed": false, "locationPrivate": false, "subId": "S288101563"}, {"speciesCode": "grbher3", "comName": "Great Blue Heron", "sciName": "Ardea herodias", "locId": "L55768011", "locName": "S La Grange Rd, Willow Springs US-IL (41.7483,-87.8573)", "obsDt": "2025-12-06 15:38", "howMany": 1, "lat": 41.748269, "lng": -87.857286, "obsValid": true, "obsReviewed": false, "locationPrivate": true, "subId": "S287563924"}, {"speciesCode": "ribgul", "comName": "Ring-billed Gull", "sciName": "Larus delawarensis", "locId": "L813972", "locName": "Montrose Dunes, Lincoln Park", "obsDt": "2025-12-06 15:25", "howMany": 8, "lat": 41.9660701, "lng": -87.633369, "obsValid": true, "obsReviewed": false, "locationPrivate": false, "subId": "S287599808"}, {"speciesCode": "amhgul1", "comName": "American Herring Gull", "sciName": "Larus smithsonianus", "locId": "L813972", "locName": "Montrose Dunes, Lincoln Park", "obsDt": "2025-12-06 15:25", "howMany": 2, "lat": 41.9660701, "lng": -87.633369, "obsValid": true, "obsReviewed": false, "locationPrivate": false, "subId": "S287599808"}, {"speciesCode": "belkin1", "comName": "Belted Kingfisher", "sciName": "Megaceryle alcyon", "locId": "L813972", "locName": "Montrose Dunes, Lincoln Park", "obsDt": "2025-12-06 15:25", "howMany": 1, "lat": 41.9660701, "lng": -87.633369, "obsValid": true, "obsReviewed": false, "locationPrivate": false, "subId": "S287599808"}, {"speciesCode": "amekes", "comName": "American Kestrel", "sciName": "Falco sparverius", "locId": "L813972", "locName": "Montrose Dunes, Lincoln Park", "obsDt": "2025-12-06 15:25", "howMany": 1, "lat": 41.9660701, "lng": -87.633369, "obsValid": true, "obsReviewed": false, "locationPrivate": false, "subId": "S287599808"}, {"speciesCode": "shshaw", "comName": "Sharp-shinned Hawk", "sciName": "Accipiter striatus", "locId": "L152603", "locName": "Bartel Grassland", "obsDt": "2025-12-06 15:15", "howMany": 1, "lat": 41.5356, "lng": -87.7555, "obsValid": true, "obsReviewed": false, "locationPrivate": false, "subId": "S287571023"}, {"speciesCode": "norhar2", "comName": "Northern Harrier", "sciName": "Circus hudsonius", "locId": "L152603", "locName": "Bartel Grassland", "obsDt": "2025-12-06 15:15", "howMany": 1, "lat": 41.5356, "lng": -87.7555, "obsValid": true, "obsReviewed": false, "locationPrivate": false, "subId": "S287571023"}, {"speciesCode": "snobun", "comName": "Snow Bunting", "sciName": "Plectrophenax nivalis", "locId": "L152603", "locName": "Bartel Grassland", "obsDt": "2025-12-06 15:15", "howMany": 1, "lat": 41.5356, "lng": -87.7555, "obsValid": true, "obsReviewed": false, "locationPrivate": false, "subId": "S287571023"}, {"speciesCode": "norfli", "comName": "Northern Flicker", "sciName": "Colaptes auratus", "locId": "L298724", "locName": "Rosehill Cemetery", "obsDt": "2025-12-06 15:14", "howMany": 1, "lat": 41.9859832, "lng": -87.6820028, "obsValid": true, "obsReviewed": false, "locationPrivate": false, "subId": "S287569917"}, {"speciesCode": "bnhcow", "comName": "Brown-headed Cowbird", "sciName": "Molothrus ater", "locId": "L161180", "locName": "Montrose Point Bird Sanctuary, Lincoln Park", "obsDt": "2025-12-06 15:13", "howMany": 1, "lat": 41.9633833, "lng": -87.6344204, "obsValid": true, "obsReviewed": false, "locationPrivate": false, "subId": "S287604628"}, {"speciesCode": "coohaw", "comName": "Cooper's Hawk", "sciName": "Astur cooperii", "locId": "L1024844", "locName": "1617 Executive Lane", "obsDt": "2025-12-06 14:59", "howMany": 1, "lat": 42.0845961, "lng": -87.8455827, "obsValid": true, "obsReviewed": false, "locationPrivate": true, "subId": "S287566828"}, {"speciesCode": "commer", "comName": "Common Merganser", "sciName": "Mergus merganser", "locId": "L108497", "locName": "Axehead Lake/Chippewa Woods", "obsDt": "2025-12-06 14:43", "howMany": 1, "lat": 42.007636, "lng": -87.8646934, "obsValid": true, "obsReviewed": false, "locationPrivate": false, "subId": "S287589709"}, {"speciesCode": "comloo", "comName": "Common Loon", "sciName": "Gavia immer", "locId": "L108497", "locName": "Axehead Lake/Chippewa Woods", "obsDt": "2025-12-06 14:43", "howMany": 1, "lat": 42.007636, "lng": -87.8646934, "obsValid": true, "obsReviewed": false, "locationPrivate": false, "subId": "S287589709"}, {"speciesCode": "yerwar", "comName": "Yellow-rumped Warbler", "sciName": "Setophaga coronata", "locId": "L27474185", "locName": "Lincoln Park Lakefront - Foster Beach Pier", "obsDt": "2025-12-06 14:43", "howMany": 1, "lat": 41.9773439, "lng": -87.6467072, "obsValid": true, "obsReviewed": false, "locationPrivate": true, "subId": "S287560829"}, {"speciesCode": "cedwax", "comName": "Cedar Waxwing", "sciName": "Bombycilla cedrorum", "locId": "L152623", "locName": "Crabtree Nature Center", "obsDt": "2025-12-06 14:40", "howMany": 10, "lat": 42.114, "lng": -88.161, "obsValid": true, "obsReviewed": false, "locationPrivate": false, "subId": "S287565569"}, {"speciesCode": "gbbgul", "comName": "Great Black-backed Gull", "sciName": "Larus marinus", "locId": "L2057479", "locName": "Montrose Harbor", "obsDt": "2025-12-06 14:39", "howMany": 1, "lat": 41.9614367, "lng": -87.6386046, "obsValid": true, "obsReviewed": false, "locationPrivate": false, "subId": "S287566312"}, {"speciesCode": "herthr", "comName": "Hermit Thrush", "sciName": "Catharus guttatus", "locId": "L3921197", "locName": "West Ridge Nature Park", "obsDt": "2025-12-06 14:26", "howMany": 1, "lat": 41.9889067, "lng": -87.6886654, "obsValid": true, "obsReviewed": false, "locationPrivate": false, "subId": "S287561613"}, {"speciesCode": "whwsco2", "comName": "White-winged Scoter", "sciName": "Melanitta deglandi", "locId": "L161180", "locName": "Montrose Point Bird Sanctuary, Lincoln Park", "obsDt": "2025-12-06 14:02", "howMany": 1, "lat": 41.9633833, "lng": -87.6344204, "obsValid": true, "obsReviewed": false, "locationPrivate": false, "subId": "S291010939"}, {"speciesCode": "y00478", "comName": "Iceland Gull", "sciName": "Larus glaucoides", "locId": "L161180", "locName": "Montrose Point Bird Sanctuary, Lincoln Park", "obsDt": "2025-12-06 14:02", "howMany": 1, "lat": 41.9633833, "lng": -87.6344204, "obsValid": true, "obsReviewed": false, "locationPrivate": false, "subId": "S291010939"}, {"speciesCode": "perfal", "comName": "Peregrine Falcon", "sciName": "Falco peregrinus", "locId": "L161180", "locName": "Montrose Point Bird Sanctuary, Lincoln Park", "obsDt": "2025-12-06 13:56", "howMany": 1, "lat": 41.9633833, "lng": -87.6344204, "obsValid": true, "obsReviewed": false, "locationPrivate": false, "subId": "S287559668"}, {"speciesCode": "buffle", "comName": "Bufflehead", "sciName": "Bucephala albeola", "locId": "L55767207", "locName": "Prinz (Tobey) Beach, Chicago US-IL (42.0060,-87.6574)", "obsDt": "2025-12-06 13:45", "howMany": 2, "lat": 42.005968, "lng": -87.6574, "obsValid": true, "obsReviewed": false, "locationPrivate": true, "subId": "S287560043"}, {"speciesCode": "foxspa", "comName": "Fox Sparrow", "sciName": "Passerella iliaca", "locId": "L11472754", "locName": "1135 Ridge Rd, Wilmette, IL", "obsDt": "2025-12-06 13:41", "howMany": 1, "lat": 42.0827774, "lng": -87.7230158, "obsValid": true, "obsReviewed": false, "locationPrivate": true, "subId": "S288121217"}, {"speciesCode": "rebnut", "comName": "Red-breasted Nuthatch", "sciName": "Sitta canadensis", "locId": "L140217", "locName": "RF backyard -E of GAR Wds", "obsDt": "2025-12-06 13:30", "howMany": 1, "lat": 41.8857208, "lng": -87.824707, "obsValid": true, "obsReviewed": false, "locationPrivate": true, "subId": "S287706293"}, {"speciesCode": "redhea", "comName": "Redhead", "sciName": "Aythya americana", "locId": "L152692", "locName": "Northwestern University (Main Campus and Lakefill)", "obsDt": "2025-12-06 13:09", "howMany": 80, "lat": 42.0569, "lng": -87.6711, "obsValid": true, "obsReviewed": false, "locationPrivate": false, "subId": "S287715132"}, {"speciesCode": "gresca", "comName": "Greater Scaup", "sciName": "Aythya marila", "locId": "L152692", "locName": "Northwestern University (Main Campus and Lakefill)", "obsDt": "2025-12-06 13:09", "howMany": 3, "lat": 42.0569, "lng": -87.6711, "obsValid": true, "obsReviewed": false, "locationPrivate": false, "subId": "S287715132"}, {"speciesCode": "reshaw", "comName": "Red-shouldered Hawk", "sciName": "Buteo lineatus", "locId": "L125232", "locName": "Spring Valley Nature Sanctuary", "obsDt": "2025-12-06 12:50", "howMany": 1, "lat": 42.0252918, "lng": -88.0556774, "obsValid": true, "obsReviewed": false, "locationPrivate": false, "subId": "S291092702"}, {"speciesCode": "brncre", "comName": "Brown Creeper", "sciName": "Certhia americana", "locId": "L125232", "locName": "Spring Valley Nature Sanctuary", "obsDt": "2025-12-06 12:50", "howMany": 1, "lat": 42.0252918, "lng": -88.0556774, "obsValid": true, "obsReviewed": false, "locationPrivate": false, "subId": "S291092702"}, {"speciesCode": "killde", "comName": "Killdeer", "sciName": "Charadrius vociferus", "locId": "L161180", "locName": "Montrose Point Bird Sanctuary, Lincoln Park", "obsDt": "2025-12-06 12:02", "howMany": 6, "lat": 41.9633833, "lng": -87.6344204, "obsValid": true, "obsReviewed": false, "locationPrivate": false, "subId": "S287554102"}, {"speciesCode": "merlin", "comName": "Merlin", "sciName": "Falco columbarius", "locId": "L224192", "locName": "Killdeer (Tinley Creek) Wetlands", "obsDt": "2025-12-06 11:55", "howMany": 1, "lat": 41.5439, "lng": -87.7545, "obsValid": true, "obsReviewed": false, "locationPrivate": false, "subId": "S287781679"}, {"speciesCode": "whcspa", "comName": "White-crowned Sparrow", "sciName": "Zonotrichia leucophrys", "locId": "L152740", "locName": "Jackson Park--Wooded Island/Bobolink Meadow area", "obsDt": "2025-12-06 11:54", "howMany": 2, "lat": 41.7857131, "lng": -87.5829649, "obsValid": true, "obsReviewed": false, "locationPrivate": false, "subId": "S287700248"}, {"speciesCode": "grycat", "comName": "Gray Catbird", "sciName": "Dumetella carolinensis", "locId": "L31096500", "locName": "Dunne Park", "obsDt": "2025-12-06 11:51", "howMany": 1, "lat": 41.9901906, "lng": -87.8638297, "obsValid": true, "obsReviewed": true, "locationPrivate": false, "subId": "S287605457"}, {"speciesCode": "mutswa", "comName": "Mute Swan", "sciName": "Cygnus olor", "locId": "L161180", "locName": "Montrose Point Bird Sanctuary, Lincoln Park", "obsDt": "2025-12-06 11:15", "howMany": 1, "lat": 41.9633833, "lng": -87.6344204, "obsValid": true, "obsReviewed": false, "locationPrivate": false, "subId": "S287543519", "exoticCategory": "N"}, {"speciesCode": "x00004", "comName": "Mallard x American Black Duck (hybrid)", "sciName": "Anas platyrhynchos x rubripes", "locId": "L161180", "locName": "Montrose Point Bird Sanctuary, Lincoln Park", "obsDt": "2025-12-06 11:15", "howMany": 1, "lat": 41.9633833, "lng": -87.6344204, "obsValid": true, "obsReviewed": false, "locationPrivate": false, "subId": "S287543519"}, {"speciesCode": "rehwoo", "comName": "Red-headed Woodpecker", "sciName": "Melanerpes erythrocephalus", "locId": "L724602", "locName": "Salt Creek Woods Nature Preserve", "obsDt": "2025-12-06 11:02", "howMany": 2, "lat": 41.8283222, "lng": -87.8887367, "obsValid": true, "obsReviewed": false, "locationPrivate": false, "subId": "S287543569"}, {"speciesCode": "carwre", "comName": "Carolina Wren", "sciName": "Thryothorus ludovicianus", "locId": "L724602", "locName": "Salt Creek Woods Nature Preserve", "obsDt": "2025-12-06 11:02", "howMany": 1, "lat": 41.8283222, "lng": -87.8887367, "obsValid": true, "obsReviewed": false, "locationPrivate": false, "subId": "S287543569"}, {"speciesCode": "lessca", "comName": "Lesser Scaup", "sciName": "Aythya affinis", "locId": "L1803035", "locName": "Jackson Park--Inner/Outer Harbors", "obsDt": "2025-12-06 11:01", "howMany": 1, "lat": 41.7759989, "lng": -87.575183, "obsValid": true, "obsReviewed": false, "locationPrivate": false, "subId": "S287531936"}, {"speciesCode": "yebsap", "comName": "Yellow-bellied Sapsucker", "sciName": "Sphyrapicus varius", "locId": "L371433", "locName": "River Trail Nature Center", "obsDt": "2025-12-06 10:55", "howMany": 1, "lat": 42.0951654, "lng": -87.8820419, "obsValid": true, "obsReviewed": false, "locationPrivate": false, "subId": "S287536324"}, {"speciesCode": "ruckin", "comName": "Ruby-crowned Kinglet", "sciName": "Corthylio calendula", "locId": "L371433", "locName": "River Trail Nature Center", "obsDt": "2025-12-06 10:55", "howMany": 2, "lat": 42.0951654, "lng": -87.8820419, "obsValid": true, "obsReviewed": false, "locationPrivate": false, "subId": "S287536324"}, {"speciesCode": "gockin", "comName": "Golden-crowned Kinglet", "sciName": "Regulus satrapa", "locId": "L371433", "locName": "River Trail Nature Center", "obsDt": "2025-12-06 10:55", "howMany": 6, "lat": 42.0951654, "lng": -87.8820419, "obsValid": true, "obsReviewed": false, "locationPrivate": false, "subId": "S287536324"}, {"speciesCode": "baleag", "comName": "Bald Eagle", "sciName": "Haliaeetus leucocephalus", "locId": "L289205", "locName": "Lemont Quarries (Cook Co.)", "obsDt": "2025-12-06 10:51", "howMany": 1, "lat": 41.6822668, "lng": -87.9812559, "obsValid": true, "obsReviewed": false, "locationPrivate": false, "subId": "S287529156"}, {"speciesCode": "pilwoo", "comName": "Pileated Woodpecker", "sciName": "Dryocopus pileatus", "locId": "L289205", "locName": "Lemont Quarries (Cook Co.)", "obsDt": "2025-12-06 10:51", "howMany": 1, "lat": 41.6822668, "lng": -87.9812559, "obsValid": true, "obsReviewed": false, "locationPrivate": false, "subId": "S287529156"}, {"speciesCode": "easblu", "comName": "Eastern Bluebird", "sciName": "Sialia sialis", "locId": "L289205", "locName": "Lemont Quarries (Cook Co.)", "obsDt": "2025-12-06 10:51", "howMany": 1, "lat": 41.6822668, "lng": -87.9812559, "obsValid": true, "obsReviewed": false, "locationPrivate": false, "subId": "S287529156"}, {"speciesCode": "redpol1", "comName": "Redpoll", "sciName": "Acanthis flammea", "locId": "L289205", "locName": "Lemont Quarries (Cook Co.)", "obsDt": "2025-12-06 10:51", "howMany": 1, "lat": 41.6822668, "lng": -87.9812559, "obsValid": true, "obsReviewed": false, "locationPrivate": false, "subId": "S287529156"}, {"speciesCode": "tuftit", "comName": "Tufted Titmouse", "sciName": "Baeolophus bicolor", "locId": "L152615", "locName": "Sagawau Environmental Learning Center", "obsDt": "2025-12-06 10:40", "howMany": 1, "lat": 41.6898, "lng": -87.9207, "obsValid": true, "obsReviewed": false, "locationPrivate": false, "subId": "S287527648"}, {"speciesCode": "rewbla", "comName": "Red-winged Blackbird", "sciName": "Agelaius phoeniceus", "locId": "L152615", "locName": "Sagawau Environmental Learning Center", "obsDt": "2025-12-06 10:40", "howMany": 17, "lat": 41.6898, "lng": -87.9207, "obsValid": true, "obsReviewed": false, "locationPrivate": false, "subId": "S287527648"}, {"speciesCode": "comgra", "comName": "Common Grackle", "sciName": "Quiscalus quiscula", "locId": "L152615", "locName": "Sagawau Environmental Learning Center", "obsDt": "2025-12-06 10:40", "howMany": 1, "lat": 41.6898, "lng": -87.9207, "obsValid": true, "obsReviewed": false, "locationPrivate": false, "subId": "S287527648"}, {"speciesCode": "winwre3", "comName": "Winter Wren", "sciName": "Troglodytes hiemalis", "locId": "L5147656", "locName": "National Grove Woods/McCormick Woods", "obsDt": "2025-12-06 09:32", "howMany": 1, "lat": 41.8396122, "lng": -87.8284214, "obsValid": true, "obsReviewed": false, "locationPrivate": false, "subId": "S287644846"}, {"speciesCode": "norpin", "comName": "Northern Pintail", "sciName": "Anas acuta", "locId": "L289205", "locName": "Lemont Quarries (Cook Co.)", "obsDt": "2025-12-06 09:28", "howMany": 2, "lat": 41.6822668, "lng": -87.9812559, "obsValid": true, "obsReviewed": false, "locationPrivate": false, "subId": "S289017020"}, {"speciesCode": "amepip", "comName": "American Pipit", "sciName": "Anthus rubescens", "locId": "L289205", "locName": "Lemont Quarries (Cook Co.)", "obsDt": "2025-12-06 09:28", "howMany": 1, "lat": 41.6822668, "lng": -87.9812559, "obsValid": true, "obsReviewed": false, "locationPrivate": false, "subId": "S289017020"}, {"speciesCode": "canvas", "comName": "Canvasback", "sciName": "Aythya valisineria", "locId": "L1803035", "locName": "Jackson Park--Inner/Outer Harbors", "obsDt": "2025-12-06 08:40", "howMany": 2, "lat": 41.7759989, "lng": -87.575183, "obsValid": true, "obsReviewed": false, "locationPrivate": false, "subId": "S287681600"}, {"speciesCode": "pinsis", "comName": "Pine Siskin", "sciName": "Spinus pinus", "locId": "L679333", "locName": "Memorial Park Cemetery", "obsDt": "2025-12-06 08:25", "howMany": 20, "lat": 42.0601904, "lng": -87.7402496, "obsValid": true, "obsReviewed": false, "locationPrivate": false, "subId": "S287516151"}, {"speciesCode": "doccor", "comName": "Double-crested Cormorant", "sciName": "Nannopterum auritum", "locId": "L3934103", "locName": "Park No. 566", "obsDt": "2025-12-06 07:46", "howMany": 1, "lat": 41.7487879, "lng": -87.5365198, "obsValid": true, "obsReviewed": false, "locationPrivate": false, "subId": "S287509931"}, {"speciesCode": "sumtan", "comName": "Summer Tanager", "sciName": "Piranga rubra", "locId": "L8317018", "locName": "Home Brookfield US-IL (41.8300,-87.8372)", "obsDt": "2025-12-06 07:45", "howMany": 1, "lat": 41.829981, "lng": -87.837181, "obsValid": true, "obsReviewed": true, "locationPrivate": true, "subId": "S287500374"}]