[{"speciesCode": "cangoo", "comName": "Canada Goose", "sciName": "Branta canadensis", "locId": "L679066", "locName": "West Branch Forest Preserve", "obsDt": "2025-12-18 16:28", "howMany": 31, "lat": 41.9326501, "lng": -88.1819773, "obsValid": true, "obsReviewed": false, "locationPrivate": false, "subId": "S289121812"}, {"speciesCode": "truswa", "comName": "Trumpeter Swan", "sciName": "Cygnus buccinator", "locId": "L679066", "locName": "West Branch Forest Preserve", "obsDt": "2025-12-18 16:28", "howMany": 1, "lat": 41.9326501, "lng": -88.1819773, "obsValid": true, "obsReviewed": false, "locationPrivate": false, "subId": "S289121812"}, {"speciesCode": "mallar3", "comName": "Mallard", "sciName": "Anas platyrhynchos", "locId": "L679066", "locName": "West Branch Forest Preserve", "obsDt": "2025-12-18 16:28", "howMany": 42, "lat": 41.9326501, "lng": -88.1819773, "obsValid": true, "obsReviewed": false, "locationPrivate": false, "subId": "S289121812"}, {"speciesCode": "comgol", "comName": "Common Goldeneye", "sciName": "Bucephala clangula", "locId": "L679066", "locName": "West Branch Forest Preserve", "obsDt": "2025-12-18 16:28", "howMany": 2, "lat": 41.9326501, "lng": -88.1819773, "obsValid": true, "obsReviewed": false, "locationPrivate": false, "subId": "S289121812"}, {"speciesCode": "hoomer", "comName": "Hooded Merganser", "sciName": "Lophodytes cucullatus", "locId": "L679066", "locName": "West Branch Forest Preserve", "obsDt": "2025-12-18 16:28", "howMany": 2, "lat": 41.9326501, "lng": -88.1819773, "obsValid": true, "obsReviewed": false, "locationPrivate": false, "subId": "S289121812"}, {"speciesCode": "belkin1", "comName": "Belted Kingfisher", "sciName": "Megaceryle alcyon", "locId": "L679066", "locName": "West Branch Forest Preserve", "obsDt": "2025-12-18 16:28", "howMany": 1, "lat": 41.9326501, "lng": -88.1819773, "obsValid": true, "obsReviewed": false, "locationPrivate": false, "subId": "S289121812"}, {"speciesCode": "houspa", "comName": "House Sparrow", "sciName": "Passer domesticus", "locId": "L22081537", "locName": "494 W Elm Park Ave, Elmhurst US-IL KITCHEN 41.89377, -87.95813", "obsDt": "2025-12-18 15:20", "howMany": 17, "lat": 41.893766, "lng": -87.958129, "obsValid": true, "obsReviewed": false, "locationPrivate": true, "subId": "S289116652", "exoticCategory": "N"}, {"speciesCode": "daejun", "comName": "Dark-eyed Junco", "sciName": "Junco hyemalis", "locId": "L22081537", "locName": "494 W Elm Park Ave, Elmhurst US-IL KITCHEN 41.89377, -87.95813", "obsDt": "2025-12-18 15:20", "howMany": 2, "lat": 41.893766, "lng": -87.958129, "obsValid": true, "obsReviewed": false, "locationPrivate": true, "subId": "S289116652"}, {"speciesCode": "eursta", "comName": "European Starling", "sciName": "Sturnus vulgaris", "locId": "L8908712", "locName": "Timber Ridge Forest Preserve--Timber Lake", "obsDt": "2025-12-18 13:08", "howMany": 300, "lat": 41.891619, "lng": -88.152726, "obsValid": true, "obsReviewed": false, "locationPrivate": false, "subId": "S289107974", "exoticCategory": "N"}, {"speciesCode": "houfin", "comName": "House Finch", "sciName": "Haemorhous mexicanus", "locId": "L947202", "locName": "60137-My House", "obsDt": "2025-12-18 12:34", "howMany": 2, "lat": 41.8677192, "lng": -88.0621737, "obsValid": true, "obsReviewed": false, "locationPrivate": true, "subId": "S289099332", "exoticCategory": "N"}, {"speciesCode": "norcar", "comName": "Northern Cardinal", "sciName": "Cardinalis cardinalis", "locId": "L947202", "locName": "60137-My House", "obsDt": "2025-12-18 12:34", "howMany": 2, "lat": 41.8677192, "lng": -88.0621737, "obsValid": true, "obsReviewed": false, "locationPrivate": true, "subId": "S289099332"}, {"speciesCode": "moudov", "comName": "Mourning Dove", "sciName": "Zenaida macroura", "locId": "L7366966", "locName": "Fox Hollow Subdivision Park and Pond", "obsDt": "2025-12-18 12:25", "howMany": 2, "lat": 41.8434941, "lng": -88.2054734, "obsValid": true, "obsReviewed": false, "locationPrivate": false, "subId": "S289096539"}, {"speciesCode": "coohaw", "comName": "Cooper's Hawk", "sciName": "Astur cooperii", "locId": "L7366966", "locName": "Fox Hollow Subdivision Park and Pond", "obsDt": "2025-12-18 12:25", "howMany": 1, "lat": 41.8434941, "lng": -88.2054734, "obsValid": true, "obsReviewed": false, "locationPrivate": false, "subId": "S289096539"}, {"speciesCode": "rebwoo", "comName": "Red-bellied Woodpecker", "sciName": "Melanerpes carolinus", "locId": "L7366966", "locName": "Fox Hollow Subdivision Park and Pond", "obsDt": "2025-12-18 12:25", "howMany": 1, "lat": 41.8434941, "lng": -88.2054734, "obsValid": true, "obsReviewed": false, "locationPrivate": false, "subId": "S289096539"}, {"speciesCode": "dowwoo", "comName": "Downy Woodpecker", "sciName": "Dryobates pubescens", "locId": "L7366966", "locName": "Fox Hollow Subdivision Park and Pond", "obsDt": "2025-12-18 12:25", "howMany": 1, "lat": 41.8434941, "lng": -88.2054734, "obsValid": true, "obsReviewed": false, "locationPrivate": false, "subId": "S289096539"}, {"speciesCode": "bkcchi", "comName": "Black-capped Chickadee", "sciName": "Poecile atricapillus", "locId": "L12491869", "locName": "West Chicago US-IL 41.87174, -88.22096 (private property)", "obsDt": "2025-12-18 12:21", "howMany": 1, "lat": 41.871744, "lng": -88.220958, "obsValid": true, "obsReviewed": false, "locationPrivate": true, "subId": "S289129735"}, {"speciesCode": "gockin", "comName": "Golden-crowned Kinglet", "sciName": "Regulus satrapa", "locId": "L12491869", "locName": "West Chicago US-IL 41.87174, -88.22096 (private property)", "obsDt": "2025-12-18 12:21", "howMany": 1, "lat": 41.871744, "lng": -88.220958, "obsValid": true, "obsReviewed": false, "locationPrivate": true, "subId": "S289129735"}, {"speciesCode": "brncre", "comName": "Brown Creeper", "sciName": "Certhia americana", "locId": "L12491869", "locName": "West Chicago US-IL 41.87174, -88.22096 (private property)", "obsDt": "2025-12-18 12:21", "howMany": 1, "lat": 41.871744, "lng": -88.220958, "obsValid": true, "obsReviewed": false, "locationPrivate": true, "subId": "S289129735"}, {"speciesCode": "amtspa", "comName": "American Tree Sparrow", "sciName": "Spizelloides arborea", "locId": "L12491869", "locName": "West Chicago US-IL 41.87174, -88.22096 (private property)", "obsDt": "2025-12-18 12:21", "howMany": 2, "lat": 41.871744, "lng": -88.220958, "obsValid": true, "obsReviewed": false, "locationPrivate": true, "subId": "S289129735"}, {"speciesCode": "whtspa", "comName": "White-throated Sparrow", "sciName": "Zonotrichia albicollis", "locId": "L12491869", "locName": "West Chicago US-IL 41.87174, -88.22096 (private property)", "obsDt": "2025-12-18 12:21", "howMany": 1, "lat": 41.871744, "lng": -88.220958, "obsValid": true, "obsReviewed": false, "locationPrivate": true, "subId": "S289129735"}, {"speciesCode": "haiwoo", "comName": "Hairy Woodpecker", "sciName": "Leuconotopicus villosus", "locId": "L723907", "locName": "Lincoln Marsh Natural Area, Wheaton", "obsDt": "2025-12-18 12:20", "howMany": 1, "lat": 41.8733157, "lng": -88.1257474, "obsValid": true, "obsReviewed": false, "locationPrivate": false, "subId": "S289098967"}, {"speciesCode": "amerob", "comName": "American Robin", "sciName": "Turdus migratorius", "locId": "L723907", "locName": "Lincoln Marsh Natural Area, Wheaton", "obsDt": "2025-12-18 12:20", "howMany": 10, "lat": 41.8733157, "lng": -88.1257474, "obsValid": true, "obsReviewed": false, "locationPrivate": false, "subId": "S289098967"}, {"speciesCode": "grbher3", "comName": "Great Blue Heron", "sciName": "Ardea herodias", "locId": "L3397380", "locName": "Riverwalk, Naperville", "obsDt": "2025-12-18 12:19", "howMany": 1, "lat": 41.7714397, "lng": -88.1520224, "obsValid": true, "obsReviewed": false, "locationPrivate": false, "subId": "S289119468"}, {"speciesCode": "rethaw", "comName": "Red-tailed Hawk", "sciName": "Buteo jamaicensis", "locId": "L3397380", "locName": "Riverwalk, Naperville", "obsDt": "2025-12-18 12:19", "howMany": 1, "lat": 41.7714397, "lng": -88.1520224, "obsValid": true, "obsReviewed": false, "locationPrivate": false, "subId": "S289119468"}, {"speciesCode": "whbnut", "comName": "White-breasted Nuthatch", "sciName": "Sitta carolinensis", "locId": "L22081537", "locName": "494 W Elm Park Ave, Elmhurst US-IL KITCHEN 41.89377, -87.95813", "obsDt": "2025-12-18 12:18", "howMany": 1, "lat": 41.893766, "lng": -87.958129, "obsValid": true, "obsReviewed": false, "locationPrivate": true, "subId": "S289098234"}, {"speciesCode": "rocpig", "comName": "Rock Pigeon", "sciName": "Columba livia", "locId": "L4278494", "locName": "Between (After St. Charles Rd., IL53) and (Illinois Prairie Path/IL53), IL53/I355", "obsDt": "2025-12-18 11:54", "howMany": 8, "lat": 41.8838283, "lng": -88.033855, "obsValid": true, "obsReviewed": false, "locationPrivate": true, "subId": "S289107913", "exoticCategory": "N"}, {"speciesCode": "winwre3", "comName": "Winter Wren", "sciName": "Troglodytes hiemalis", "locId": "L1565054", "locName": "Des Plaines Riverway Forest Preserve", "obsDt": "2025-12-18 11:45", "howMany": 1, "lat": 41.7101139, "lng": -87.9322374, "obsValid": true, "obsReviewed": false, "locationPrivate": true, "subId": "S289094682"}, {"speciesCode": "sonspa", "comName": "Song Sparrow", "sciName": "Melospiza melodia", "locId": "L1565054", "locName": "Des Plaines Riverway Forest Preserve", "obsDt": "2025-12-18 11:45", "howMany": 1, "lat": 41.7101139, "lng": -87.9322374, "obsValid": true, "obsReviewed": false, "locationPrivate": true, "subId": "S289094682"}, {"speciesCode": "swaspa", "comName": "Swamp Sparrow", "sciName": "Melospiza georgiana", "locId": "L1565054", "locName": "Des Plaines Riverway Forest Preserve", "obsDt": "2025-12-18 11:45", "howMany": 1, "lat": 41.7101139, "lng": -87.9322374, "obsValid": true, "obsReviewed": false, "locationPrivate": true, "subId": "S289094682"}, {"speciesCode": "blujay", "comName": "Blue Jay", "sciName": "Cyanocitta cristata", "locId": "L12743802", "locName": "Kress Creek Farms Park", "obsDt": "2025-12-18 11:06", "howMany": 1, "lat": 41.8547825, "lng": -88.2077297, "obsValid": true, "obsReviewed": false, "locationPrivate": false, "subId": "S289090928"}, {"speciesCode": "horlar", "comName": "Horned Lark", "sciName": "Eremophila alpestris", "locId": "L12743802", "locName": "Kress Creek Farms Park", "obsDt": "2025-12-18 11:06", "howMany": 9, "lat": 41.8547825, "lng": -88.2077297, "obsValid": true, "obsReviewed": false, "locationPrivate": false, "subId": "S289090928"}, {"speciesCode": "amecro", "comName": "American Crow", "sciName": "Corvus brachyrhynchos", "locId": "L1285", "locName": "60517 Woodridge", "obsDt": "2025-12-18 11:00", "howMany": 1, "lat": 41.7533, "lng": -88.0528, "obsValid": true, "obsReviewed": false, "locationPrivate": true, "subId": "S291443910"}, {"speciesCode": "amegfi", "comName": "American Goldfinch", "sciName": "Spinus tristis", "locId": "L1444671", "locName": "Reed Keppler Park", "obsDt": "2025-12-18 10:40", "howMany": 1, "lat": 41.8922998, "lng": -88.20907, "obsValid": true, "obsReviewed": false, "locationPrivate": false, "subId": "S289086750"}, {"speciesCode": "rebnut", "comName": "Red-breasted Nuthatch", "sciName": "Sitta canadensis", "locId": "L30220000", "locName": "Itascaman", "obsDt": "2025-12-18 10:30", "howMany": 1, "lat": 41.976634, "lng": -88.001834, "obsValid": true, "obsReviewed": false, "locationPrivate": true, "subId": "S291236288"}, {"speciesCode": "easblu", "comName": "Eastern Bluebird", "sciName": "Sialia sialis", "locId": "L749660", "locName": "St. James Farm Forest Preserve", "obsDt": "2025-12-18 10:00", "howMany": 1, "lat": 41.8375952, "lng": -88.1614208, "obsValid": true, "obsReviewed": false, "locationPrivate": false, "subId": "S289216858"}, {"speciesCode": "norfli", "comName": "Northern Flicker", "sciName": "Colaptes auratus", "locId": "L14685105", "locName": "Greene Valley Forest Preserve--Thunderbird Area", "obsDt": "2025-12-18 09:39", "howMany": 2, "lat": 41.7356379, "lng": -88.0878548, "obsValid": true, "obsReviewed": false, "locationPrivate": false, "subId": "S289092507"}, {"speciesCode": "amekes", "comName": "American Kestrel", "sciName": "Falco sparverius", "locId": "L14685105", "locName": "Greene Valley Forest Preserve--Thunderbird Area", "obsDt": "2025-12-18 09:39", "howMany": 1, "lat": 41.7356379, "lng": -88.0878548, "obsValid": true, "obsReviewed": false, "locationPrivate": false, "subId": "S289092507"}, {"speciesCode": "cedwax", "comName": "Cedar Waxwing", "sciName": "Bombycilla cedrorum", "locId": "L14685105", "locName": "Greene Valley Forest Preserve--Thunderbird Area", "obsDt": "2025-12-18 09:39", "howMany": 8, "lat": 41.7356379, "lng": -88.0878548, "obsValid": true, "obsReviewed": false, "locationPrivate": false, "subId": "S289092507"}, {"speciesCode": "ambduc", "comName": "American Black Duck", "sciName": "Anas rubripes", "locId": "L131005", "locName": "Hidden Lake Forest Preserve", "obsDt": "2025-12-18 09:36", "howMany": 1, "lat": 41.8263833, "lng": -88.0535, "obsValid": true, "obsReviewed": false, "locationPrivate": false, "subId": "S289081203"}, {"speciesCode": "ribgul", "comName": "Ring-billed Gull", "sciName": "Larus delawarensis", "locId": "L131005", "locName": "Hidden Lake Forest Preserve", "obsDt": "2025-12-18 09:36", "howMany": 1, "lat": 41.8263833, "lng": -88.0535, "obsValid": true, "obsReviewed": false, "locationPrivate": false, "subId": "S289081203"}, {"speciesCode": "baleag", "comName": "Bald Eagle", "sciName": "Haliaeetus leucocephalus", "locId": "L36363562", "locName": "My backyard", "obsDt": "2025-12-18 09:16", "howMany": 1, "lat": 41.8635333, "lng": -88.1595072, "obsValid": true, "obsReviewed": false, "locationPrivate": true, "subId": "S289074317"}, {"speciesCode": "mutswa", "comName": "Mute Swan", "sciName": "Cygnus olor", "locId": "L2717205", "locName": "Centennial Trail--West of Route 83 (DuPage Co.)", "obsDt": "2025-12-18 09:07", "howMany": 1, "lat": 41.6877722, "lng": -87.9814202, "obsValid": true, "obsReviewed": false, "locationPrivate": false, "subId": "S289078878", "exoticCategory": "N"}, {"speciesCode": "gadwal", "comName": "Gadwall", "sciName": "Mareca strepera", "locId": "L2717205", "locName": "Centennial Trail--West of Route 83 (DuPage Co.)", "obsDt": "2025-12-18 09:07", "howMany": 16, "lat": 41.6877722, "lng": -87.9814202, "obsValid": true, "obsReviewed": false, "locationPrivate": false, "subId": "S289078878"}, {"speciesCode": "norpin", "comName": "Northern Pintail", "sciName": "Anas acuta", "locId": "L2717205", "locName": "Centennial Trail--West of Route 83 (DuPage Co.)", "obsDt": "2025-12-18 09:07", "howMany": 2, "lat": 41.6877722, "lng": -87.9814202, "obsValid": true, "obsReviewed": false, "locationPrivate": false, "subId": "S289078878"}, {"speciesCode": "amhgul1", "comName": "American Herring Gull", "sciName": "Larus smithsonianus", "locId": "L3526290", "locName": "Woodridge home", "obsDt": "2025-12-18 06:51", "howMany": 1, "lat": 41.7442406, "lng": -88.0443585, "obsValid": true, "obsReviewed": false, "locationPrivate": true, "subId": "S289141387"}]