[{"speciesCode": "dowwoo", "comName": "Downy Woodpecker", "sciName": "Dryobates pubescens", "locId": "L13585161", "locName": "St. Anthony Field", "obsDt": "2025-12-31 15:07", "howMany": 2, "lat": 42.2746901, "lng": -89.0077025, "obsValid": true, "obsReviewed": false, "locationPrivate": true, "subId": "S291467051"}, {"speciesCode": "rebnut", "comName": "Red-breasted Nuthatch", "sciName": "Sitta canadensis", "locId": "L13585161", "locName": "St. Anthony Field", "obsDt": "2025-12-31 15:07", "howMany": 1, "lat": 42.2746901, "lng": -89.0077025, "obsValid": true, "obsReviewed": false, "locationPrivate": true, "subId": "S291467051"}, {"speciesCode": "houspa", "comName": "House Sparrow", "sciName": "Passer domesticus", "locId": "L13585161", "locName": "St. Anthony Field", "obsDt": "2025-12-31 15:07", "howMany": 3, "lat": 42.2746901, "lng": -89.0077025, "obsValid": true, "obsReviewed": false, "locationPrivate": true, "subId": "S291467051", "exoticCategory": "N"}, {"speciesCode": "houfin", "comName": "House Finch", "sciName": "Haemorhous mexicanus", "locId": "L13585161", "locName": "St. Anthony Field", "obsDt": "2025-12-31 15:07", "howMany": 4, "lat": 42.2746901, "lng": -89.0077025, "obsValid": true, "obsReviewed": false, "locationPrivate": true, "subId": "S291467051", "exoticCategory": "N"}, {"speciesCode": "pinsis", "comName": "Pine Siskin", "sciName": "Spinus pinus", "locId": "L13585161", "locName": "St. Anthony Field", "obsDt": "2025-12-31 15:07", "howMany": 1, "lat": 42.2746901, "lng": -89.0077025, "obsValid": true, "obsReviewed": false, "locationPrivate": true, "subId": "S291467051"}, {"speciesCode": "amegfi", "comName": "American Goldfinch", "sciName": "Spinus tristis", "locId": "L13585161", "locName": "St. Anthony Field", "obsDt": "2025-12-31 15:07", "howMany": 2, "lat": 42.2746901, "lng": -89.0077025, "obsValid": true, "obsReviewed": false, "locationPrivate": true, "subId": "S291467051"}, {"speciesCode": "daejun", "comName": "Dark-eyed Junco", "sciName": "Junco hyemalis", "locId": "L13585161", "locName": "St. Anthony Field", "obsDt": "2025-12-31 15:07", "howMany": 7, "lat": 42.2746901, "lng": -89.0077025, "obsValid": true, "obsReviewed": false, "locationPrivate": true, "subId": "S291467051"}, {"speciesCode": "whtspa", "comName": "White-throated Sparrow", "sciName": "Zonotrichia albicollis", "locId": "L13585161", "locName": "St. Anthony Field", "obsDt": "2025-12-31 15:07", "howMany": 6, "lat": 42.2746901, "lng": -89.0077025, "obsValid": true, "obsReviewed": false, "locationPrivate": true, "subId": "S291467051"}, {"speciesCode": "norcar", "comName": "Northern Cardinal", "sciName": "Cardinalis cardinalis", "locId": "L13585161", "locName": "St. Anthony Field", "obsDt": "2025-12-31 15:07", "howMany": 4, "lat": 42.2746901, "lng": -89.0077025, "obsValid": true, "obsReviewed": false, "locationPrivate": true, "subId": "S291467051"}, {"speciesCode": "merlin", "comName": "Merlin", "sciName": "Falco columbarius", "locId": "L18065848", "locName": "Harrison Rd Auburn to Dickenson", "obsDt": "2025-12-31 14:09", "howMany": 1, "lat": 42.2886354, "lng": -89.1996694, "obsValid": true, "obsReviewed": false, "locationPrivate": true, "subId": "S291451686"}, {"speciesCode": "rethaw", "comName": "Red-tailed Hawk", "sciName": "Buteo jamaicensis", "locId": "L56622440", "locName": "U.S. Grant Memorial Highway, Rockford, Illinois, US (42.219, -89.102)", "obsDt": "2025-12-31 14:03", "howMany": 1, "lat": 42.2193505, "lng": -89.1021999, "obsValid": true, "obsReviewed": false, "locationPrivate": true, "subId": "S291450589"}, {"speciesCode": "moudov", "comName": "Mourning Dove", "sciName": "Zenaida macroura", "locId": "L1259962", "locName": "Home", "obsDt": "2025-12-31 13:23", "howMany": 5, "lat": 42.426753, "lng": -89.0254623, "obsValid": true, "obsReviewed": false, "locationPrivate": true, "subId": "S291444751"}, {"speciesCode": "rebwoo", "comName": "Red-bellied Woodpecker", "sciName": "Melanerpes carolinus", "locId": "L1259962", "locName": "Home", "obsDt": "2025-12-31 13:23", "howMany": 1, "lat": 42.426753, "lng": -89.0254623, "obsValid": true, "obsReviewed": false, "locationPrivate": true, "subId": "S291444751"}, {"speciesCode": "bkcchi", "comName": "Black-capped Chickadee", "sciName": "Poecile atricapillus", "locId": "L1259962", "locName": "Home", "obsDt": "2025-12-31 13:23", "howMany": 2, "lat": 42.426753, "lng": -89.0254623, "obsValid": true, "obsReviewed": false, "locationPrivate": true, "subId": "S291444751"}, {"speciesCode": "cangoo", "comName": "Canada Goose", "sciName": "Branta canadensis", "locId": "L56392176", "locName": "Beltline Rd ag fields", "obsDt": "2025-12-31 12:30", "howMany": 1000, "lat": 42.1832957, "lng": -89.1034791, "obsValid": true, "obsReviewed": false, "locationPrivate": true, "subId": "S291474983"}, {"speciesCode": "mallar3", "comName": "Mallard", "sciName": "Anas platyrhynchos", "locId": "L56392176", "locName": "Beltline Rd ag fields", "obsDt": "2025-12-31 12:30", "howMany": 1200, "lat": 42.1832957, "lng": -89.1034791, "obsValid": true, "obsReviewed": false, "locationPrivate": true, "subId": "S291474983"}, {"speciesCode": "ambduc", "comName": "American Black Duck", "sciName": "Anas rubripes", "locId": "L56392176", "locName": "Beltline Rd ag fields", "obsDt": "2025-12-31 12:30", "howMany": 5, "lat": 42.1832957, "lng": -89.1034791, "obsValid": true, "obsReviewed": false, "locationPrivate": true, "subId": "S291474983"}, {"speciesCode": "cacgoo1", "comName": "Cackling Goose", "sciName": "Branta hutchinsii", "locId": "L2139411", "locName": "Rockford Airport Quarry Ponds (access by permission only)", "obsDt": "2025-12-31 11:47", "howMany": 1, "lat": 42.1843947, "lng": -89.1201496, "obsValid": true, "obsReviewed": false, "locationPrivate": false, "subId": "S291471639"}, {"speciesCode": "canvas", "comName": "Canvasback", "sciName": "Aythya valisineria", "locId": "L2139411", "locName": "Rockford Airport Quarry Ponds (access by permission only)", "obsDt": "2025-12-31 11:47", "howMany": 3, "lat": 42.1843947, "lng": -89.1201496, "obsValid": true, "obsReviewed": false, "locationPrivate": false, "subId": "S291471639"}, {"speciesCode": "gresca", "comName": "Greater Scaup", "sciName": "Aythya marila", "locId": "L2139411", "locName": "Rockford Airport Quarry Ponds (access by permission only)", "obsDt": "2025-12-31 11:47", "howMany": 1, "lat": 42.1843947, "lng": -89.1201496, "obsValid": true, "obsReviewed": false, "locationPrivate": false, "subId": "S291471639"}, {"speciesCode": "lessca", "comName": "Lesser Scaup", "sciName": "Aythya affinis", "locId": "L2139411", "locName": "Rockford Airport Quarry Ponds (access by permission only)", "obsDt": "2025-12-31 11:47", "howMany": 2, "lat": 42.1843947, "lng": -89.1201496, "obsValid": true, "obsReviewed": false, "locationPrivate": false, "subId": "S291471639"}, {"speciesCode": "comgol", "comName": "Common Goldeneye", "sciName": "Bucephala clangula", "locId": "L2139411", "locName": "Rockford Airport Quarry Ponds (access by permission only)", "obsDt": "2025-12-31 11:47", "howMany": 2, "lat": 42.1843947, "lng": -89.1201496, "obsValid": true, "obsReviewed": false, "locationPrivate": false, "subId": "S291471639"}, {"speciesCode": "commer", "comName": "Common Merganser", "sciName": "Mergus merganser", "locId": "L2139411", "locName": "Rockford Airport Quarry Ponds (access by permission only)", "obsDt": "2025-12-31 11:47", "howMany": 11, "lat": 42.1843947, "lng": -89.1201496, "obsValid": true, "obsReviewed": false, "locationPrivate": false, "subId": "S291471639"}, {"speciesCode": "rocpig", "comName": "Rock Pigeon", "sciName": "Columba livia", "locId": "L2139411", "locName": "Rockford Airport Quarry Ponds (access by permission only)", "obsDt": "2025-12-31 11:47", "howMany": 19, "lat": 42.1843947, "lng": -89.1201496, "obsValid": true, "obsReviewed": false, "locationPrivate": false, "subId": "S291471639", "exoticCategory": "N"}, {"speciesCode": "amhgul1", "comName": "American Herring Gull", "sciName": "Larus smithsonianus", "locId": "L2139411", "locName": "Rockford Airport Quarry Ponds (access by permission only)", "obsDt": "2025-12-31 11:47", "howMany": 41, "lat": 42.1843947, "lng": -89.1201496, "obsValid": true, "obsReviewed": false, "locationPrivate": false, "subId": "S291471639"}, {"speciesCode": "baleag", "comName": "Bald Eagle", "sciName": "Haliaeetus leucocephalus", "locId": "L2139411", "locName": "Rockford Airport Quarry Ponds (access by permission only)", "obsDt": "2025-12-31 11:47", "howMany": 5, "lat": 42.1843947, "lng": -89.1201496, "obsValid": true, "obsReviewed": false, "locationPrivate": false, "subId": "S291471639"}, {"speciesCode": "belkin1", "comName": "Belted Kingfisher", "sciName": "Megaceryle alcyon", "locId": "L2139411", "locName": "Rockford Airport Quarry Ponds (access by permission only)", "obsDt": "2025-12-31 11:47", "howMany": 1, "lat": 42.1843947, "lng": -89.1201496, "obsValid": true, "obsReviewed": false, "locationPrivate": false, "subId": "S291471639"}, {"speciesCode": "amecro", "comName": "American Crow", "sciName": "Corvus brachyrhynchos", "locId": "L2139411", "locName": "Rockford Airport Quarry Ponds (access by permission only)", "obsDt": "2025-12-31 11:47", "howMany": 1, "lat": 42.1843947, "lng": -89.1201496, "obsValid": true, "obsReviewed": false, "locationPrivate": false, "subId": "S291471639"}, {"speciesCode": "pilwoo", "comName": "Pileated Woodpecker", "sciName": "Dryocopus pileatus", "locId": "L353368", "locName": "Rock Cut State Park", "obsDt": "2025-12-31 10:45", "howMany": 1, "lat": 42.3533302, "lng": -88.9863825, "obsValid": true, "obsReviewed": false, "locationPrivate": false, "subId": "S291429675"}, {"speciesCode": "easblu", "comName": "Eastern Bluebird", "sciName": "Sialia sialis", "locId": "L353368", "locName": "Rock Cut State Park", "obsDt": "2025-12-31 10:45", "howMany": 5, "lat": 42.3533302, "lng": -88.9863825, "obsValid": true, "obsReviewed": false, "locationPrivate": false, "subId": "S291429675"}, {"speciesCode": "amekes", "comName": "American Kestrel", "sciName": "Falco sparverius", "locId": "L56612735", "locName": "Cemetery Rd, Rockford", "obsDt": "2025-12-31 10:23", "howMany": 1, "lat": 42.363847, "lng": -89.179648, "obsValid": true, "obsReviewed": false, "locationPrivate": true, "subId": "S291407713"}, {"speciesCode": "wiltur", "comName": "Wild Turkey", "sciName": "Meleagris gallopavo", "locId": "L56627336", "locName": "US 20/Meridian Rd", "obsDt": "2025-12-31 09:37", "howMany": 47, "lat": 42.2646334, "lng": -89.1689833, "obsValid": true, "obsReviewed": false, "locationPrivate": true, "subId": "S291470841"}, {"speciesCode": "blujay", "comName": "Blue Jay", "sciName": "Cyanocitta cristata", "locId": "L2226139", "locName": "Roscoe Oasis", "obsDt": "2025-12-31 09:07", "howMany": 2, "lat": 42.4460377, "lng": -89.0379432, "obsValid": true, "obsReviewed": false, "locationPrivate": true, "subId": "S292251494"}, {"speciesCode": "norfli", "comName": "Northern Flicker", "sciName": "Colaptes auratus", "locId": "L5776430", "locName": "My Yard", "obsDt": "2025-12-31 08:48", "howMany": 1, "lat": 42.286788, "lng": -88.983632, "obsValid": true, "obsReviewed": false, "locationPrivate": true, "subId": "S291403520"}, {"speciesCode": "amerob", "comName": "American Robin", "sciName": "Turdus migratorius", "locId": "L5776430", "locName": "My Yard", "obsDt": "2025-12-31 08:48", "howMany": 1, "lat": 42.286788, "lng": -88.983632, "obsValid": true, "obsReviewed": false, "locationPrivate": true, "subId": "S291403520"}]