[{"speciesCode": "grhowl", "comName": "Great Horned Owl", "sciName": "Bubo virginianus", "locId": "L323527", "locName": "Aurora West Forest Preserve", "obsDt": "2025-12-11 19:56", "howMany": 2, "lat": 41.7827, "lng": -88.3949, "obsValid": true, "obsReviewed": false, "locationPrivate": false, "subId": "S288204143"}, {"speciesCode": "norshr4", "comName": "Northern Shrike", "sciName": "Lanius borealis", "locId": "L5494790", "locName": "Peck Farm Park, Geneva", "obsDt": "2025-12-11 15:59", "howMany": 1, "lat": 41.869641, "lng": -88.3619729, "obsValid": true, "obsReviewed": false, "locationPrivate": false, "subId": "S288187032"}, {"speciesCode": "merlin", "comName": "Merlin", "sciName": "Falco columbarius", "locId": "L55892117", "locName": "Mill Creek Greenway, Saint Charles US-IL", "obsDt": "2025-12-11 15:56", "howMany": 1, "lat": 41.900903, "lng": -88.383334, "obsValid": true, "obsReviewed": false, "locationPrivate": true, "subId": "S288186323"}, {"speciesCode": "amerob", "comName": "American Robin", "sciName": "Turdus migratorius", "locId": "L55892117", "locName": "Mill Creek Greenway, Saint Charles US-IL", "obsDt": "2025-12-11 15:56", "howMany": 1, "lat": 41.900903, "lng": -88.383334, "obsValid": true, "obsReviewed": false, "locationPrivate": true, "subId": "S288186323"}, {"speciesCode": "coohaw", "comName": "Cooper's Hawk", "sciName": "Astur cooperii", "locId": "L152666", "locName": "LeRoy Oakes Forest Preserve", "obsDt": "2025-12-11 15:21", "howMany": 1, "lat": 41.9273279, "lng": -88.3489453, "obsValid": true, "obsReviewed": false, "locationPrivate": false, "subId": "S288647005"}, {"speciesCode": "brdowl", "comName": "Barred Owl", "sciName": "Strix varia", "locId": "L152666", "locName": "LeRoy Oakes Forest Preserve", "obsDt": "2025-12-11 15:21", "howMany": 1, "lat": 41.9273279, "lng": -88.3489453, "obsValid": true, "obsReviewed": false, "locationPrivate": false, "subId": "S288647005"}, {"speciesCode": "bkcchi", "comName": "Black-capped Chickadee", "sciName": "Poecile atricapillus", "locId": "L152666", "locName": "LeRoy Oakes Forest Preserve", "obsDt": "2025-12-11 15:21", "howMany": 2, "lat": 41.9273279, "lng": -88.3489453, "obsValid": true, "obsReviewed": false, "locationPrivate": false, "subId": "S288647005"}, {"speciesCode": "amtspa", "comName": "American Tree Sparrow", "sciName": "Spizelloides arborea", "locId": "L152666", "locName": "LeRoy Oakes Forest Preserve", "obsDt": "2025-12-11 15:21", "howMany": 21, "lat": 41.9273279, "lng": -88.3489453, "obsValid": true, "obsReviewed": false, "locationPrivate": false, "subId": "S288647005"}, {"speciesCode": "cangoo", "comName": "Canada Goose", "sciName": "Branta canadensis", "locId": "L1173268", "locName": "Hickory Knolls Natural Area", "obsDt": "2025-12-11 15:10", "howMany": 6, "lat": 41.9117948, "lng": -88.3763409, "obsValid": true, "obsReviewed": false, "locationPrivate": false, "subId": "S288184928"}, {"speciesCode": "rebwoo", "comName": "Red-bellied Woodpecker", "sciName": "Melanerpes carolinus", "locId": "L1173268", "locName": "Hickory Knolls Natural Area", "obsDt": "2025-12-11 15:10", "howMany": 1, "lat": 41.9117948, "lng": -88.3763409, "obsValid": true, "obsReviewed": false, "locationPrivate": false, "subId": "S288184928"}, {"speciesCode": "amecro", "comName": "American Crow", "sciName": "Corvus brachyrhynchos", "locId": "L1173268", "locName": "Hickory Knolls Natural Area", "obsDt": "2025-12-11 15:10", "howMany": 1, "lat": 41.9117948, "lng": -88.3763409, "obsValid": true, "obsReviewed": false, "locationPrivate": false, "subId": "S288184928"}, {"speciesCode": "whbnut", "comName": "White-breasted Nuthatch", "sciName": "Sitta carolinensis", "locId": "L1173268", "locName": "Hickory Knolls Natural Area", "obsDt": "2025-12-11 15:10", "howMany": 2, "lat": 41.9117948, "lng": -88.3763409, "obsValid": true, "obsReviewed": false, "locationPrivate": false, "subId": "S288184928"}, {"speciesCode": "eursta", "comName": "European Starling", "sciName": "Sturnus vulgaris", "locId": "L1173268", "locName": "Hickory Knolls Natural Area", "obsDt": "2025-12-11 15:10", "howMany": 60, "lat": 41.9117948, "lng": -88.3763409, "obsValid": true, "obsReviewed": false, "locationPrivate": false, "subId": "S288184928", "exoticCategory": "N"}, {"speciesCode": "easblu", "comName": "Eastern Bluebird", "sciName": "Sialia sialis", "locId": "L1173268", "locName": "Hickory Knolls Natural Area", "obsDt": "2025-12-11 15:10", "howMany": 1, "lat": 41.9117948, "lng": -88.3763409, "obsValid": true, "obsReviewed": false, "locationPrivate": false, "subId": "S288184928"}, {"speciesCode": "houspa", "comName": "House Sparrow", "sciName": "Passer domesticus", "locId": "L1173268", "locName": "Hickory Knolls Natural Area", "obsDt": "2025-12-11 15:10", "howMany": 6, "lat": 41.9117948, "lng": -88.3763409, "obsValid": true, "obsReviewed": false, "locationPrivate": false, "subId": "S288184928", "exoticCategory": "N"}, {"speciesCode": "houfin", "comName": "House Finch", "sciName": "Haemorhous mexicanus", "locId": "L1173268", "locName": "Hickory Knolls Natural Area", "obsDt": "2025-12-11 15:10", "howMany": 3, "lat": 41.9117948, "lng": -88.3763409, "obsValid": true, "obsReviewed": false, "locationPrivate": false, "subId": "S288184928", "exoticCategory": "N"}, {"speciesCode": "whcspa", "comName": "White-crowned Sparrow", "sciName": "Zonotrichia leucophrys", "locId": "L1173268", "locName": "Hickory Knolls Natural Area", "obsDt": "2025-12-11 15:10", "howMany": 4, "lat": 41.9117948, "lng": -88.3763409, "obsValid": true, "obsReviewed": false, "locationPrivate": false, "subId": "S288184928"}, {"speciesCode": "norcar", "comName": "Northern Cardinal", "sciName": "Cardinalis cardinalis", "locId": "L1173268", "locName": "Hickory Knolls Natural Area", "obsDt": "2025-12-11 15:10", "howMany": 1, "lat": 41.9117948, "lng": -88.3763409, "obsValid": true, "obsReviewed": false, "locationPrivate": false, "subId": "S288184928"}, {"speciesCode": "belkin1", "comName": "Belted Kingfisher", "sciName": "Megaceryle alcyon", "locId": "L9734584", "locName": "Ferson Creek Park", "obsDt": "2025-12-11 15:01", "howMany": 1, "lat": 41.9278903, "lng": -88.319919, "obsValid": true, "obsReviewed": false, "locationPrivate": false, "subId": "S288181432"}, {"speciesCode": "moudov", "comName": "Mourning Dove", "sciName": "Zenaida macroura", "locId": "L23691522", "locName": "Illinois Mathematics and Science Academy", "obsDt": "2025-12-11 14:56", "howMany": 20, "lat": 41.786624, "lng": -88.3540125, "obsValid": true, "obsReviewed": false, "locationPrivate": false, "subId": "S288191419"}, {"speciesCode": "pinsis", "comName": "Pine Siskin", "sciName": "Spinus pinus", "locId": "L17137140", "locName": "Sans Souci Neighborhood", "obsDt": "2025-12-11 14:47", "lat": 41.7572216, "lng": -88.3690275, "obsValid": true, "obsReviewed": false, "locationPrivate": true, "subId": "S288396341"}, {"speciesCode": "sancra", "comName": "Sandhill Crane", "sciName": "Antigone canadensis", "locId": "L379563", "locName": "Fox River--West Dundee", "obsDt": "2025-12-11 13:35", "howMany": 103, "lat": 42.0995081, "lng": -88.2785904, "obsValid": true, "obsReviewed": false, "locationPrivate": false, "subId": "S288186313"}, {"speciesCode": "rethaw", "comName": "Red-tailed Hawk", "sciName": "Buteo jamaicensis", "locId": "L5494790", "locName": "Peck Farm Park, Geneva", "obsDt": "2025-12-11 13:31", "howMany": 1, "lat": 41.869641, "lng": -88.3619729, "obsValid": true, "obsReviewed": false, "locationPrivate": false, "subId": "S288172767"}, {"speciesCode": "gadwal", "comName": "Gadwall", "sciName": "Mareca strepera", "locId": "L712385", "locName": "Island Park, Geneva", "obsDt": "2025-12-11 13:21", "howMany": 1, "lat": 41.884671, "lng": -88.3022515, "obsValid": true, "obsReviewed": false, "locationPrivate": false, "subId": "S288179475"}, {"speciesCode": "mallar3", "comName": "Mallard", "sciName": "Anas platyrhynchos", "locId": "L712385", "locName": "Island Park, Geneva", "obsDt": "2025-12-11 13:21", "howMany": 100, "lat": 41.884671, "lng": -88.3022515, "obsValid": true, "obsReviewed": false, "locationPrivate": false, "subId": "S288179475"}, {"speciesCode": "commer", "comName": "Common Merganser", "sciName": "Mergus merganser", "locId": "L712385", "locName": "Island Park, Geneva", "obsDt": "2025-12-11 13:21", "howMany": 5, "lat": 41.884671, "lng": -88.3022515, "obsValid": true, "obsReviewed": false, "locationPrivate": false, "subId": "S288179475"}, {"speciesCode": "rocpig", "comName": "Rock Pigeon", "sciName": "Columba livia", "locId": "L712385", "locName": "Island Park, Geneva", "obsDt": "2025-12-11 13:21", "howMany": 5, "lat": 41.884671, "lng": -88.3022515, "obsValid": true, "obsReviewed": false, "locationPrivate": false, "subId": "S288179475", "exoticCategory": "N"}, {"speciesCode": "ribgul", "comName": "Ring-billed Gull", "sciName": "Larus delawarensis", "locId": "L712385", "locName": "Island Park, Geneva", "obsDt": "2025-12-11 13:21", "howMany": 5, "lat": 41.884671, "lng": -88.3022515, "obsValid": true, "obsReviewed": false, "locationPrivate": false, "subId": "S288179475"}, {"speciesCode": "amhgul1", "comName": "American Herring Gull", "sciName": "Larus smithsonianus", "locId": "L712385", "locName": "Island Park, Geneva", "obsDt": "2025-12-11 13:21", "howMany": 50, "lat": 41.884671, "lng": -88.3022515, "obsValid": true, "obsReviewed": false, "locationPrivate": false, "subId": "S288179475"}, {"speciesCode": "doccor", "comName": "Double-crested Cormorant", "sciName": "Nannopterum auritum", "locId": "L712385", "locName": "Island Park, Geneva", "obsDt": "2025-12-11 13:21", "howMany": 1, "lat": 41.884671, "lng": -88.3022515, "obsValid": true, "obsReviewed": false, "locationPrivate": false, "subId": "S288179475"}, {"speciesCode": "baleag", "comName": "Bald Eagle", "sciName": "Haliaeetus leucocephalus", "locId": "L712385", "locName": "Island Park, Geneva", "obsDt": "2025-12-11 13:21", "howMany": 1, "lat": 41.884671, "lng": -88.3022515, "obsValid": true, "obsReviewed": false, "locationPrivate": false, "subId": "S288179475"}, {"speciesCode": "dowwoo", "comName": "Downy Woodpecker", "sciName": "Dryobates pubescens", "locId": "L712385", "locName": "Island Park, Geneva", "obsDt": "2025-12-11 13:21", "howMany": 1, "lat": 41.884671, "lng": -88.3022515, "obsValid": true, "obsReviewed": false, "locationPrivate": false, "subId": "S288179475"}, {"speciesCode": "brncre", "comName": "Brown Creeper", "sciName": "Certhia americana", "locId": "L712385", "locName": "Island Park, Geneva", "obsDt": "2025-12-11 13:21", "howMany": 1, "lat": 41.884671, "lng": -88.3022515, "obsValid": true, "obsReviewed": false, "locationPrivate": false, "subId": "S288179475"}, {"speciesCode": "cedwax", "comName": "Cedar Waxwing", "sciName": "Bombycilla cedrorum", "locId": "L712385", "locName": "Island Park, Geneva", "obsDt": "2025-12-11 13:21", "howMany": 40, "lat": 41.884671, "lng": -88.3022515, "obsValid": true, "obsReviewed": false, "locationPrivate": false, "subId": "S288179475"}, {"speciesCode": "amepip", "comName": "American Pipit", "sciName": "Anthus rubescens", "locId": "L712385", "locName": "Island Park, Geneva", "obsDt": "2025-12-11 13:21", "howMany": 1, "lat": 41.884671, "lng": -88.3022515, "obsValid": true, "obsReviewed": false, "locationPrivate": false, "subId": "S288179475"}, {"speciesCode": "daejun", "comName": "Dark-eyed Junco", "sciName": "Junco hyemalis", "locId": "L712385", "locName": "Island Park, Geneva", "obsDt": "2025-12-11 13:21", "howMany": 10, "lat": 41.884671, "lng": -88.3022515, "obsValid": true, "obsReviewed": false, "locationPrivate": false, "subId": "S288179475"}, {"speciesCode": "whtspa", "comName": "White-throated Sparrow", "sciName": "Zonotrichia albicollis", "locId": "L712385", "locName": "Island Park, Geneva", "obsDt": "2025-12-11 13:21", "howMany": 7, "lat": 41.884671, "lng": -88.3022515, "obsValid": true, "obsReviewed": false, "locationPrivate": false, "subId": "S288179475"}, {"speciesCode": "sonspa", "comName": "Song Sparrow", "sciName": "Melospiza melodia", "locId": "L712385", "locName": "Island Park, Geneva", "obsDt": "2025-12-11 13:21", "howMany": 1, "lat": 41.884671, "lng": -88.3022515, "obsValid": true, "obsReviewed": false, "locationPrivate": false, "subId": "S288179475"}, {"speciesCode": "comgol", "comName": "Common Goldeneye", "sciName": "Bucephala clangula", "locId": "L1052581", "locName": "Carpentersville Dam (Fox River Shores)", "obsDt": "2025-12-11 13:18", "howMany": 1, "lat": 42.1145956, "lng": -88.2931387, "obsValid": true, "obsReviewed": false, "locationPrivate": false, "subId": "S288171337"}, {"speciesCode": "carwre", "comName": "Carolina Wren", "sciName": "Thryothorus ludovicianus", "locId": "L1052581", "locName": "Carpentersville Dam (Fox River Shores)", "obsDt": "2025-12-11 13:18", "howMany": 1, "lat": 42.1145956, "lng": -88.2931387, "obsValid": true, "obsReviewed": false, "locationPrivate": false, "subId": "S288171337"}, {"speciesCode": "amekes", "comName": "American Kestrel", "sciName": "Falco sparverius", "locId": "L2849871", "locName": "Gunnar Anderson Forest Preserve", "obsDt": "2025-12-11 12:56", "howMany": 1, "lat": 41.8775002, "lng": -88.3079553, "obsValid": true, "obsReviewed": false, "locationPrivate": false, "subId": "S288173263"}, {"speciesCode": "wooduc", "comName": "Wood Duck", "sciName": "Aix sponsa", "locId": "L10095932", "locName": "Bennett Park, Geneva", "obsDt": "2025-12-11 12:49", "howMany": 1, "lat": 41.8917281, "lng": -88.3000101, "obsValid": true, "obsReviewed": false, "locationPrivate": false, "subId": "S288170229"}, {"speciesCode": "haiwoo", "comName": "Hairy Woodpecker", "sciName": "Leuconotopicus villosus", "locId": "L10095932", "locName": "Bennett Park, Geneva", "obsDt": "2025-12-11 12:49", "howMany": 1, "lat": 41.8917281, "lng": -88.3000101, "obsValid": true, "obsReviewed": false, "locationPrivate": false, "subId": "S288170229"}, {"speciesCode": "amegfi", "comName": "American Goldfinch", "sciName": "Spinus tristis", "locId": "L10095932", "locName": "Bennett Park, Geneva", "obsDt": "2025-12-11 12:49", "howMany": 2, "lat": 41.8917281, "lng": -88.3000101, "obsValid": true, "obsReviewed": false, "locationPrivate": false, "subId": "S288170229"}, {"speciesCode": "norfli", "comName": "Northern Flicker", "sciName": "Colaptes auratus", "locId": "L152636", "locName": "Fabyan Forest Preserve", "obsDt": "2025-12-11 12:45", "howMany": 2, "lat": 41.8703246, "lng": -88.3092105, "obsValid": true, "obsReviewed": false, "locationPrivate": false, "subId": "S288170579"}, {"speciesCode": "winwre3", "comName": "Winter Wren", "sciName": "Troglodytes hiemalis", "locId": "L152636", "locName": "Fabyan Forest Preserve", "obsDt": "2025-12-11 12:45", "howMany": 1, "lat": 41.8703246, "lng": -88.3092105, "obsValid": true, "obsReviewed": false, "locationPrivate": false, "subId": "S288170579"}, {"speciesCode": "rebnut", "comName": "Red-breasted Nuthatch", "sciName": "Sitta canadensis", "locId": "L1071543", "locName": "Glenwood Park Forest Preserve", "obsDt": "2025-12-11 12:00", "howMany": 1, "lat": 41.8331827, "lng": -88.3077621, "obsValid": true, "obsReviewed": false, "locationPrivate": false, "subId": "S288185034"}, {"speciesCode": "horlar", "comName": "Horned Lark", "sciName": "Eremophila alpestris", "locId": "L4104040", "locName": "Seavey Rd. (Bliss Rd. to Rt. 47)", "obsDt": "2025-12-11 10:10", "howMany": 3, "lat": 41.8290046, "lng": -88.4270718, "obsValid": true, "obsReviewed": false, "locationPrivate": false, "subId": "S288328740"}, {"speciesCode": "laplon", "comName": "Lapland Longspur", "sciName": "Calcarius lapponicus", "locId": "L4104040", "locName": "Seavey Rd. (Bliss Rd. to Rt. 47)", "obsDt": "2025-12-11 10:10", "howMany": 8, "lat": 41.8290046, "lng": -88.4270718, "obsValid": true, "obsReviewed": false, "locationPrivate": false, "subId": "S288328740"}, {"speciesCode": "savspa", "comName": "Savannah Sparrow", "sciName": "Passerculus sandwichensis", "locId": "L4104040", "locName": "Seavey Rd. (Bliss Rd. to Rt. 47)", "obsDt": "2025-12-11 10:10", "howMany": 3, "lat": 41.8290046, "lng": -88.4270718, "obsValid": true, "obsReviewed": true, "locationPrivate": false, "subId": "S288328740"}, {"speciesCode": "wesmea", "comName": "Western Meadowlark", "sciName": "Sturnella neglecta", "locId": "L4104040", "locName": "Seavey Rd. (Bliss Rd. to Rt. 47)", "obsDt": "2025-12-11 10:10", "howMany": 1, "lat": 41.8290046, "lng": -88.4270718, "obsValid": true, "obsReviewed": true, "locationPrivate": false, "subId": "S288328740"}, {"speciesCode": "blujay", "comName": "Blue Jay", "sciName": "Cyanocitta cristata", "locId": "L38173490", "locName": "MA Center Chicago (restricted access)", "obsDt": "2025-12-11 10:07", "howMany": 3, "lat": 41.876628, "lng": -88.424004, "obsValid": true, "obsReviewed": false, "locationPrivate": false, "subId": "S288208938"}, {"speciesCode": "foxspa", "comName": "Fox Sparrow", "sciName": "Passerella iliaca", "locId": "L38173490", "locName": "MA Center Chicago (restricted access)", "obsDt": "2025-12-11 10:07", "howMany": 1, "lat": 41.876628, "lng": -88.424004, "obsValid": true, "obsReviewed": false, "locationPrivate": false, "subId": "S288208938"}, {"speciesCode": "rusbla", "comName": "Rusty Blackbird", "sciName": "Euphagus carolinus", "locId": "L305474", "locName": "Seba Park, South Elgin", "obsDt": "2025-12-11 09:36", "howMany": 1, "lat": 41.9925143, "lng": -88.2947786, "obsValid": true, "obsReviewed": false, "locationPrivate": false, "subId": "S288171569"}, {"speciesCode": "easmea", "comName": "Eastern Meadowlark", "sciName": "Sturnella magna", "locId": "L55885323", "locName": "39W135 Seavey Rd, North Aurora US-IL 41.82543, -88.38080", "obsDt": "2025-12-11 09:23", "howMany": 1, "lat": 41.82543, "lng": -88.380803, "obsValid": true, "obsReviewed": false, "locationPrivate": true, "subId": "S288149884"}]