[{"speciesCode": "rebwoo", "comName": "Red-bellied Woodpecker", "sciName": "Melanerpes carolinus", "locId": "L16669555", "locName": "11096 Knoles Rd, Petersburg US-IL 39.91993, -89.81666", "obsDt": "2025-12-06 16:20", "howMany": 1, "lat": 39.919926, "lng": -89.816658, "obsValid": true, "obsReviewed": false, "locationPrivate": true, "subId": "S287571220"}, {"speciesCode": "dowwoo", "comName": "Downy Woodpecker", "sciName": "Dryobates pubescens", "locId": "L16669555", "locName": "11096 Knoles Rd, Petersburg US-IL 39.91993, -89.81666", "obsDt": "2025-12-06 16:20", "howMany": 1, "lat": 39.919926, "lng": -89.816658, "obsValid": true, "obsReviewed": false, "locationPrivate": true, "subId": "S287571220"}, {"speciesCode": "bkcchi", "comName": "Black-capped Chickadee", "sciName": "Poecile atricapillus", "locId": "L16669555", "locName": "11096 Knoles Rd, Petersburg US-IL 39.91993, -89.81666", "obsDt": "2025-12-06 16:20", "howMany": 1, "lat": 39.919926, "lng": -89.816658, "obsValid": true, "obsReviewed": false, "locationPrivate": true, "subId": "S287571220"}, {"speciesCode": "normoc", "comName": "Northern Mockingbird", "sciName": "Mimus polyglottos", "locId": "L16669555", "locName": "11096 Knoles Rd, Petersburg US-IL 39.91993, -89.81666", "obsDt": "2025-12-06 16:20", "howMany": 1, "lat": 39.919926, "lng": -89.816658, "obsValid": true, "obsReviewed": false, "locationPrivate": true, "subId": "S287571220"}, {"speciesCode": "houspa", "comName": "House Sparrow", "sciName": "Passer domesticus", "locId": "L16669555", "locName": "11096 Knoles Rd, Petersburg US-IL 39.91993, -89.81666", "obsDt": "2025-12-06 16:20", "howMany": 4, "lat": 39.919926, "lng": -89.816658, "obsValid": true, "obsReviewed": false, "locationPrivate": true, "subId": "S287571220", "exoticCategory": "N"}, {"speciesCode": "houfin", "comName": "House Finch", "sciName": "Haemorhous mexicanus", "locId": "L16669555", "locName": "11096 Knoles Rd, Petersburg US-IL 39.91993, -89.81666", "obsDt": "2025-12-06 16:20", "howMany": 3, "lat": 39.919926, "lng": -89.816658, "obsValid": true, "obsReviewed": false, "locationPrivate": true, "subId": "S287571220", "exoticCategory": "N"}, {"speciesCode": "foxspa", "comName": "Fox Sparrow", "sciName": "Passerella iliaca", "locId": "L16669555", "locName": "11096 Knoles Rd, Petersburg US-IL 39.91993, -89.81666", "obsDt": "2025-12-06 16:20", "howMany": 1, "lat": 39.919926, "lng": -89.816658, "obsValid": true, "obsReviewed": false, "locationPrivate": true, "subId": "S287571220"}, {"speciesCode": "daejun", "comName": "Dark-eyed Junco", "sciName": "Junco hyemalis", "locId": "L16669555", "locName": "11096 Knoles Rd, Petersburg US-IL 39.91993, -89.81666", "obsDt": "2025-12-06 16:20", "howMany": 1, "lat": 39.919926, "lng": -89.816658, "obsValid": true, "obsReviewed": false, "locationPrivate": true, "subId": "S287571220"}, {"speciesCode": "whtspa", "comName": "White-throated Sparrow", "sciName": "Zonotrichia albicollis", "locId": "L16669555", "locName": "11096 Knoles Rd, Petersburg US-IL 39.91993, -89.81666", "obsDt": "2025-12-06 16:20", "howMany": 1, "lat": 39.919926, "lng": -89.816658, "obsValid": true, "obsReviewed": false, "locationPrivate": true, "subId": "S287571220"}, {"speciesCode": "sonspa", "comName": "Song Sparrow", "sciName": "Melospiza melodia", "locId": "L16669555", "locName": "11096 Knoles Rd, Petersburg US-IL 39.91993, -89.81666", "obsDt": "2025-12-06 16:20", "howMany": 1, "lat": 39.919926, "lng": -89.816658, "obsValid": true, "obsReviewed": false, "locationPrivate": true, "subId": "S287571220"}, {"speciesCode": "norcar", "comName": "Northern Cardinal", "sciName": "Cardinalis cardinalis", "locId": "L16669555", "locName": "11096 Knoles Rd, Petersburg US-IL 39.91993, -89.81666", "obsDt": "2025-12-06 16:20", "howMany": 1, "lat": 39.919926, "lng": -89.816658, "obsValid": true, "obsReviewed": false, "locationPrivate": true, "subId": "S287571220"}, {"speciesCode": "cangoo", "comName": "Canada Goose", "sciName": "Branta canadensis", "locId": "L3737253", "locName": "Petersburg Sewage Pond (restricted access)", "obsDt": "2025-12-06 15:18", "howMany": 65, "lat": 40.01524, "lng": -89.83975, "obsValid": true, "obsReviewed": false, "locationPrivate": false, "subId": "S287562039"}, {"speciesCode": "haiwoo", "comName": "Hairy Woodpecker", "sciName": "Leuconotopicus villosus", "locId": "L3737253", "locName": "Petersburg Sewage Pond (restricted access)", "obsDt": "2025-12-06 15:18", "howMany": 1, "lat": 40.01524, "lng": -89.83975, "obsValid": true, "obsReviewed": false, "locationPrivate": false, "subId": "S287562039"}, {"speciesCode": "pilwoo", "comName": "Pileated Woodpecker", "sciName": "Dryocopus pileatus", "locId": "L3737253", "locName": "Petersburg Sewage Pond (restricted access)", "obsDt": "2025-12-06 15:18", "howMany": 1, "lat": 40.01524, "lng": -89.83975, "obsValid": true, "obsReviewed": false, "locationPrivate": false, "subId": "S287562039"}, {"speciesCode": "norfli", "comName": "Northern Flicker", "sciName": "Colaptes auratus", "locId": "L3737253", "locName": "Petersburg Sewage Pond (restricted access)", "obsDt": "2025-12-06 15:18", "howMany": 1, "lat": 40.01524, "lng": -89.83975, "obsValid": true, "obsReviewed": false, "locationPrivate": false, "subId": "S287562039"}, {"speciesCode": "amecro", "comName": "American Crow", "sciName": "Corvus brachyrhynchos", "locId": "L3737253", "locName": "Petersburg Sewage Pond (restricted access)", "obsDt": "2025-12-06 15:18", "howMany": 2, "lat": 40.01524, "lng": -89.83975, "obsValid": true, "obsReviewed": false, "locationPrivate": false, "subId": "S287562039"}, {"speciesCode": "moudov", "comName": "Mourning Dove", "sciName": "Zenaida macroura", "locId": "L21850159", "locName": "Indian Point Road Pasture", "obsDt": "2025-12-06 15:07", "howMany": 4, "lat": 40.000678, "lng": -89.766444, "obsValid": true, "obsReviewed": false, "locationPrivate": true, "subId": "S287558983"}, {"speciesCode": "horlar", "comName": "Horned Lark", "sciName": "Eremophila alpestris", "locId": "L21850159", "locName": "Indian Point Road Pasture", "obsDt": "2025-12-06 15:07", "howMany": 8, "lat": 40.000678, "lng": -89.766444, "obsValid": true, "obsReviewed": false, "locationPrivate": true, "subId": "S287558983"}, {"speciesCode": "amtspa", "comName": "American Tree Sparrow", "sciName": "Spizelloides arborea", "locId": "L21850159", "locName": "Indian Point Road Pasture", "obsDt": "2025-12-06 15:07", "howMany": 2, "lat": 40.000678, "lng": -89.766444, "obsValid": true, "obsReviewed": false, "locationPrivate": true, "subId": "S287558983"}, {"speciesCode": "whcspa", "comName": "White-crowned Sparrow", "sciName": "Zonotrichia leucophrys", "locId": "L21850159", "locName": "Indian Point Road Pasture", "obsDt": "2025-12-06 15:07", "howMany": 6, "lat": 40.000678, "lng": -89.766444, "obsValid": true, "obsReviewed": false, "locationPrivate": true, "subId": "S287558983"}, {"speciesCode": "snogoo", "comName": "Snow Goose", "sciName": "Anser caerulescens", "locId": "L28970787", "locName": "Kincaid St. Pond, Athens", "obsDt": "2025-12-06 14:45", "howMany": 12, "lat": 40.00004, "lng": -89.70169, "obsValid": true, "obsReviewed": false, "locationPrivate": false, "subId": "S287557417"}, {"speciesCode": "gwfgoo", "comName": "Greater White-fronted Goose", "sciName": "Anser albifrons", "locId": "L28970787", "locName": "Kincaid St. Pond, Athens", "obsDt": "2025-12-06 14:45", "howMany": 700, "lat": 40.00004, "lng": -89.70169, "obsValid": true, "obsReviewed": false, "locationPrivate": false, "subId": "S287557417"}, {"speciesCode": "gadwal", "comName": "Gadwall", "sciName": "Mareca strepera", "locId": "L28970787", "locName": "Kincaid St. Pond, Athens", "obsDt": "2025-12-06 14:45", "howMany": 10, "lat": 40.00004, "lng": -89.70169, "obsValid": true, "obsReviewed": false, "locationPrivate": false, "subId": "S287557417"}, {"speciesCode": "mallar3", "comName": "Mallard", "sciName": "Anas platyrhynchos", "locId": "L28970787", "locName": "Kincaid St. Pond, Athens", "obsDt": "2025-12-06 14:45", "howMany": 50, "lat": 40.00004, "lng": -89.70169, "obsValid": true, "obsReviewed": false, "locationPrivate": false, "subId": "S287557417"}, {"speciesCode": "coohaw", "comName": "Cooper's Hawk", "sciName": "Astur cooperii", "locId": "L28970787", "locName": "Kincaid St. Pond, Athens", "obsDt": "2025-12-06 14:45", "howMany": 1, "lat": 40.00004, "lng": -89.70169, "obsValid": true, "obsReviewed": false, "locationPrivate": false, "subId": "S287557417"}, {"speciesCode": "baleag", "comName": "Bald Eagle", "sciName": "Haliaeetus leucocephalus", "locId": "L28970787", "locName": "Kincaid St. Pond, Athens", "obsDt": "2025-12-06 14:45", "howMany": 2, "lat": 40.00004, "lng": -89.70169, "obsValid": true, "obsReviewed": false, "locationPrivate": false, "subId": "S287557417"}, {"speciesCode": "norbob", "comName": "Northern Bobwhite", "sciName": "Colinus virginianus", "locId": "L55767145", "locName": "15200\u201315320 Jurgens Ave, Petersburg US-IL (40.0000,-89.9023)", "obsDt": "2025-12-06 13:31", "howMany": 13, "lat": 40.000001, "lng": -89.902251, "obsValid": true, "obsReviewed": false, "locationPrivate": true, "subId": "S287559782"}, {"speciesCode": "norhar2", "comName": "Northern Harrier", "sciName": "Circus hudsonius", "locId": "L55767145", "locName": "15200\u201315320 Jurgens Ave, Petersburg US-IL (40.0000,-89.9023)", "obsDt": "2025-12-06 13:31", "howMany": 1, "lat": 40.000001, "lng": -89.902251, "obsValid": true, "obsReviewed": false, "locationPrivate": true, "subId": "S287559782"}, {"speciesCode": "easmea", "comName": "Eastern Meadowlark", "sciName": "Sturnella magna", "locId": "L55767145", "locName": "15200\u201315320 Jurgens Ave, Petersburg US-IL (40.0000,-89.9023)", "obsDt": "2025-12-06 13:31", "howMany": 1, "lat": 40.000001, "lng": -89.902251, "obsValid": true, "obsReviewed": false, "locationPrivate": true, "subId": "S287559782"}, {"speciesCode": "eursta", "comName": "European Starling", "sciName": "Sturnus vulgaris", "locId": "L3053939", "locName": "Lake Petersburg", "obsDt": "2025-12-06 13:26", "howMany": 2, "lat": 39.9861303, "lng": -89.8554397, "obsValid": true, "obsReviewed": false, "locationPrivate": false, "subId": "S287559684", "exoticCategory": "N"}, {"speciesCode": "killde", "comName": "Killdeer", "sciName": "Charadrius vociferus", "locId": "L28973117", "locName": "Lincoln\u2019s New Salem State Historic Site--Sangamon River Access", "obsDt": "2025-12-06 13:01", "howMany": 1, "lat": 39.969236, "lng": -89.830481, "obsValid": true, "obsReviewed": false, "locationPrivate": false, "subId": "S287559609"}, {"speciesCode": "carwre", "comName": "Carolina Wren", "sciName": "Thryothorus ludovicianus", "locId": "L28973117", "locName": "Lincoln\u2019s New Salem State Historic Site--Sangamon River Access", "obsDt": "2025-12-06 13:01", "howMany": 1, "lat": 39.969236, "lng": -89.830481, "obsValid": true, "obsReviewed": false, "locationPrivate": false, "subId": "S287559609"}, {"speciesCode": "amekes", "comName": "American Kestrel", "sciName": "Falco sparverius", "locId": "L55767039", "locName": "22758 Derry Ave, Athens US-IL 39.98307, -89.75714", "obsDt": "2025-12-06 12:52", "howMany": 2, "lat": 39.983068, "lng": -89.757137, "obsValid": true, "obsReviewed": false, "locationPrivate": true, "subId": "S287559306"}, {"speciesCode": "blujay", "comName": "Blue Jay", "sciName": "Cyanocitta cristata", "locId": "L55767079", "locName": "25386\u201325492 Quarry Ave, Athens US-IL (40.0045,-89.7050)", "obsDt": "2025-12-06 12:33", "howMany": 1, "lat": 40.004528, "lng": -89.70496, "obsValid": true, "obsReviewed": false, "locationPrivate": true, "subId": "S287559496"}, {"speciesCode": "eutspa", "comName": "Eurasian Tree Sparrow", "sciName": "Passer montanus", "locId": "L55767079", "locName": "25386\u201325492 Quarry Ave, Athens US-IL (40.0045,-89.7050)", "obsDt": "2025-12-06 12:33", "howMany": 15, "lat": 40.004528, "lng": -89.70496, "obsValid": true, "obsReviewed": false, "locationPrivate": true, "subId": "S287559496", "exoticCategory": "N"}, {"speciesCode": "laplon", "comName": "Lapland Longspur", "sciName": "Calcarius lapponicus", "locId": "L55766974", "locName": "16668\u201316998 Engel St, Athens US-IL 39.99994, -89.67523", "obsDt": "2025-12-06 12:25", "howMany": 4, "lat": 39.999937, "lng": -89.675232, "obsValid": true, "obsReviewed": false, "locationPrivate": true, "subId": "S287558684"}, {"speciesCode": "truswa", "comName": "Trumpeter Swan", "sciName": "Cygnus buccinator", "locId": "L31441200", "locName": "Shanghi Ave.", "obsDt": "2025-12-06 12:01", "howMany": 158, "lat": 39.989977, "lng": -89.685421, "obsValid": true, "obsReviewed": true, "locationPrivate": false, "subId": "S287558427"}, {"speciesCode": "amepip", "comName": "American Pipit", "sciName": "Anthus rubescens", "locId": "L55766861", "locName": "Shanghi Ave, Athens US-IL 39.98991, -89.69177", "obsDt": "2025-12-06 12:01", "howMany": 2, "lat": 39.989911, "lng": -89.691766, "obsValid": true, "obsReviewed": false, "locationPrivate": true, "subId": "S287558166"}, {"speciesCode": "amewig", "comName": "American Wigeon", "sciName": "Mareca americana", "locId": "L28970787", "locName": "Kincaid St. Pond, Athens", "obsDt": "2025-12-06 11:10", "howMany": 23, "lat": 40.00004, "lng": -89.70169, "obsValid": true, "obsReviewed": false, "locationPrivate": false, "subId": "S287558101"}, {"speciesCode": "gnwtea", "comName": "Green-winged Teal", "sciName": "Anas crecca", "locId": "L28970787", "locName": "Kincaid St. Pond, Athens", "obsDt": "2025-12-06 11:10", "howMany": 10, "lat": 40.00004, "lng": -89.70169, "obsValid": true, "obsReviewed": false, "locationPrivate": false, "subId": "S287558101"}, {"speciesCode": "lessca", "comName": "Lesser Scaup", "sciName": "Aythya affinis", "locId": "L28970787", "locName": "Kincaid St. Pond, Athens", "obsDt": "2025-12-06 11:10", "howMany": 1, "lat": 40.00004, "lng": -89.70169, "obsValid": true, "obsReviewed": false, "locationPrivate": false, "subId": "S287558101"}, {"speciesCode": "comgol", "comName": "Common Goldeneye", "sciName": "Bucephala clangula", "locId": "L28970787", "locName": "Kincaid St. Pond, Athens", "obsDt": "2025-12-06 11:10", "howMany": 12, "lat": 40.00004, "lng": -89.70169, "obsValid": true, "obsReviewed": false, "locationPrivate": false, "subId": "S287558101"}, {"speciesCode": "ribgul", "comName": "Ring-billed Gull", "sciName": "Larus delawarensis", "locId": "L28970787", "locName": "Kincaid St. Pond, Athens", "obsDt": "2025-12-06 11:10", "howMany": 1, "lat": 40.00004, "lng": -89.70169, "obsValid": true, "obsReviewed": false, "locationPrivate": false, "subId": "S287558101"}, {"speciesCode": "amerob", "comName": "American Robin", "sciName": "Turdus migratorius", "locId": "L28970787", "locName": "Kincaid St. Pond, Athens", "obsDt": "2025-12-06 11:10", "howMany": 1, "lat": 40.00004, "lng": -89.70169, "obsValid": true, "obsReviewed": false, "locationPrivate": false, "subId": "S287558101"}, {"speciesCode": "amegfi", "comName": "American Goldfinch", "sciName": "Spinus tristis", "locId": "L28970787", "locName": "Kincaid St. Pond, Athens", "obsDt": "2025-12-06 11:10", "howMany": 1, "lat": 40.00004, "lng": -89.70169, "obsValid": true, "obsReviewed": false, "locationPrivate": false, "subId": "S287558101"}, {"speciesCode": "snobun", "comName": "Snow Bunting", "sciName": "Plectrophenax nivalis", "locId": "L55766831", "locName": "Shanghi Ave, Athens US-IL (39.9896,-89.7126)", "obsDt": "2025-12-06 11:03", "howMany": 1, "lat": 39.989616, "lng": -89.712641, "obsValid": true, "obsReviewed": false, "locationPrivate": true, "subId": "S287558070"}, {"speciesCode": "belkin1", "comName": "Belted Kingfisher", "sciName": "Megaceryle alcyon", "locId": "L31445463", "locName": "Gudgel Rd. Bridge", "obsDt": "2025-12-06 10:30", "howMany": 1, "lat": 39.946446, "lng": -89.765771, "obsValid": true, "obsReviewed": false, "locationPrivate": false, "subId": "S287558026"}, {"speciesCode": "tuftit", "comName": "Tufted Titmouse", "sciName": "Baeolophus bicolor", "locId": "L31445463", "locName": "Gudgel Rd. Bridge", "obsDt": "2025-12-06 10:30", "howMany": 4, "lat": 39.946446, "lng": -89.765771, "obsValid": true, "obsReviewed": false, "locationPrivate": false, "subId": "S287558026"}, {"speciesCode": "gockin", "comName": "Golden-crowned Kinglet", "sciName": "Regulus satrapa", "locId": "L31445463", "locName": "Gudgel Rd. Bridge", "obsDt": "2025-12-06 10:30", "howMany": 1, "lat": 39.946446, "lng": -89.765771, "obsValid": true, "obsReviewed": false, "locationPrivate": false, "subId": "S287558026"}, {"speciesCode": "whbnut", "comName": "White-breasted Nuthatch", "sciName": "Sitta carolinensis", "locId": "L31445463", "locName": "Gudgel Rd. Bridge", "obsDt": "2025-12-06 10:30", "howMany": 6, "lat": 39.946446, "lng": -89.765771, "obsValid": true, "obsReviewed": false, "locationPrivate": false, "subId": "S287558026"}, {"speciesCode": "brncre", "comName": "Brown Creeper", "sciName": "Certhia americana", "locId": "L31445463", "locName": "Gudgel Rd. Bridge", "obsDt": "2025-12-06 10:30", "howMany": 2, "lat": 39.946446, "lng": -89.765771, "obsValid": true, "obsReviewed": false, "locationPrivate": false, "subId": "S287558026"}, {"speciesCode": "easblu", "comName": "Eastern Bluebird", "sciName": "Sialia sialis", "locId": "L31445463", "locName": "Gudgel Rd. Bridge", "obsDt": "2025-12-06 10:30", "howMany": 1, "lat": 39.946446, "lng": -89.765771, "obsValid": true, "obsReviewed": false, "locationPrivate": false, "subId": "S287558026"}, {"speciesCode": "reshaw", "comName": "Red-shouldered Hawk", "sciName": "Buteo lineatus", "locId": "L55767768", "locName": "504 N Robin Ct, Athens US-IL (39.9647,-89.7128)", "obsDt": "2025-12-06 10:20", "howMany": 1, "lat": 39.964748, "lng": -89.712837, "obsValid": true, "obsReviewed": false, "locationPrivate": true, "subId": "S287562855"}, {"speciesCode": "rethaw", "comName": "Red-tailed Hawk", "sciName": "Buteo jamaicensis", "locId": "L28973117", "locName": "Lincoln\u2019s New Salem State Historic Site--Sangamon River Access", "obsDt": "2025-12-06 09:36", "howMany": 1, "lat": 39.969236, "lng": -89.830481, "obsValid": true, "obsReviewed": false, "locationPrivate": false, "subId": "S287519894"}, {"speciesCode": "yebsap", "comName": "Yellow-bellied Sapsucker", "sciName": "Sphyrapicus varius", "locId": "L28973117", "locName": "Lincoln\u2019s New Salem State Historic Site--Sangamon River Access", "obsDt": "2025-12-06 09:36", "howMany": 2, "lat": 39.969236, "lng": -89.830481, "obsValid": true, "obsReviewed": false, "locationPrivate": false, "subId": "S287519894"}, {"speciesCode": "rehwoo", "comName": "Red-headed Woodpecker", "sciName": "Melanerpes erythrocephalus", "locId": "L28973117", "locName": "Lincoln\u2019s New Salem State Historic Site--Sangamon River Access", "obsDt": "2025-12-06 09:36", "howMany": 1, "lat": 39.969236, "lng": -89.830481, "obsValid": true, "obsReviewed": false, "locationPrivate": false, "subId": "S287519894"}, {"speciesCode": "winwre3", "comName": "Winter Wren", "sciName": "Troglodytes hiemalis", "locId": "L28973117", "locName": "Lincoln\u2019s New Salem State Historic Site--Sangamon River Access", "obsDt": "2025-12-06 09:36", "howMany": 1, "lat": 39.969236, "lng": -89.830481, "obsValid": true, "obsReviewed": false, "locationPrivate": false, "subId": "S287519894"}, {"speciesCode": "purfin", "comName": "Purple Finch", "sciName": "Haemorhous purpureus", "locId": "L28973117", "locName": "Lincoln\u2019s New Salem State Historic Site--Sangamon River Access", "obsDt": "2025-12-06 09:36", "howMany": 5, "lat": 39.969236, "lng": -89.830481, "obsValid": true, "obsReviewed": false, "locationPrivate": false, "subId": "S287519894"}, {"speciesCode": "comgra", "comName": "Common Grackle", "sciName": "Quiscalus quiscula", "locId": "L28973117", "locName": "Lincoln\u2019s New Salem State Historic Site--Sangamon River Access", "obsDt": "2025-12-06 09:36", "howMany": 1, "lat": 39.969236, "lng": -89.830481, "obsValid": true, "obsReviewed": false, "locationPrivate": false, "subId": "S287519894"}, {"speciesCode": "rocpig", "comName": "Rock Pigeon", "sciName": "Columba livia", "locId": "L55708789", "locName": "Western Loop (Reimer, Miller & Juergens)", "obsDt": "2025-12-06 09:07", "howMany": 3, "lat": 39.9866858, "lng": -89.9005382, "obsValid": true, "obsReviewed": false, "locationPrivate": true, "subId": "S287519227", "exoticCategory": "N"}, {"speciesCode": "grbher3", "comName": "Great Blue Heron", "sciName": "Ardea herodias", "locId": "L3053939", "locName": "Lake Petersburg", "obsDt": "2025-12-06 08:15", "howMany": 1, "lat": 39.9861303, "lng": -89.8554397, "obsValid": true, "obsReviewed": false, "locationPrivate": false, "subId": "S287491545"}, {"speciesCode": "rebnut", "comName": "Red-breasted Nuthatch", "sciName": "Sitta canadensis", "locId": "L3053939", "locName": "Lake Petersburg", "obsDt": "2025-12-06 08:15", "howMany": 1, "lat": 39.9861303, "lng": -89.8554397, "obsValid": true, "obsReviewed": false, "locationPrivate": false, "subId": "S287491545"}]