[{"speciesCode": "daejun", "comName": "Dark-eyed Junco", "sciName": "Junco hyemalis", "locId": "L21714967", "locName": "Feeder", "obsDt": "2025-12-15 15:52", "howMany": 3, "lat": 41.1644667, "lng": -87.8347419, "obsValid": true, "obsReviewed": false, "locationPrivate": true, "subId": "S291457153"}, {"speciesCode": "moudov", "comName": "Mourning Dove", "sciName": "Zenaida macroura", "locId": "L21714967", "locName": "Feeder", "obsDt": "2025-12-15 15:32", "howMany": 1, "lat": 41.1644667, "lng": -87.8347419, "obsValid": true, "obsReviewed": false, "locationPrivate": true, "subId": "S291456834"}, {"speciesCode": "amegfi", "comName": "American Goldfinch", "sciName": "Spinus tristis", "locId": "L21714967", "locName": "Feeder", "obsDt": "2025-12-15 15:27", "howMany": 1, "lat": 41.1644667, "lng": -87.8347419, "obsValid": true, "obsReviewed": false, "locationPrivate": true, "subId": "S291447342"}, {"speciesCode": "bkcchi", "comName": "Black-capped Chickadee", "sciName": "Poecile atricapillus", "locId": "L13765492", "locName": "Home", "obsDt": "2025-12-15 15:15", "howMany": 1, "lat": 41.164451, "lng": -87.835035, "obsValid": true, "obsReviewed": false, "locationPrivate": true, "subId": "S288757217"}, {"speciesCode": "houspa", "comName": "House Sparrow", "sciName": "Passer domesticus", "locId": "L13765492", "locName": "Home", "obsDt": "2025-12-15 15:15", "howMany": 5, "lat": 41.164451, "lng": -87.835035, "obsValid": true, "obsReviewed": false, "locationPrivate": true, "subId": "S288757217", "exoticCategory": "N"}, {"speciesCode": "houfin", "comName": "House Finch", "sciName": "Haemorhous mexicanus", "locId": "L13765492", "locName": "Home", "obsDt": "2025-12-15 15:15", "howMany": 2, "lat": 41.164451, "lng": -87.835035, "obsValid": true, "obsReviewed": false, "locationPrivate": true, "subId": "S288757217", "exoticCategory": "N"}, {"speciesCode": "redpol1", "comName": "Redpoll", "sciName": "Acanthis flammea", "locId": "L13765492", "locName": "Home", "obsDt": "2025-12-15 15:15", "howMany": 1, "lat": 41.164451, "lng": -87.835035, "obsValid": true, "obsReviewed": false, "locationPrivate": true, "subId": "S288757217"}, {"speciesCode": "pinsis", "comName": "Pine Siskin", "sciName": "Spinus pinus", "locId": "L13765492", "locName": "Home", "obsDt": "2025-12-15 15:15", "howMany": 1, "lat": 41.164451, "lng": -87.835035, "obsValid": true, "obsReviewed": false, "locationPrivate": true, "subId": "S288757217"}, {"speciesCode": "bnhcow", "comName": "Brown-headed Cowbird", "sciName": "Molothrus ater", "locId": "L13765492", "locName": "Home", "obsDt": "2025-12-15 15:15", "howMany": 2, "lat": 41.164451, "lng": -87.835035, "obsValid": true, "obsReviewed": false, "locationPrivate": true, "subId": "S288757217"}, {"speciesCode": "norcar", "comName": "Northern Cardinal", "sciName": "Cardinalis cardinalis", "locId": "L13765492", "locName": "Home", "obsDt": "2025-12-15 15:15", "howMany": 1, "lat": 41.164451, "lng": -87.835035, "obsValid": true, "obsReviewed": false, "locationPrivate": true, "subId": "S288757217"}, {"speciesCode": "dowwoo", "comName": "Downy Woodpecker", "sciName": "Dryobates pubescens", "locId": "L13505158", "locName": "Bird Nerd", "obsDt": "2025-12-15 12:06", "howMany": 1, "lat": 41.1084502, "lng": -87.9512693, "obsValid": true, "obsReviewed": false, "locationPrivate": true, "subId": "S288784855"}, {"speciesCode": "pilwoo", "comName": "Pileated Woodpecker", "sciName": "Dryocopus pileatus", "locId": "L13505158", "locName": "Bird Nerd", "obsDt": "2025-12-15 12:06", "howMany": 1, "lat": 41.1084502, "lng": -87.9512693, "obsValid": true, "obsReviewed": false, "locationPrivate": true, "subId": "S288784855"}, {"speciesCode": "blujay", "comName": "Blue Jay", "sciName": "Cyanocitta cristata", "locId": "L13505158", "locName": "Bird Nerd", "obsDt": "2025-12-15 12:06", "howMany": 2, "lat": 41.1084502, "lng": -87.9512693, "obsValid": true, "obsReviewed": false, "locationPrivate": true, "subId": "S288784855"}, {"speciesCode": "tuftit", "comName": "Tufted Titmouse", "sciName": "Baeolophus bicolor", "locId": "L13505158", "locName": "Bird Nerd", "obsDt": "2025-12-15 12:06", "howMany": 1, "lat": 41.1084502, "lng": -87.9512693, "obsValid": true, "obsReviewed": false, "locationPrivate": true, "subId": "S288784855"}, {"speciesCode": "whbnut", "comName": "White-breasted Nuthatch", "sciName": "Sitta carolinensis", "locId": "L13505158", "locName": "Bird Nerd", "obsDt": "2025-12-15 12:06", "howMany": 1, "lat": 41.1084502, "lng": -87.9512693, "obsValid": true, "obsReviewed": false, "locationPrivate": true, "subId": "S288784855"}, {"speciesCode": "whtspa", "comName": "White-throated Sparrow", "sciName": "Zonotrichia albicollis", "locId": "L13505158", "locName": "Bird Nerd", "obsDt": "2025-12-15 12:06", "howMany": 2, "lat": 41.1084502, "lng": -87.9512693, "obsValid": true, "obsReviewed": false, "locationPrivate": true, "subId": "S288784855"}, {"speciesCode": "comgra", "comName": "Common Grackle", "sciName": "Quiscalus quiscula", "locId": "L13505158", "locName": "Bird Nerd", "obsDt": "2025-12-15 12:06", "howMany": 24, "lat": 41.1084502, "lng": -87.9512693, "obsValid": true, "obsReviewed": false, "locationPrivate": true, "subId": "S288784855"}, {"speciesCode": "amtspa", "comName": "American Tree Sparrow", "sciName": "Spizelloides arborea", "locId": "L13765492", "locName": "Home", "obsDt": "2025-12-15 11:40", "howMany": 1, "lat": 41.164451, "lng": -87.835035, "obsValid": true, "obsReviewed": false, "locationPrivate": true, "subId": "S288835560"}, {"speciesCode": "perfal", "comName": "Peregrine Falcon", "sciName": "Falco peregrinus", "locId": "L41672654", "locName": "Hobby Lobby", "obsDt": "2025-12-15 11:20", "howMany": 1, "lat": 41.161264, "lng": -87.848731, "obsValid": true, "obsReviewed": false, "locationPrivate": true, "subId": "S288726543"}, {"speciesCode": "rebwoo", "comName": "Red-bellied Woodpecker", "sciName": "Melanerpes carolinus", "locId": "L11202018", "locName": "Home", "obsDt": "2025-12-15 11:19", "howMany": 1, "lat": 41.190515, "lng": -87.9604199, "obsValid": true, "obsReviewed": false, "locationPrivate": true, "subId": "S288753399"}, {"speciesCode": "shshaw", "comName": "Sharp-shinned Hawk", "sciName": "Accipiter striatus", "locId": "L13765492", "locName": "Home", "obsDt": "2025-12-15 08:05", "howMany": 1, "lat": 41.164451, "lng": -87.835035, "obsValid": true, "obsReviewed": false, "locationPrivate": true, "subId": "S288712659"}, {"speciesCode": "sonspa", "comName": "Song Sparrow", "sciName": "Melospiza melodia", "locId": "L13765492", "locName": "Home", "obsDt": "2025-12-15 08:05", "howMany": 1, "lat": 41.164451, "lng": -87.835035, "obsValid": true, "obsReviewed": false, "locationPrivate": true, "subId": "S288712659"}]