[{"speciesCode": "grhowl", "comName": "Great Horned Owl", "sciName": "Bubo virginianus", "locId": "L126348", "locName": "Lyman Woods Forest Preserve", "obsDt": "2025-12-14 16:52", "howMany": 1, "lat": 41.8295475, "lng": -88.0086934, "obsValid": true, "obsReviewed": false, "locationPrivate": false, "subId": "S288642349"}, {"speciesCode": "moudov", "comName": "Mourning Dove", "sciName": "Zenaida macroura", "locId": "L55988517", "locName": "Stevenson Expy, Burr Ridge US-IL 41.75620, -87.91741", "obsDt": "2025-12-14 16:43", "howMany": 1, "lat": 41.756204, "lng": -87.917408, "obsValid": true, "obsReviewed": false, "locationPrivate": true, "subId": "S288638532"}, {"speciesCode": "easowl1", "comName": "Eastern Screech-Owl", "sciName": "Megascops asio", "locId": "L55988738", "locName": "Fullersburg Woods, Oak Brook US-IL 41.83112, -87.93315", "obsDt": "2025-12-14 16:42", "howMany": 2, "lat": 41.831124, "lng": -87.933152, "obsValid": true, "obsReviewed": false, "locationPrivate": true, "subId": "S288639695"}, {"speciesCode": "mallar3", "comName": "Mallard", "sciName": "Anas platyrhynchos", "locId": "L17138772", "locName": "Clarendon Hills Cemetery", "obsDt": "2025-12-14 15:58", "howMany": 11, "lat": 41.7629278, "lng": -87.9801056, "obsValid": true, "obsReviewed": false, "locationPrivate": false, "subId": "S288633295"}, {"speciesCode": "bkcchi", "comName": "Black-capped Chickadee", "sciName": "Poecile atricapillus", "locId": "L17138772", "locName": "Clarendon Hills Cemetery", "obsDt": "2025-12-14 15:58", "howMany": 4, "lat": 41.7629278, "lng": -87.9801056, "obsValid": true, "obsReviewed": false, "locationPrivate": false, "subId": "S288633295"}, {"speciesCode": "daejun", "comName": "Dark-eyed Junco", "sciName": "Junco hyemalis", "locId": "L17138772", "locName": "Clarendon Hills Cemetery", "obsDt": "2025-12-14 15:58", "howMany": 3, "lat": 41.7629278, "lng": -87.9801056, "obsValid": true, "obsReviewed": false, "locationPrivate": false, "subId": "S288633295"}, {"speciesCode": "cangoo", "comName": "Canada Goose", "sciName": "Branta canadensis", "locId": "L4878649", "locName": "Patriots Park/Barth Pond", "obsDt": "2025-12-14 15:49", "howMany": 6, "lat": 41.7868458, "lng": -87.9988468, "obsValid": true, "obsReviewed": false, "locationPrivate": false, "subId": "S288630534"}, {"speciesCode": "sancra", "comName": "Sandhill Crane", "sciName": "Antigone canadensis", "locId": "L10370171", "locName": "Back yard near Veterans Park", "obsDt": "2025-12-14 15:45", "howMany": 25, "lat": 41.760392, "lng": -88.14322, "obsValid": true, "obsReviewed": false, "locationPrivate": true, "subId": "S288634199"}, {"speciesCode": "norshr4", "comName": "Northern Shrike", "sciName": "Lanius borealis", "locId": "L152717", "locName": "Songbird Slough Forest Preserve", "obsDt": "2025-12-14 15:40", "howMany": 1, "lat": 41.9578, "lng": -88.0105, "obsValid": true, "obsReviewed": false, "locationPrivate": false, "subId": "S288669966"}, {"speciesCode": "rebnut", "comName": "Red-breasted Nuthatch", "sciName": "Sitta canadensis", "locId": "L2366453", "locName": "home", "obsDt": "2025-12-14 15:30", "howMany": 1, "lat": 41.7296415, "lng": -88.1104052, "obsValid": true, "obsReviewed": false, "locationPrivate": true, "subId": "S288914648"}, {"speciesCode": "dowwoo", "comName": "Downy Woodpecker", "sciName": "Dryobates pubescens", "locId": "L16683002", "locName": "The Moth House", "obsDt": "2025-12-14 15:17", "howMany": 1, "lat": 41.7810035, "lng": -88.0201703, "obsValid": true, "obsReviewed": false, "locationPrivate": true, "subId": "S288911508"}, {"speciesCode": "houspa", "comName": "House Sparrow", "sciName": "Passer domesticus", "locId": "L16683002", "locName": "The Moth House", "obsDt": "2025-12-14 15:17", "howMany": 21, "lat": 41.7810035, "lng": -88.0201703, "obsValid": true, "obsReviewed": false, "locationPrivate": true, "subId": "S288911508", "exoticCategory": "N"}, {"speciesCode": "houfin", "comName": "House Finch", "sciName": "Haemorhous mexicanus", "locId": "L16683002", "locName": "The Moth House", "obsDt": "2025-12-14 15:17", "howMany": 3, "lat": 41.7810035, "lng": -88.0201703, "obsValid": true, "obsReviewed": false, "locationPrivate": true, "subId": "S288911508", "exoticCategory": "N"}, {"speciesCode": "whtspa", "comName": "White-throated Sparrow", "sciName": "Zonotrichia albicollis", "locId": "L16683002", "locName": "The Moth House", "obsDt": "2025-12-14 15:17", "howMany": 1, "lat": 41.7810035, "lng": -88.0201703, "obsValid": true, "obsReviewed": false, "locationPrivate": true, "subId": "S288911508"}, {"speciesCode": "norcar", "comName": "Northern Cardinal", "sciName": "Cardinalis cardinalis", "locId": "L16683002", "locName": "The Moth House", "obsDt": "2025-12-14 15:17", "howMany": 4, "lat": 41.7810035, "lng": -88.0201703, "obsValid": true, "obsReviewed": false, "locationPrivate": true, "subId": "S288911508"}, {"speciesCode": "rethaw", "comName": "Red-tailed Hawk", "sciName": "Buteo jamaicensis", "locId": "L55987521", "locName": "Oakbrook Bath & Tennis Club", "obsDt": "2025-12-14 15:15", "howMany": 1, "lat": 41.8374871, "lng": -87.9372974, "obsValid": true, "obsReviewed": false, "locationPrivate": true, "subId": "S288633871"}, {"speciesCode": "rebwoo", "comName": "Red-bellied Woodpecker", "sciName": "Melanerpes carolinus", "locId": "L55987521", "locName": "Oakbrook Bath & Tennis Club", "obsDt": "2025-12-14 15:15", "howMany": 2, "lat": 41.8374871, "lng": -87.9372974, "obsValid": true, "obsReviewed": false, "locationPrivate": true, "subId": "S288633871"}, {"speciesCode": "haiwoo", "comName": "Hairy Woodpecker", "sciName": "Leuconotopicus villosus", "locId": "L55987521", "locName": "Oakbrook Bath & Tennis Club", "obsDt": "2025-12-14 15:15", "howMany": 1, "lat": 41.8374871, "lng": -87.9372974, "obsValid": true, "obsReviewed": false, "locationPrivate": true, "subId": "S288633871"}, {"speciesCode": "whbnut", "comName": "White-breasted Nuthatch", "sciName": "Sitta carolinensis", "locId": "L55987521", "locName": "Oakbrook Bath & Tennis Club", "obsDt": "2025-12-14 15:15", "howMany": 2, "lat": 41.8374871, "lng": -87.9372974, "obsValid": true, "obsReviewed": false, "locationPrivate": true, "subId": "S288633871"}, {"speciesCode": "amerob", "comName": "American Robin", "sciName": "Turdus migratorius", "locId": "L55987521", "locName": "Oakbrook Bath & Tennis Club", "obsDt": "2025-12-14 15:15", "howMany": 1, "lat": 41.8374871, "lng": -87.9372974, "obsValid": true, "obsReviewed": false, "locationPrivate": true, "subId": "S288633871"}, {"speciesCode": "mutswa", "comName": "Mute Swan", "sciName": "Cygnus olor", "locId": "L2717205", "locName": "Centennial Trail--West of Route 83 (DuPage Co.)", "obsDt": "2025-12-14 15:08", "howMany": 6, "lat": 41.6877722, "lng": -87.9814202, "obsValid": true, "obsReviewed": false, "locationPrivate": false, "subId": "S288644691", "exoticCategory": "N"}, {"speciesCode": "truswa", "comName": "Trumpeter Swan", "sciName": "Cygnus buccinator", "locId": "L2717205", "locName": "Centennial Trail--West of Route 83 (DuPage Co.)", "obsDt": "2025-12-14 15:08", "howMany": 3, "lat": 41.6877722, "lng": -87.9814202, "obsValid": true, "obsReviewed": false, "locationPrivate": false, "subId": "S288644691"}, {"speciesCode": "ambduc", "comName": "American Black Duck", "sciName": "Anas rubripes", "locId": "L2717205", "locName": "Centennial Trail--West of Route 83 (DuPage Co.)", "obsDt": "2025-12-14 15:08", "howMany": 1, "lat": 41.6877722, "lng": -87.9814202, "obsValid": true, "obsReviewed": false, "locationPrivate": false, "subId": "S288644691"}, {"speciesCode": "comgol", "comName": "Common Goldeneye", "sciName": "Bucephala clangula", "locId": "L2717205", "locName": "Centennial Trail--West of Route 83 (DuPage Co.)", "obsDt": "2025-12-14 15:08", "howMany": 10, "lat": 41.6877722, "lng": -87.9814202, "obsValid": true, "obsReviewed": false, "locationPrivate": false, "subId": "S288644691"}, {"speciesCode": "eursta", "comName": "European Starling", "sciName": "Sturnus vulgaris", "locId": "L2717205", "locName": "Centennial Trail--West of Route 83 (DuPage Co.)", "obsDt": "2025-12-14 15:08", "howMany": 1, "lat": 41.6877722, "lng": -87.9814202, "obsValid": true, "obsReviewed": false, "locationPrivate": false, "subId": "S288644691", "exoticCategory": "N"}, {"speciesCode": "blujay", "comName": "Blue Jay", "sciName": "Cyanocitta cristata", "locId": "L3221113", "locName": "neighborhood SE of Lyman Woods", "obsDt": "2025-12-14 14:54", "howMany": 3, "lat": 41.8221619, "lng": -88.0002952, "obsValid": true, "obsReviewed": false, "locationPrivate": true, "subId": "S288628434"}, {"speciesCode": "amegfi", "comName": "American Goldfinch", "sciName": "Spinus tristis", "locId": "L3221113", "locName": "neighborhood SE of Lyman Woods", "obsDt": "2025-12-14 14:54", "howMany": 1, "lat": 41.8221619, "lng": -88.0002952, "obsValid": true, "obsReviewed": false, "locationPrivate": true, "subId": "S288628434"}, {"speciesCode": "amtspa", "comName": "American Tree Sparrow", "sciName": "Spizelloides arborea", "locId": "L1522012", "locName": "Morton Arboretum Area 14", "obsDt": "2025-12-14 14:54", "howMany": 8, "lat": 41.819827, "lng": -88.0835625, "obsValid": true, "obsReviewed": false, "locationPrivate": true, "subId": "S288629130"}, {"speciesCode": "foxspa", "comName": "Fox Sparrow", "sciName": "Passerella iliaca", "locId": "L3221113", "locName": "neighborhood SE of Lyman Woods", "obsDt": "2025-12-14 14:54", "howMany": 1, "lat": 41.8221619, "lng": -88.0002952, "obsValid": true, "obsReviewed": false, "locationPrivate": true, "subId": "S288628434"}, {"speciesCode": "sonspa", "comName": "Song Sparrow", "sciName": "Melospiza melodia", "locId": "L1522012", "locName": "Morton Arboretum Area 14", "obsDt": "2025-12-14 14:54", "howMany": 2, "lat": 41.819827, "lng": -88.0835625, "obsValid": true, "obsReviewed": false, "locationPrivate": true, "subId": "S288629130"}, {"speciesCode": "rewbla", "comName": "Red-winged Blackbird", "sciName": "Agelaius phoeniceus", "locId": "L3221113", "locName": "neighborhood SE of Lyman Woods", "obsDt": "2025-12-14 14:54", "howMany": 14, "lat": 41.8221619, "lng": -88.0002952, "obsValid": true, "obsReviewed": false, "locationPrivate": true, "subId": "S288628434"}, {"speciesCode": "wilsni1", "comName": "Wilson's Snipe", "sciName": "Gallinago delicata", "locId": "L15678745", "locName": "Des Plaines Riverway Forest Preserve", "obsDt": "2025-12-14 14:36", "howMany": 1, "lat": 41.710511, "lng": -87.931372, "obsValid": true, "obsReviewed": false, "locationPrivate": false, "subId": "S288642097"}, {"speciesCode": "grbher3", "comName": "Great Blue Heron", "sciName": "Ardea herodias", "locId": "L15678745", "locName": "Des Plaines Riverway Forest Preserve", "obsDt": "2025-12-14 14:36", "howMany": 1, "lat": 41.710511, "lng": -87.931372, "obsValid": true, "obsReviewed": false, "locationPrivate": false, "subId": "S288642097"}, {"speciesCode": "belkin1", "comName": "Belted Kingfisher", "sciName": "Megaceryle alcyon", "locId": "L15678745", "locName": "Des Plaines Riverway Forest Preserve", "obsDt": "2025-12-14 14:36", "howMany": 1, "lat": 41.710511, "lng": -87.931372, "obsValid": true, "obsReviewed": false, "locationPrivate": false, "subId": "S288642097"}, {"speciesCode": "rehwoo", "comName": "Red-headed Woodpecker", "sciName": "Melanerpes erythrocephalus", "locId": "L126348", "locName": "Lyman Woods Forest Preserve", "obsDt": "2025-12-14 14:36", "howMany": 1, "lat": 41.8295475, "lng": -88.0086934, "obsValid": true, "obsReviewed": false, "locationPrivate": false, "subId": "S288625398"}, {"speciesCode": "pilwoo", "comName": "Pileated Woodpecker", "sciName": "Dryocopus pileatus", "locId": "L15678745", "locName": "Des Plaines Riverway Forest Preserve", "obsDt": "2025-12-14 14:36", "howMany": 1, "lat": 41.710511, "lng": -87.931372, "obsValid": true, "obsReviewed": false, "locationPrivate": false, "subId": "S288642097"}, {"speciesCode": "norfli", "comName": "Northern Flicker", "sciName": "Colaptes auratus", "locId": "L126348", "locName": "Lyman Woods Forest Preserve", "obsDt": "2025-12-14 14:36", "howMany": 1, "lat": 41.8295475, "lng": -88.0086934, "obsValid": true, "obsReviewed": false, "locationPrivate": false, "subId": "S288625398"}, {"speciesCode": "ruckin", "comName": "Ruby-crowned Kinglet", "sciName": "Corthylio calendula", "locId": "L15678745", "locName": "Des Plaines Riverway Forest Preserve", "obsDt": "2025-12-14 14:36", "howMany": 1, "lat": 41.710511, "lng": -87.931372, "obsValid": true, "obsReviewed": false, "locationPrivate": false, "subId": "S288642097"}, {"speciesCode": "winwre3", "comName": "Winter Wren", "sciName": "Troglodytes hiemalis", "locId": "L15678745", "locName": "Des Plaines Riverway Forest Preserve", "obsDt": "2025-12-14 14:36", "howMany": 2, "lat": 41.710511, "lng": -87.931372, "obsValid": true, "obsReviewed": false, "locationPrivate": false, "subId": "S288642097"}, {"speciesCode": "cedwax", "comName": "Cedar Waxwing", "sciName": "Bombycilla cedrorum", "locId": "L15678745", "locName": "Des Plaines Riverway Forest Preserve", "obsDt": "2025-12-14 14:36", "howMany": 8, "lat": 41.710511, "lng": -87.931372, "obsValid": true, "obsReviewed": false, "locationPrivate": false, "subId": "S288642097"}, {"speciesCode": "coohaw", "comName": "Cooper's Hawk", "sciName": "Astur cooperii", "locId": "L633350", "locName": "Morton Arboretum--West Side", "obsDt": "2025-12-14 14:05", "howMany": 1, "lat": 41.8160414, "lng": -88.0836153, "obsValid": true, "obsReviewed": false, "locationPrivate": false, "subId": "S288627455"}, {"speciesCode": "whcspa", "comName": "White-crowned Sparrow", "sciName": "Zonotrichia leucophrys", "locId": "L633350", "locName": "Morton Arboretum--West Side", "obsDt": "2025-12-14 14:05", "howMany": 1, "lat": 41.8160414, "lng": -88.0836153, "obsValid": true, "obsReviewed": false, "locationPrivate": false, "subId": "S288627455"}, {"speciesCode": "amekes", "comName": "American Kestrel", "sciName": "Falco sparverius", "locId": "L4832020", "locName": "IL53/I355/Charles Ln.", "obsDt": "2025-12-14 13:53", "howMany": 1, "lat": 41.8762875, "lng": -88.0330664, "obsValid": true, "obsReviewed": false, "locationPrivate": true, "subId": "S288612321"}, {"speciesCode": "rocpig", "comName": "Rock Pigeon", "sciName": "Columba livia", "locId": "L8302732", "locName": "Woodridge (general)", "obsDt": "2025-12-14 13:45", "howMany": 12, "lat": 41.7501953, "lng": -88.040945, "obsValid": true, "obsReviewed": false, "locationPrivate": true, "subId": "S288618250", "exoticCategory": "N"}, {"speciesCode": "amecro", "comName": "American Crow", "sciName": "Corvus brachyrhynchos", "locId": "L33113213", "locName": "1420 Steeplechase Rd, Bartlett US-IL 41.95375, -88.20873", "obsDt": "2025-12-14 13:33", "howMany": 1, "lat": 41.953748, "lng": -88.208732, "obsValid": true, "obsReviewed": false, "locationPrivate": true, "subId": "S288635851"}, {"speciesCode": "baleag", "comName": "Bald Eagle", "sciName": "Haliaeetus leucocephalus", "locId": "L11948582", "locName": "Oak Grove Park Forest Preserve", "obsDt": "2025-12-14 13:32", "howMany": 1, "lat": 41.757377, "lng": -87.919566, "obsValid": true, "obsReviewed": false, "locationPrivate": false, "subId": "S288612121"}, {"speciesCode": "brdowl", "comName": "Barred Owl", "sciName": "Strix varia", "locId": "L3221107", "locName": "Lee Avenue west of Maple Grove", "obsDt": "2025-12-14 13:28", "howMany": 1, "lat": 41.7898147, "lng": -88.0275357, "obsValid": true, "obsReviewed": false, "locationPrivate": true, "subId": "S288617130"}, {"speciesCode": "tuftit", "comName": "Tufted Titmouse", "sciName": "Baeolophus bicolor", "locId": "L3221107", "locName": "Lee Avenue west of Maple Grove", "obsDt": "2025-12-14 13:28", "howMany": 2, "lat": 41.7898147, "lng": -88.0275357, "obsValid": true, "obsReviewed": false, "locationPrivate": true, "subId": "S288617130"}, {"speciesCode": "carwre", "comName": "Carolina Wren", "sciName": "Thryothorus ludovicianus", "locId": "L3221107", "locName": "Lee Avenue west of Maple Grove", "obsDt": "2025-12-14 13:28", "howMany": 1, "lat": 41.7898147, "lng": -88.0275357, "obsValid": true, "obsReviewed": false, "locationPrivate": true, "subId": "S288617130"}, {"speciesCode": "gockin", "comName": "Golden-crowned Kinglet", "sciName": "Regulus satrapa", "locId": "L1601685", "locName": "Waterfall Glen Forest Preserve", "obsDt": "2025-12-14 13:05", "howMany": 2, "lat": 41.7248682, "lng": -87.9736164, "obsValid": true, "obsReviewed": false, "locationPrivate": false, "subId": "S288645031"}, {"speciesCode": "herthr", "comName": "Hermit Thrush", "sciName": "Catharus guttatus", "locId": "L152646", "locName": "Greene Valley Forest Preserve", "obsDt": "2025-12-14 12:35", "howMany": 3, "lat": 41.7385, "lng": -88.0777, "obsValid": true, "obsReviewed": true, "locationPrivate": false, "subId": "S288635628"}, {"speciesCode": "yerwar", "comName": "Yellow-rumped Warbler", "sciName": "Setophaga coronata", "locId": "L152646", "locName": "Greene Valley Forest Preserve", "obsDt": "2025-12-14 12:35", "howMany": 2, "lat": 41.7385, "lng": -88.0777, "obsValid": true, "obsReviewed": false, "locationPrivate": false, "subId": "S288635628"}, {"speciesCode": "gadwal", "comName": "Gadwall", "sciName": "Mareca strepera", "locId": "L2717205", "locName": "Centennial Trail--West of Route 83 (DuPage Co.)", "obsDt": "2025-12-14 12:24", "howMany": 2, "lat": 41.6877722, "lng": -87.9814202, "obsValid": true, "obsReviewed": false, "locationPrivate": false, "subId": "S288596262"}, {"speciesCode": "brncre", "comName": "Brown Creeper", "sciName": "Certhia americana", "locId": "L131005", "locName": "Hidden Lake Forest Preserve", "obsDt": "2025-12-14 12:18", "howMany": 1, "lat": 41.8263833, "lng": -88.0535, "obsValid": true, "obsReviewed": false, "locationPrivate": false, "subId": "S288625986"}, {"speciesCode": "purfin", "comName": "Purple Finch", "sciName": "Haemorhous purpureus", "locId": "L4430204", "locName": "Wood Ridge Forest Preserve", "obsDt": "2025-12-14 12:10", "howMany": 1, "lat": 41.6901747, "lng": -88.0235982, "obsValid": true, "obsReviewed": false, "locationPrivate": false, "subId": "S288618409"}, {"speciesCode": "norsho", "comName": "Northern Shoveler", "sciName": "Spatula clypeata", "locId": "L2474921", "locName": "Downers Grove Sewage Treatment Plant", "obsDt": "2025-12-14 11:09", "howMany": 2, "lat": 41.7954519, "lng": -88.0493689, "obsValid": true, "obsReviewed": false, "locationPrivate": true, "subId": "S288588859"}, {"speciesCode": "killde", "comName": "Killdeer", "sciName": "Charadrius vociferus", "locId": "L152646", "locName": "Greene Valley Forest Preserve", "obsDt": "2025-12-14 09:17", "howMany": 1, "lat": 41.7385, "lng": -88.0777, "obsValid": true, "obsReviewed": false, "locationPrivate": false, "subId": "S288578476"}, {"speciesCode": "easblu", "comName": "Eastern Bluebird", "sciName": "Sialia sialis", "locId": "L4538370", "locName": "Morton Arboretum Area 2", "obsDt": "2025-12-14 09:15", "howMany": 7, "lat": 41.8202374, "lng": -88.0901921, "obsValid": true, "obsReviewed": false, "locationPrivate": true, "subId": "S288573345"}, {"speciesCode": "redpol1", "comName": "Redpoll", "sciName": "Acanthis flammea", "locId": "L4538370", "locName": "Morton Arboretum Area 2", "obsDt": "2025-12-14 09:15", "howMany": 1, "lat": 41.8202374, "lng": -88.0901921, "obsValid": true, "obsReviewed": false, "locationPrivate": true, "subId": "S288573345"}, {"speciesCode": "ribgul", "comName": "Ring-billed Gull", "sciName": "Larus delawarensis", "locId": "L55988253", "locName": "Centrepointe Of Woodridge, Woodridge US-IL (41.7511,-88.0316)", "obsDt": "2025-12-14 09:00", "howMany": 2, "lat": 41.751144, "lng": -88.031614, "obsValid": true, "obsReviewed": false, "locationPrivate": true, "subId": "S288637339"}, {"speciesCode": "wooduc", "comName": "Wood Duck", "sciName": "Aix sponsa", "locId": "L2717205", "locName": "Centennial Trail--West of Route 83 (DuPage Co.)", "obsDt": "2025-12-14 08:35", "howMany": 1, "lat": 41.6877722, "lng": -87.9814202, "obsValid": true, "obsReviewed": false, "locationPrivate": false, "subId": "S288617187"}, {"speciesCode": "commer", "comName": "Common Merganser", "sciName": "Mergus merganser", "locId": "L2717205", "locName": "Centennial Trail--West of Route 83 (DuPage Co.)", "obsDt": "2025-12-14 08:35", "howMany": 2, "lat": 41.6877722, "lng": -87.9814202, "obsValid": true, "obsReviewed": false, "locationPrivate": false, "subId": "S288617187"}, {"speciesCode": "amhgul1", "comName": "American Herring Gull", "sciName": "Larus smithsonianus", "locId": "L2717205", "locName": "Centennial Trail--West of Route 83 (DuPage Co.)", "obsDt": "2025-12-14 08:35", "howMany": 2, "lat": 41.6877722, "lng": -87.9814202, "obsValid": true, "obsReviewed": false, "locationPrivate": false, "subId": "S288617187"}, {"speciesCode": "norhar2", "comName": "Northern Harrier", "sciName": "Circus hudsonius", "locId": "L2717205", "locName": "Centennial Trail--West of Route 83 (DuPage Co.)", "obsDt": "2025-12-14 08:35", "howMany": 2, "lat": 41.6877722, "lng": -87.9814202, "obsValid": true, "obsReviewed": false, "locationPrivate": false, "subId": "S288617187"}, {"speciesCode": "swaspa", "comName": "Swamp Sparrow", "sciName": "Melospiza georgiana", "locId": "L2717205", "locName": "Centennial Trail--West of Route 83 (DuPage Co.)", "obsDt": "2025-12-14 08:35", "howMany": 1, "lat": 41.6877722, "lng": -87.9814202, "obsValid": true, "obsReviewed": false, "locationPrivate": false, "subId": "S288617187"}, {"speciesCode": "rolhaw", "comName": "Rough-legged Hawk", "sciName": "Buteo lagopus", "locId": "L3069895", "locName": "Greene Valley Forest Preserve", "obsDt": "2025-12-14 08:30", "howMany": 2, "lat": 41.73056, "lng": -88.07889, "obsValid": true, "obsReviewed": false, "locationPrivate": true, "subId": "S288626423"}, {"speciesCode": "comgra", "comName": "Common Grackle", "sciName": "Quiscalus quiscula", "locId": "L1481026", "locName": "Morton Arboretum Area 9", "obsDt": "2025-12-14 07:20", "howMany": 1, "lat": 41.817454, "lng": -88.0470674, "obsValid": true, "obsReviewed": false, "locationPrivate": true, "subId": "S288601508"}, {"speciesCode": "grycat", "comName": "Gray Catbird", "sciName": "Dumetella carolinensis", "locId": "L126348", "locName": "Lyman Woods Forest Preserve", "obsDt": "2025-12-14 06:58", "howMany": 1, "lat": 41.8295475, "lng": -88.0086934, "obsValid": true, "obsReviewed": true, "locationPrivate": false, "subId": "S288562766"}, {"speciesCode": "pinsis", "comName": "Pine Siskin", "sciName": "Spinus pinus", "locId": "L126348", "locName": "Lyman Woods Forest Preserve", "obsDt": "2025-12-14 06:58", "howMany": 1, "lat": 41.8295475, "lng": -88.0086934, "obsValid": true, "obsReviewed": false, "locationPrivate": false, "subId": "S288562766"}, {"speciesCode": "horlar", "comName": "Horned Lark", "sciName": "Eremophila alpestris", "locId": "L152637", "locName": "Fermilab (DuPage Co.)", "obsDt": "2025-12-14 06:50", "howMany": 3, "lat": 41.8395126, "lng": -88.2190218, "obsValid": true, "obsReviewed": false, "locationPrivate": false, "subId": "S288562239"}, {"speciesCode": "laplon", "comName": "Lapland Longspur", "sciName": "Calcarius lapponicus", "locId": "L152637", "locName": "Fermilab (DuPage Co.)", "obsDt": "2025-12-14 06:50", "howMany": 4, "lat": 41.8395126, "lng": -88.2190218, "obsValid": true, "obsReviewed": false, "locationPrivate": false, "subId": "S288562239"}]