[{"speciesCode": "pilwoo", "comName": "Pileated Woodpecker", "sciName": "Dryocopus pileatus", "locId": "L22851161", "locName": "Petersburg (in town)", "obsDt": "2025-12-03 16:30", "howMany": 1, "lat": 40.0096313, "lng": -89.8483674, "obsValid": true, "obsReviewed": false, "locationPrivate": true, "subId": "S287310887"}, {"speciesCode": "rebwoo", "comName": "Red-bellied Woodpecker", "sciName": "Melanerpes carolinus", "locId": "L15357968", "locName": "11096 Knoles Rd, Petersburg US-IL 39.91992, -89.81664", "obsDt": "2025-12-03 16:22", "howMany": 1, "lat": 39.919925, "lng": -89.816642, "obsValid": true, "obsReviewed": false, "locationPrivate": true, "subId": "S287210556"}, {"speciesCode": "dowwoo", "comName": "Downy Woodpecker", "sciName": "Dryobates pubescens", "locId": "L15357968", "locName": "11096 Knoles Rd, Petersburg US-IL 39.91992, -89.81664", "obsDt": "2025-12-03 16:22", "howMany": 2, "lat": 39.919925, "lng": -89.816642, "obsValid": true, "obsReviewed": false, "locationPrivate": true, "subId": "S287210556"}, {"speciesCode": "blujay", "comName": "Blue Jay", "sciName": "Cyanocitta cristata", "locId": "L15357968", "locName": "11096 Knoles Rd, Petersburg US-IL 39.91992, -89.81664", "obsDt": "2025-12-03 16:22", "howMany": 1, "lat": 39.919925, "lng": -89.816642, "obsValid": true, "obsReviewed": false, "locationPrivate": true, "subId": "S287210556"}, {"speciesCode": "tuftit", "comName": "Tufted Titmouse", "sciName": "Baeolophus bicolor", "locId": "L15357968", "locName": "11096 Knoles Rd, Petersburg US-IL 39.91992, -89.81664", "obsDt": "2025-12-03 16:22", "howMany": 1, "lat": 39.919925, "lng": -89.816642, "obsValid": true, "obsReviewed": false, "locationPrivate": true, "subId": "S287210556"}, {"speciesCode": "gockin", "comName": "Golden-crowned Kinglet", "sciName": "Regulus satrapa", "locId": "L15357968", "locName": "11096 Knoles Rd, Petersburg US-IL 39.91992, -89.81664", "obsDt": "2025-12-03 16:22", "howMany": 1, "lat": 39.919925, "lng": -89.816642, "obsValid": true, "obsReviewed": false, "locationPrivate": true, "subId": "S287210556"}, {"speciesCode": "carwre", "comName": "Carolina Wren", "sciName": "Thryothorus ludovicianus", "locId": "L15357968", "locName": "11096 Knoles Rd, Petersburg US-IL 39.91992, -89.81664", "obsDt": "2025-12-03 16:22", "howMany": 1, "lat": 39.919925, "lng": -89.816642, "obsValid": true, "obsReviewed": false, "locationPrivate": true, "subId": "S287210556"}, {"speciesCode": "amerob", "comName": "American Robin", "sciName": "Turdus migratorius", "locId": "L15357968", "locName": "11096 Knoles Rd, Petersburg US-IL 39.91992, -89.81664", "obsDt": "2025-12-03 16:22", "howMany": 1, "lat": 39.919925, "lng": -89.816642, "obsValid": true, "obsReviewed": false, "locationPrivate": true, "subId": "S287210556"}, {"speciesCode": "cedwax", "comName": "Cedar Waxwing", "sciName": "Bombycilla cedrorum", "locId": "L15357968", "locName": "11096 Knoles Rd, Petersburg US-IL 39.91992, -89.81664", "obsDt": "2025-12-03 16:22", "howMany": 2, "lat": 39.919925, "lng": -89.816642, "obsValid": true, "obsReviewed": false, "locationPrivate": true, "subId": "S287210556"}, {"speciesCode": "houspa", "comName": "House Sparrow", "sciName": "Passer domesticus", "locId": "L15357968", "locName": "11096 Knoles Rd, Petersburg US-IL 39.91992, -89.81664", "obsDt": "2025-12-03 16:22", "howMany": 5, "lat": 39.919925, "lng": -89.816642, "obsValid": true, "obsReviewed": false, "locationPrivate": true, "subId": "S287210556", "exoticCategory": "N"}, {"speciesCode": "houfin", "comName": "House Finch", "sciName": "Haemorhous mexicanus", "locId": "L15357968", "locName": "11096 Knoles Rd, Petersburg US-IL 39.91992, -89.81664", "obsDt": "2025-12-03 16:22", "howMany": 4, "lat": 39.919925, "lng": -89.816642, "obsValid": true, "obsReviewed": false, "locationPrivate": true, "subId": "S287210556", "exoticCategory": "N"}, {"speciesCode": "foxspa", "comName": "Fox Sparrow", "sciName": "Passerella iliaca", "locId": "L15357968", "locName": "11096 Knoles Rd, Petersburg US-IL 39.91992, -89.81664", "obsDt": "2025-12-03 16:22", "howMany": 1, "lat": 39.919925, "lng": -89.816642, "obsValid": true, "obsReviewed": false, "locationPrivate": true, "subId": "S287210556"}, {"speciesCode": "daejun", "comName": "Dark-eyed Junco", "sciName": "Junco hyemalis", "locId": "L15357968", "locName": "11096 Knoles Rd, Petersburg US-IL 39.91992, -89.81664", "obsDt": "2025-12-03 16:22", "howMany": 2, "lat": 39.919925, "lng": -89.816642, "obsValid": true, "obsReviewed": false, "locationPrivate": true, "subId": "S287210556"}, {"speciesCode": "whtspa", "comName": "White-throated Sparrow", "sciName": "Zonotrichia albicollis", "locId": "L15357968", "locName": "11096 Knoles Rd, Petersburg US-IL 39.91992, -89.81664", "obsDt": "2025-12-03 16:22", "howMany": 1, "lat": 39.919925, "lng": -89.816642, "obsValid": true, "obsReviewed": false, "locationPrivate": true, "subId": "S287210556"}, {"speciesCode": "rewbla", "comName": "Red-winged Blackbird", "sciName": "Agelaius phoeniceus", "locId": "L15357968", "locName": "11096 Knoles Rd, Petersburg US-IL 39.91992, -89.81664", "obsDt": "2025-12-03 16:22", "howMany": 1, "lat": 39.919925, "lng": -89.816642, "obsValid": true, "obsReviewed": false, "locationPrivate": true, "subId": "S287210556"}, {"speciesCode": "norcar", "comName": "Northern Cardinal", "sciName": "Cardinalis cardinalis", "locId": "L15357968", "locName": "11096 Knoles Rd, Petersburg US-IL 39.91992, -89.81664", "obsDt": "2025-12-03 16:22", "howMany": 3, "lat": 39.919925, "lng": -89.816642, "obsValid": true, "obsReviewed": false, "locationPrivate": true, "subId": "S287210556"}, {"speciesCode": "merlin", "comName": "Merlin", "sciName": "Falco columbarius", "locId": "L6353511", "locName": "494 Yard, Lake Petersburg", "obsDt": "2025-12-03 16:15", "howMany": 1, "lat": 39.9845271, "lng": -89.8623276, "obsValid": true, "obsReviewed": false, "locationPrivate": true, "subId": "S287210896"}, {"speciesCode": "amecro", "comName": "American Crow", "sciName": "Corvus brachyrhynchos", "locId": "L8392133", "locName": "62675, Petersburg US-IL (39.9219,-89.8160)", "obsDt": "2025-12-03 11:10", "howMany": 1, "lat": 39.921858, "lng": -89.815979, "obsValid": true, "obsReviewed": false, "locationPrivate": true, "subId": "S287177674"}, {"speciesCode": "reshaw", "comName": "Red-shouldered Hawk", "sciName": "Buteo lineatus", "locId": "L8655743", "locName": "62675, Petersburg US-IL (39.9219,-89.8160)", "obsDt": "2025-12-03 11:08", "howMany": 1, "lat": 39.921889, "lng": -89.816041, "obsValid": true, "obsReviewed": false, "locationPrivate": true, "subId": "S287177436"}, {"speciesCode": "rocpig", "comName": "Rock Pigeon", "sciName": "Columba livia", "locId": "L39172690", "locName": "Kelly Street", "obsDt": "2025-12-03 11:05", "howMany": 4, "lat": 40.0151318, "lng": -89.8744781, "obsValid": true, "obsReviewed": false, "locationPrivate": true, "subId": "S287177735", "exoticCategory": "N"}, {"speciesCode": "horlar", "comName": "Horned Lark", "sciName": "Eremophila alpestris", "locId": "L39172690", "locName": "Kelly Street", "obsDt": "2025-12-03 11:05", "howMany": 4, "lat": 40.0151318, "lng": -89.8744781, "obsValid": true, "obsReviewed": false, "locationPrivate": true, "subId": "S287177735"}, {"speciesCode": "laplon", "comName": "Lapland Longspur", "sciName": "Calcarius lapponicus", "locId": "L39172690", "locName": "Kelly Street", "obsDt": "2025-12-03 11:05", "howMany": 12, "lat": 40.0151318, "lng": -89.8744781, "obsValid": true, "obsReviewed": false, "locationPrivate": true, "subId": "S287177735"}, {"speciesCode": "haiwoo", "comName": "Hairy Woodpecker", "sciName": "Leuconotopicus villosus", "locId": "L8678011", "locName": "62675, Petersburg US-IL (39.9213,-89.8165)", "obsDt": "2025-12-03 11:02", "howMany": 1, "lat": 39.921343, "lng": -89.816493, "obsValid": true, "obsReviewed": false, "locationPrivate": true, "subId": "S287176616"}, {"speciesCode": "norfli", "comName": "Northern Flicker", "sciName": "Colaptes auratus", "locId": "L2968420", "locName": "39.9209x-89.8164 - Jul 8, 2014, 18:31", "obsDt": "2025-12-03 10:54", "howMany": 1, "lat": 39.92087, "lng": -89.816412, "obsValid": true, "obsReviewed": false, "locationPrivate": true, "subId": "S287175663"}, {"speciesCode": "sonspa", "comName": "Song Sparrow", "sciName": "Melospiza melodia", "locId": "L14209169", "locName": "11096 Knoles Rd, Petersburg US-IL 39.91991, -89.81665", "obsDt": "2025-12-03 10:37", "howMany": 1, "lat": 39.919911, "lng": -89.816646, "obsValid": true, "obsReviewed": false, "locationPrivate": true, "subId": "S287174235"}, {"speciesCode": "cacgoo1", "comName": "Cackling Goose", "sciName": "Branta hutchinsii", "locId": "L6353511", "locName": "494 Yard, Lake Petersburg", "obsDt": "2025-12-03 09:55", "howMany": 1, "lat": 39.9845271, "lng": -89.8623276, "obsValid": true, "obsReviewed": false, "locationPrivate": true, "subId": "S287172715"}, {"speciesCode": "cangoo", "comName": "Canada Goose", "sciName": "Branta canadensis", "locId": "L6353511", "locName": "494 Yard, Lake Petersburg", "obsDt": "2025-12-03 09:55", "howMany": 24, "lat": 39.9845271, "lng": -89.8623276, "obsValid": true, "obsReviewed": false, "locationPrivate": true, "subId": "S287172715"}, {"speciesCode": "rebmer", "comName": "Red-breasted Merganser", "sciName": "Mergus serrator", "locId": "L6353511", "locName": "494 Yard, Lake Petersburg", "obsDt": "2025-12-03 09:55", "howMany": 1, "lat": 39.9845271, "lng": -89.8623276, "obsValid": true, "obsReviewed": false, "locationPrivate": true, "subId": "S287172715"}, {"speciesCode": "gadwal", "comName": "Gadwall", "sciName": "Mareca strepera", "locId": "L3053939", "locName": "Lake Petersburg", "obsDt": "2025-12-03 09:08", "howMany": 12, "lat": 39.9861303, "lng": -89.8554397, "obsValid": true, "obsReviewed": false, "locationPrivate": false, "subId": "S287164618"}, {"speciesCode": "mallar3", "comName": "Mallard", "sciName": "Anas platyrhynchos", "locId": "L3053939", "locName": "Lake Petersburg", "obsDt": "2025-12-03 09:08", "howMany": 2, "lat": 39.9861303, "lng": -89.8554397, "obsValid": true, "obsReviewed": false, "locationPrivate": false, "subId": "S287164618"}, {"speciesCode": "eucdov", "comName": "Eurasian Collared-Dove", "sciName": "Streptopelia decaocto", "locId": "L3053939", "locName": "Lake Petersburg", "obsDt": "2025-12-03 09:08", "howMany": 1, "lat": 39.9861303, "lng": -89.8554397, "obsValid": true, "obsReviewed": false, "locationPrivate": false, "subId": "S287164618", "exoticCategory": "N"}, {"speciesCode": "moudov", "comName": "Mourning Dove", "sciName": "Zenaida macroura", "locId": "L3053939", "locName": "Lake Petersburg", "obsDt": "2025-12-03 09:08", "howMany": 1, "lat": 39.9861303, "lng": -89.8554397, "obsValid": true, "obsReviewed": false, "locationPrivate": false, "subId": "S287164618"}, {"speciesCode": "rehwoo", "comName": "Red-headed Woodpecker", "sciName": "Melanerpes erythrocephalus", "locId": "L3053939", "locName": "Lake Petersburg", "obsDt": "2025-12-03 09:08", "howMany": 1, "lat": 39.9861303, "lng": -89.8554397, "obsValid": true, "obsReviewed": false, "locationPrivate": false, "subId": "S287164618"}, {"speciesCode": "eursta", "comName": "European Starling", "sciName": "Sturnus vulgaris", "locId": "L3053939", "locName": "Lake Petersburg", "obsDt": "2025-12-03 09:08", "howMany": 25, "lat": 39.9861303, "lng": -89.8554397, "obsValid": true, "obsReviewed": false, "locationPrivate": false, "subId": "S287164618", "exoticCategory": "N"}, {"speciesCode": "bkcchi", "comName": "Black-capped Chickadee", "sciName": "Poecile atricapillus", "locId": "L4119929", "locName": "US-IL-Tallula-10901-10999 Knoles Rd - 39.9198x-89.8163 - Jan 2, 2016, 14:54", "obsDt": "2025-12-03 08:20", "howMany": 1, "lat": 39.919785, "lng": -89.816271, "obsValid": true, "obsReviewed": false, "locationPrivate": true, "subId": "S287159253"}, {"speciesCode": "eutspa", "comName": "Eurasian Tree Sparrow", "sciName": "Passer montanus", "locId": "L4119929", "locName": "US-IL-Tallula-10901-10999 Knoles Rd - 39.9198x-89.8163 - Jan 2, 2016, 14:54", "obsDt": "2025-12-03 08:20", "howMany": 2, "lat": 39.919785, "lng": -89.816271, "obsValid": true, "obsReviewed": false, "locationPrivate": true, "subId": "S287159253", "exoticCategory": "N"}, {"speciesCode": "purfin", "comName": "Purple Finch", "sciName": "Haemorhous purpureus", "locId": "L4119929", "locName": "US-IL-Tallula-10901-10999 Knoles Rd - 39.9198x-89.8163 - Jan 2, 2016, 14:54", "obsDt": "2025-12-03 08:20", "howMany": 2, "lat": 39.919785, "lng": -89.816271, "obsValid": true, "obsReviewed": false, "locationPrivate": true, "subId": "S287159253"}, {"speciesCode": "amegfi", "comName": "American Goldfinch", "sciName": "Spinus tristis", "locId": "L4119929", "locName": "US-IL-Tallula-10901-10999 Knoles Rd - 39.9198x-89.8163 - Jan 2, 2016, 14:54", "obsDt": "2025-12-03 08:20", "howMany": 6, "lat": 39.919785, "lng": -89.816271, "obsValid": true, "obsReviewed": false, "locationPrivate": true, "subId": "S287159253"}, {"speciesCode": "amtspa", "comName": "American Tree Sparrow", "sciName": "Spizelloides arborea", "locId": "L4119929", "locName": "US-IL-Tallula-10901-10999 Knoles Rd - 39.9198x-89.8163 - Jan 2, 2016, 14:54", "obsDt": "2025-12-03 08:20", "howMany": 1, "lat": 39.919785, "lng": -89.816271, "obsValid": true, "obsReviewed": false, "locationPrivate": true, "subId": "S287159253"}, {"speciesCode": "hoomer", "comName": "Hooded Merganser", "sciName": "Lophodytes cucullatus", "locId": "L6353511", "locName": "494 Yard, Lake Petersburg", "obsDt": "2025-12-03 07:55", "howMany": 2, "lat": 39.9845271, "lng": -89.8623276, "obsValid": true, "obsReviewed": false, "locationPrivate": true, "subId": "S287155818"}, {"speciesCode": "rebnut", "comName": "Red-breasted Nuthatch", "sciName": "Sitta canadensis", "locId": "L6353511", "locName": "494 Yard, Lake Petersburg", "obsDt": "2025-12-03 07:55", "howMany": 1, "lat": 39.9845271, "lng": -89.8623276, "obsValid": true, "obsReviewed": false, "locationPrivate": true, "subId": "S287155818"}, {"speciesCode": "whbnut", "comName": "White-breasted Nuthatch", "sciName": "Sitta carolinensis", "locId": "L14106172", "locName": "11096 Knoles Rd, Petersburg US-IL 39.92000, -89.81633", "obsDt": "2025-12-03 07:49", "howMany": 1, "lat": 39.920005, "lng": -89.81633, "obsValid": true, "obsReviewed": false, "locationPrivate": true, "subId": "S287155507"}, {"speciesCode": "brncre", "comName": "Brown Creeper", "sciName": "Certhia americana", "locId": "L14106172", "locName": "11096 Knoles Rd, Petersburg US-IL 39.92000, -89.81633", "obsDt": "2025-12-03 07:49", "howMany": 1, "lat": 39.920005, "lng": -89.81633, "obsValid": true, "obsReviewed": false, "locationPrivate": true, "subId": "S287155507"}, {"speciesCode": "pinsis", "comName": "Pine Siskin", "sciName": "Spinus pinus", "locId": "L14106172", "locName": "11096 Knoles Rd, Petersburg US-IL 39.92000, -89.81633", "obsDt": "2025-12-03 07:49", "howMany": 3, "lat": 39.920005, "lng": -89.81633, "obsValid": true, "obsReviewed": false, "locationPrivate": true, "subId": "S287155507"}, {"speciesCode": "bnhcow", "comName": "Brown-headed Cowbird", "sciName": "Molothrus ater", "locId": "L14106172", "locName": "11096 Knoles Rd, Petersburg US-IL 39.92000, -89.81633", "obsDt": "2025-12-03 07:49", "howMany": 2, "lat": 39.920005, "lng": -89.81633, "obsValid": true, "obsReviewed": false, "locationPrivate": true, "subId": "S287155507"}]