[{"speciesCode": "rolhaw", "comName": "Rough-legged Hawk", "sciName": "Buteo lagopus", "locId": "L10441231", "locName": "MM 90, I-39", "obsDt": "2025-12-03 14:43", "howMany": 1, "lat": 41.8238024, "lng": -89.0082654, "obsValid": true, "obsReviewed": false, "locationPrivate": true, "subId": "S287200049"}, {"speciesCode": "rebwoo", "comName": "Red-bellied Woodpecker", "sciName": "Melanerpes carolinus", "locId": "L21464701", "locName": "719 East Fellows Street, Dixon, Illinois, US (41.852, -89.476)", "obsDt": "2025-12-03 14:30", "howMany": 1, "lat": 41.8520222, "lng": -89.4761897, "obsValid": true, "obsReviewed": false, "locationPrivate": true, "subId": "S287312390"}, {"speciesCode": "dowwoo", "comName": "Downy Woodpecker", "sciName": "Dryobates pubescens", "locId": "L21464701", "locName": "719 East Fellows Street, Dixon, Illinois, US (41.852, -89.476)", "obsDt": "2025-12-03 14:30", "howMany": 2, "lat": 41.8520222, "lng": -89.4761897, "obsValid": true, "obsReviewed": false, "locationPrivate": true, "subId": "S287312390"}, {"speciesCode": "blujay", "comName": "Blue Jay", "sciName": "Cyanocitta cristata", "locId": "L21464701", "locName": "719 East Fellows Street, Dixon, Illinois, US (41.852, -89.476)", "obsDt": "2025-12-03 14:30", "howMany": 1, "lat": 41.8520222, "lng": -89.4761897, "obsValid": true, "obsReviewed": false, "locationPrivate": true, "subId": "S287312390"}, {"speciesCode": "amecro", "comName": "American Crow", "sciName": "Corvus brachyrhynchos", "locId": "L21464701", "locName": "719 East Fellows Street, Dixon, Illinois, US (41.852, -89.476)", "obsDt": "2025-12-03 14:30", "howMany": 3, "lat": 41.8520222, "lng": -89.4761897, "obsValid": true, "obsReviewed": false, "locationPrivate": true, "subId": "S287312390"}, {"speciesCode": "bkcchi", "comName": "Black-capped Chickadee", "sciName": "Poecile atricapillus", "locId": "L21464701", "locName": "719 East Fellows Street, Dixon, Illinois, US (41.852, -89.476)", "obsDt": "2025-12-03 14:30", "howMany": 2, "lat": 41.8520222, "lng": -89.4761897, "obsValid": true, "obsReviewed": false, "locationPrivate": true, "subId": "S287312390"}, {"speciesCode": "whbnut", "comName": "White-breasted Nuthatch", "sciName": "Sitta carolinensis", "locId": "L21464701", "locName": "719 East Fellows Street, Dixon, Illinois, US (41.852, -89.476)", "obsDt": "2025-12-03 14:30", "howMany": 1, "lat": 41.8520222, "lng": -89.4761897, "obsValid": true, "obsReviewed": false, "locationPrivate": true, "subId": "S287312390"}, {"speciesCode": "houspa", "comName": "House Sparrow", "sciName": "Passer domesticus", "locId": "L21464701", "locName": "719 East Fellows Street, Dixon, Illinois, US (41.852, -89.476)", "obsDt": "2025-12-03 14:30", "howMany": 8, "lat": 41.8520222, "lng": -89.4761897, "obsValid": true, "obsReviewed": false, "locationPrivate": true, "subId": "S287312390", "exoticCategory": "N"}, {"speciesCode": "daejun", "comName": "Dark-eyed Junco", "sciName": "Junco hyemalis", "locId": "L21464701", "locName": "719 East Fellows Street, Dixon, Illinois, US (41.852, -89.476)", "obsDt": "2025-12-03 14:30", "howMany": 3, "lat": 41.8520222, "lng": -89.4761897, "obsValid": true, "obsReviewed": false, "locationPrivate": true, "subId": "S287312390"}, {"speciesCode": "norhar2", "comName": "Northern Harrier", "sciName": "Circus hudsonius", "locId": "L55695776", "locName": "Herman Rd & Franklin Rd", "obsDt": "2025-12-03 12:30", "howMany": 1, "lat": 41.8014457, "lng": -89.3131614, "obsValid": true, "obsReviewed": false, "locationPrivate": true, "subId": "S287216837"}, {"speciesCode": "laplon", "comName": "Lapland Longspur", "sciName": "Calcarius lapponicus", "locId": "L55808125", "locName": "2481 Herman Road, Ashton, Illinois, US (41.803, -89.157)", "obsDt": "2025-12-03 12:27", "howMany": 75, "lat": 41.8025911, "lng": -89.1566313, "obsValid": true, "obsReviewed": false, "locationPrivate": true, "subId": "S287753100"}, {"speciesCode": "snobun", "comName": "Snow Bunting", "sciName": "Plectrophenax nivalis", "locId": "L55808125", "locName": "2481 Herman Road, Ashton, Illinois, US (41.803, -89.157)", "obsDt": "2025-12-03 12:27", "howMany": 12, "lat": 41.8025911, "lng": -89.1566313, "obsValid": true, "obsReviewed": false, "locationPrivate": true, "subId": "S287753100"}, {"speciesCode": "amekes", "comName": "American Kestrel", "sciName": "Falco sparverius", "locId": "L405246", "locName": "Nachusa Grasslands (Lee Co.)", "obsDt": "2025-12-03 09:45", "howMany": 1, "lat": 41.8861766, "lng": -89.3476868, "obsValid": true, "obsReviewed": false, "locationPrivate": false, "subId": "S287216549"}]