[{"speciesCode": "cangoo", "comName": "Canada Goose", "sciName": "Branta canadensis", "locId": "L2139411", "locName": "Rockford Airport Quarry Ponds (access by permission only)", "obsDt": "2025-12-27 14:30", "howMany": 375, "lat": 42.1843947, "lng": -89.1201496, "obsValid": true, "obsReviewed": false, "locationPrivate": false, "subId": "S291023667"}, {"speciesCode": "mallar3", "comName": "Mallard", "sciName": "Anas platyrhynchos", "locId": "L2139411", "locName": "Rockford Airport Quarry Ponds (access by permission only)", "obsDt": "2025-12-27 14:30", "howMany": 1551, "lat": 42.1843947, "lng": -89.1201496, "obsValid": true, "obsReviewed": false, "locationPrivate": false, "subId": "S291023667"}, {"speciesCode": "ambduc", "comName": "American Black Duck", "sciName": "Anas rubripes", "locId": "L2139411", "locName": "Rockford Airport Quarry Ponds (access by permission only)", "obsDt": "2025-12-27 14:30", "howMany": 11, "lat": 42.1843947, "lng": -89.1201496, "obsValid": true, "obsReviewed": false, "locationPrivate": false, "subId": "S291023667"}, {"speciesCode": "norpin", "comName": "Northern Pintail", "sciName": "Anas acuta", "locId": "L2139411", "locName": "Rockford Airport Quarry Ponds (access by permission only)", "obsDt": "2025-12-27 14:30", "howMany": 1, "lat": 42.1843947, "lng": -89.1201496, "obsValid": true, "obsReviewed": false, "locationPrivate": false, "subId": "S291023667"}, {"speciesCode": "canvas", "comName": "Canvasback", "sciName": "Aythya valisineria", "locId": "L2139411", "locName": "Rockford Airport Quarry Ponds (access by permission only)", "obsDt": "2025-12-27 14:30", "howMany": 2, "lat": 42.1843947, "lng": -89.1201496, "obsValid": true, "obsReviewed": false, "locationPrivate": false, "subId": "S291023667"}, {"speciesCode": "rinduc", "comName": "Ring-necked Duck", "sciName": "Aythya collaris", "locId": "L2139411", "locName": "Rockford Airport Quarry Ponds (access by permission only)", "obsDt": "2025-12-27 14:30", "howMany": 1, "lat": 42.1843947, "lng": -89.1201496, "obsValid": true, "obsReviewed": false, "locationPrivate": false, "subId": "S291023667"}, {"speciesCode": "lessca", "comName": "Lesser Scaup", "sciName": "Aythya affinis", "locId": "L2139411", "locName": "Rockford Airport Quarry Ponds (access by permission only)", "obsDt": "2025-12-27 14:30", "howMany": 2, "lat": 42.1843947, "lng": -89.1201496, "obsValid": true, "obsReviewed": false, "locationPrivate": false, "subId": "S291023667"}, {"speciesCode": "comgol", "comName": "Common Goldeneye", "sciName": "Bucephala clangula", "locId": "L2139411", "locName": "Rockford Airport Quarry Ponds (access by permission only)", "obsDt": "2025-12-27 14:30", "howMany": 14, "lat": 42.1843947, "lng": -89.1201496, "obsValid": true, "obsReviewed": false, "locationPrivate": false, "subId": "S291023667"}, {"speciesCode": "commer", "comName": "Common Merganser", "sciName": "Mergus merganser", "locId": "L2139411", "locName": "Rockford Airport Quarry Ponds (access by permission only)", "obsDt": "2025-12-27 14:30", "howMany": 48, "lat": 42.1843947, "lng": -89.1201496, "obsValid": true, "obsReviewed": false, "locationPrivate": false, "subId": "S291023667"}, {"speciesCode": "rocpig", "comName": "Rock Pigeon", "sciName": "Columba livia", "locId": "L2139411", "locName": "Rockford Airport Quarry Ponds (access by permission only)", "obsDt": "2025-12-27 14:30", "howMany": 19, "lat": 42.1843947, "lng": -89.1201496, "obsValid": true, "obsReviewed": false, "locationPrivate": false, "subId": "S291023667", "exoticCategory": "N"}, {"speciesCode": "baleag", "comName": "Bald Eagle", "sciName": "Haliaeetus leucocephalus", "locId": "L2139411", "locName": "Rockford Airport Quarry Ponds (access by permission only)", "obsDt": "2025-12-27 14:30", "howMany": 4, "lat": 42.1843947, "lng": -89.1201496, "obsValid": true, "obsReviewed": false, "locationPrivate": false, "subId": "S291023667"}, {"speciesCode": "eursta", "comName": "European Starling", "sciName": "Sturnus vulgaris", "locId": "L2139411", "locName": "Rockford Airport Quarry Ponds (access by permission only)", "obsDt": "2025-12-27 14:30", "howMany": 3, "lat": 42.1843947, "lng": -89.1201496, "obsValid": true, "obsReviewed": false, "locationPrivate": false, "subId": "S291023667", "exoticCategory": "N"}, {"speciesCode": "wiltur", "comName": "Wild Turkey", "sciName": "Meleagris gallopavo", "locId": "L56426696", "locName": "Rock Cut State Park, Loves Park US-IL 42.35265, -88.98835", "obsDt": "2025-12-27 14:15", "howMany": 3, "lat": 42.352652, "lng": -88.988351, "obsValid": true, "obsReviewed": false, "locationPrivate": true, "subId": "S290615953"}, {"speciesCode": "moudov", "comName": "Mourning Dove", "sciName": "Zenaida macroura", "locId": "L56426696", "locName": "Rock Cut State Park, Loves Park US-IL 42.35265, -88.98835", "obsDt": "2025-12-27 14:15", "howMany": 4, "lat": 42.352652, "lng": -88.988351, "obsValid": true, "obsReviewed": false, "locationPrivate": true, "subId": "S290615953"}, {"speciesCode": "amhgul1", "comName": "American Herring Gull", "sciName": "Larus smithsonianus", "locId": "L56426696", "locName": "Rock Cut State Park, Loves Park US-IL 42.35265, -88.98835", "obsDt": "2025-12-27 14:15", "howMany": 6, "lat": 42.352652, "lng": -88.988351, "obsValid": true, "obsReviewed": false, "locationPrivate": true, "subId": "S290615953"}, {"speciesCode": "rethaw", "comName": "Red-tailed Hawk", "sciName": "Buteo jamaicensis", "locId": "L56426696", "locName": "Rock Cut State Park, Loves Park US-IL 42.35265, -88.98835", "obsDt": "2025-12-27 14:15", "howMany": 1, "lat": 42.352652, "lng": -88.988351, "obsValid": true, "obsReviewed": false, "locationPrivate": true, "subId": "S290615953"}, {"speciesCode": "rolhaw", "comName": "Rough-legged Hawk", "sciName": "Buteo lagopus", "locId": "L56424168", "locName": "W State Rd, Winnebago US-IL 42.28114, -89.24024", "obsDt": "2025-12-27 14:06", "howMany": 1, "lat": 42.281136, "lng": -89.240243, "obsValid": true, "obsReviewed": false, "locationPrivate": true, "subId": "S290606458"}, {"speciesCode": "daejun", "comName": "Dark-eyed Junco", "sciName": "Junco hyemalis", "locId": "L56424390", "locName": "Belles Resort", "obsDt": "2025-12-27 14:00", "howMany": 1, "lat": 42.302545, "lng": -89.003462, "obsValid": true, "obsReviewed": false, "locationPrivate": true, "subId": "S290648088"}, {"speciesCode": "dowwoo", "comName": "Downy Woodpecker", "sciName": "Dryobates pubescens", "locId": "L56424390", "locName": "Belles Resort", "obsDt": "2025-12-27 13:57", "howMany": 1, "lat": 42.302545, "lng": -89.003462, "obsValid": true, "obsReviewed": false, "locationPrivate": true, "subId": "S290607326"}, {"speciesCode": "houspa", "comName": "House Sparrow", "sciName": "Passer domesticus", "locId": "L56422796", "locName": "9009 Alpha Dr, Machesney Park US-IL 42.35318, -89.02646", "obsDt": "2025-12-27 13:45", "howMany": 6, "lat": 42.353177, "lng": -89.026464, "obsValid": true, "obsReviewed": false, "locationPrivate": true, "subId": "S290601374", "exoticCategory": "N"}, {"speciesCode": "houfin", "comName": "House Finch", "sciName": "Haemorhous mexicanus", "locId": "L56422796", "locName": "9009 Alpha Dr, Machesney Park US-IL 42.35318, -89.02646", "obsDt": "2025-12-27 13:45", "howMany": 5, "lat": 42.353177, "lng": -89.026464, "obsValid": true, "obsReviewed": false, "locationPrivate": true, "subId": "S290601374", "exoticCategory": "N"}, {"speciesCode": "rebwoo", "comName": "Red-bellied Woodpecker", "sciName": "Melanerpes carolinus", "locId": "L1259962", "locName": "Home", "obsDt": "2025-12-27 13:40", "howMany": 1, "lat": 42.426753, "lng": -89.0254623, "obsValid": true, "obsReviewed": false, "locationPrivate": true, "subId": "S290602527"}, {"speciesCode": "bkcchi", "comName": "Black-capped Chickadee", "sciName": "Poecile atricapillus", "locId": "L1259962", "locName": "Home", "obsDt": "2025-12-27 13:40", "howMany": 2, "lat": 42.426753, "lng": -89.0254623, "obsValid": true, "obsReviewed": false, "locationPrivate": true, "subId": "S290602527"}, {"speciesCode": "grbher3", "comName": "Great Blue Heron", "sciName": "Ardea herodias", "locId": "L3176398", "locName": "Deer Run Forest Preserve", "obsDt": "2025-12-27 13:00", "howMany": 1, "lat": 42.2038654, "lng": -88.9725745, "obsValid": true, "obsReviewed": false, "locationPrivate": false, "subId": "S290807454"}, {"speciesCode": "norhar2", "comName": "Northern Harrier", "sciName": "Circus hudsonius", "locId": "L3176398", "locName": "Deer Run Forest Preserve", "obsDt": "2025-12-27 13:00", "howMany": 1, "lat": 42.2038654, "lng": -88.9725745, "obsValid": true, "obsReviewed": false, "locationPrivate": false, "subId": "S290807454"}, {"speciesCode": "yebsap", "comName": "Yellow-bellied Sapsucker", "sciName": "Sphyrapicus varius", "locId": "L3176398", "locName": "Deer Run Forest Preserve", "obsDt": "2025-12-27 13:00", "howMany": 1, "lat": 42.2038654, "lng": -88.9725745, "obsValid": true, "obsReviewed": false, "locationPrivate": false, "subId": "S290807454"}, {"speciesCode": "haiwoo", "comName": "Hairy Woodpecker", "sciName": "Leuconotopicus villosus", "locId": "L3176398", "locName": "Deer Run Forest Preserve", "obsDt": "2025-12-27 13:00", "howMany": 2, "lat": 42.2038654, "lng": -88.9725745, "obsValid": true, "obsReviewed": false, "locationPrivate": false, "subId": "S290807454"}, {"speciesCode": "pilwoo", "comName": "Pileated Woodpecker", "sciName": "Dryocopus pileatus", "locId": "L3176398", "locName": "Deer Run Forest Preserve", "obsDt": "2025-12-27 13:00", "howMany": 1, "lat": 42.2038654, "lng": -88.9725745, "obsValid": true, "obsReviewed": false, "locationPrivate": false, "subId": "S290807454"}, {"speciesCode": "blujay", "comName": "Blue Jay", "sciName": "Cyanocitta cristata", "locId": "L3176398", "locName": "Deer Run Forest Preserve", "obsDt": "2025-12-27 13:00", "howMany": 15, "lat": 42.2038654, "lng": -88.9725745, "obsValid": true, "obsReviewed": false, "locationPrivate": false, "subId": "S290807454"}, {"speciesCode": "amecro", "comName": "American Crow", "sciName": "Corvus brachyrhynchos", "locId": "L3176398", "locName": "Deer Run Forest Preserve", "obsDt": "2025-12-27 13:00", "howMany": 2, "lat": 42.2038654, "lng": -88.9725745, "obsValid": true, "obsReviewed": false, "locationPrivate": false, "subId": "S290807454"}, {"speciesCode": "whbnut", "comName": "White-breasted Nuthatch", "sciName": "Sitta carolinensis", "locId": "L3176398", "locName": "Deer Run Forest Preserve", "obsDt": "2025-12-27 13:00", "howMany": 10, "lat": 42.2038654, "lng": -88.9725745, "obsValid": true, "obsReviewed": false, "locationPrivate": false, "subId": "S290807454"}, {"speciesCode": "brncre", "comName": "Brown Creeper", "sciName": "Certhia americana", "locId": "L3176398", "locName": "Deer Run Forest Preserve", "obsDt": "2025-12-27 13:00", "howMany": 2, "lat": 42.2038654, "lng": -88.9725745, "obsValid": true, "obsReviewed": false, "locationPrivate": false, "subId": "S290807454"}, {"speciesCode": "winwre3", "comName": "Winter Wren", "sciName": "Troglodytes hiemalis", "locId": "L3176398", "locName": "Deer Run Forest Preserve", "obsDt": "2025-12-27 13:00", "howMany": 1, "lat": 42.2038654, "lng": -88.9725745, "obsValid": true, "obsReviewed": false, "locationPrivate": false, "subId": "S290807454"}, {"speciesCode": "easblu", "comName": "Eastern Bluebird", "sciName": "Sialia sialis", "locId": "L3176398", "locName": "Deer Run Forest Preserve", "obsDt": "2025-12-27 13:00", "howMany": 2, "lat": 42.2038654, "lng": -88.9725745, "obsValid": true, "obsReviewed": false, "locationPrivate": false, "subId": "S290807454"}, {"speciesCode": "herthr", "comName": "Hermit Thrush", "sciName": "Catharus guttatus", "locId": "L3176398", "locName": "Deer Run Forest Preserve", "obsDt": "2025-12-27 13:00", "howMany": 2, "lat": 42.2038654, "lng": -88.9725745, "obsValid": true, "obsReviewed": false, "locationPrivate": false, "subId": "S290807454"}, {"speciesCode": "amerob", "comName": "American Robin", "sciName": "Turdus migratorius", "locId": "L3176398", "locName": "Deer Run Forest Preserve", "obsDt": "2025-12-27 13:00", "howMany": 30, "lat": 42.2038654, "lng": -88.9725745, "obsValid": true, "obsReviewed": false, "locationPrivate": false, "subId": "S290807454"}, {"speciesCode": "cedwax", "comName": "Cedar Waxwing", "sciName": "Bombycilla cedrorum", "locId": "L3176398", "locName": "Deer Run Forest Preserve", "obsDt": "2025-12-27 13:00", "howMany": 25, "lat": 42.2038654, "lng": -88.9725745, "obsValid": true, "obsReviewed": false, "locationPrivate": false, "subId": "S290807454"}, {"speciesCode": "purfin", "comName": "Purple Finch", "sciName": "Haemorhous purpureus", "locId": "L3176398", "locName": "Deer Run Forest Preserve", "obsDt": "2025-12-27 13:00", "howMany": 3, "lat": 42.2038654, "lng": -88.9725745, "obsValid": true, "obsReviewed": false, "locationPrivate": false, "subId": "S290807454"}, {"speciesCode": "amegfi", "comName": "American Goldfinch", "sciName": "Spinus tristis", "locId": "L3176398", "locName": "Deer Run Forest Preserve", "obsDt": "2025-12-27 13:00", "howMany": 15, "lat": 42.2038654, "lng": -88.9725745, "obsValid": true, "obsReviewed": false, "locationPrivate": false, "subId": "S290807454"}, {"speciesCode": "amtspa", "comName": "American Tree Sparrow", "sciName": "Spizelloides arborea", "locId": "L3176398", "locName": "Deer Run Forest Preserve", "obsDt": "2025-12-27 13:00", "howMany": 15, "lat": 42.2038654, "lng": -88.9725745, "obsValid": true, "obsReviewed": false, "locationPrivate": false, "subId": "S290807454"}, {"speciesCode": "whtspa", "comName": "White-throated Sparrow", "sciName": "Zonotrichia albicollis", "locId": "L3176398", "locName": "Deer Run Forest Preserve", "obsDt": "2025-12-27 13:00", "howMany": 12, "lat": 42.2038654, "lng": -88.9725745, "obsValid": true, "obsReviewed": false, "locationPrivate": false, "subId": "S290807454"}, {"speciesCode": "sonspa", "comName": "Song Sparrow", "sciName": "Melospiza melodia", "locId": "L3176398", "locName": "Deer Run Forest Preserve", "obsDt": "2025-12-27 13:00", "howMany": 2, "lat": 42.2038654, "lng": -88.9725745, "obsValid": true, "obsReviewed": false, "locationPrivate": false, "subId": "S290807454"}, {"speciesCode": "swaspa", "comName": "Swamp Sparrow", "sciName": "Melospiza georgiana", "locId": "L3176398", "locName": "Deer Run Forest Preserve", "obsDt": "2025-12-27 13:00", "howMany": 1, "lat": 42.2038654, "lng": -88.9725745, "obsValid": true, "obsReviewed": false, "locationPrivate": false, "subId": "S290807454"}, {"speciesCode": "norcar", "comName": "Northern Cardinal", "sciName": "Cardinalis cardinalis", "locId": "L3176398", "locName": "Deer Run Forest Preserve", "obsDt": "2025-12-27 13:00", "howMany": 15, "lat": 42.2038654, "lng": -88.9725745, "obsValid": true, "obsReviewed": false, "locationPrivate": false, "subId": "S290807454"}, {"speciesCode": "norfli", "comName": "Northern Flicker", "sciName": "Colaptes auratus", "locId": "L13044243", "locName": "Kishwaukee CBC area 9", "obsDt": "2025-12-27 11:45", "howMany": 4, "lat": 42.1725769, "lng": -88.9706688, "obsValid": true, "obsReviewed": false, "locationPrivate": true, "subId": "S290804958"}, {"speciesCode": "eutspa", "comName": "Eurasian Tree Sparrow", "sciName": "Passer montanus", "locId": "L13044243", "locName": "Kishwaukee CBC area 9", "obsDt": "2025-12-27 11:45", "howMany": 6, "lat": 42.1725769, "lng": -88.9706688, "obsValid": true, "obsReviewed": false, "locationPrivate": true, "subId": "S290804958", "exoticCategory": "N"}, {"speciesCode": "whcspa", "comName": "White-crowned Sparrow", "sciName": "Zonotrichia leucophrys", "locId": "L13044243", "locName": "Kishwaukee CBC area 9", "obsDt": "2025-12-27 11:45", "howMany": 12, "lat": 42.1725769, "lng": -88.9706688, "obsValid": true, "obsReviewed": false, "locationPrivate": true, "subId": "S290804958"}, {"speciesCode": "pinsis", "comName": "Pine Siskin", "sciName": "Spinus pinus", "locId": "L13585161", "locName": "St. Anthony Field", "obsDt": "2025-12-27 11:21", "howMany": 6, "lat": 42.2746901, "lng": -89.0077025, "obsValid": true, "obsReviewed": false, "locationPrivate": true, "subId": "S290569154"}, {"speciesCode": "tuftit", "comName": "Tufted Titmouse", "sciName": "Baeolophus bicolor", "locId": "L865897", "locName": "Klehm Arboretum and Botanic Garden, Rockford", "obsDt": "2025-12-27 11:00", "howMany": 1, "lat": 42.2444835, "lng": -89.1122746, "obsValid": true, "obsReviewed": false, "locationPrivate": false, "subId": "S290596427"}, {"speciesCode": "rebnut", "comName": "Red-breasted Nuthatch", "sciName": "Sitta canadensis", "locId": "L865897", "locName": "Klehm Arboretum and Botanic Garden, Rockford", "obsDt": "2025-12-27 11:00", "howMany": 11, "lat": 42.2444835, "lng": -89.1122746, "obsValid": true, "obsReviewed": false, "locationPrivate": false, "subId": "S290596427"}, {"speciesCode": "yerwar", "comName": "Yellow-rumped Warbler", "sciName": "Setophaga coronata", "locId": "L865897", "locName": "Klehm Arboretum and Botanic Garden, Rockford", "obsDt": "2025-12-27 11:00", "howMany": 1, "lat": 42.2444835, "lng": -89.1122746, "obsValid": true, "obsReviewed": false, "locationPrivate": false, "subId": "S290596427"}, {"speciesCode": "snogoo", "comName": "Snow Goose", "sciName": "Anser caerulescens", "locId": "L4136668", "locName": "Edson Road Landfill (restricted access)", "obsDt": "2025-12-27 10:31", "howMany": 2, "lat": 42.1518303, "lng": -89.0714145, "obsValid": true, "obsReviewed": false, "locationPrivate": false, "subId": "S290906642"}, {"speciesCode": "wilsni1", "comName": "Wilson's Snipe", "sciName": "Gallinago delicata", "locId": "L800783", "locName": "Espenscheid Memorial Forest Preserve", "obsDt": "2025-12-27 09:13", "howMany": 2, "lat": 42.2114823, "lng": -88.9743876, "obsValid": true, "obsReviewed": false, "locationPrivate": false, "subId": "S290548837"}, {"speciesCode": "belkin1", "comName": "Belted Kingfisher", "sciName": "Megaceryle alcyon", "locId": "L4355683", "locName": "Oak Ridge Forest Preserve", "obsDt": "2025-12-27 07:45", "howMany": 1, "lat": 42.1828467, "lng": -88.9537334, "obsValid": true, "obsReviewed": false, "locationPrivate": false, "subId": "S290804230"}, {"speciesCode": "foxspa", "comName": "Fox Sparrow", "sciName": "Passerella iliaca", "locId": "L4355683", "locName": "Oak Ridge Forest Preserve", "obsDt": "2025-12-27 07:45", "howMany": 6, "lat": 42.1828467, "lng": -88.9537334, "obsValid": true, "obsReviewed": false, "locationPrivate": false, "subId": "S290804230"}, {"speciesCode": "cacgoo1", "comName": "Cackling Goose", "sciName": "Branta hutchinsii", "locId": "L1355363", "locName": "Kishwaukee CBC Territory #2", "obsDt": "2025-12-27 07:25", "howMany": 1, "lat": 42.2078346, "lng": -89.1529387, "obsValid": true, "obsReviewed": false, "locationPrivate": true, "subId": "S290578290"}, {"speciesCode": "grhowl", "comName": "Great Horned Owl", "sciName": "Bubo virginianus", "locId": "L3176398", "locName": "Deer Run Forest Preserve", "obsDt": "2025-12-27 06:30", "howMany": 2, "lat": 42.2038654, "lng": -88.9725745, "obsValid": true, "obsReviewed": false, "locationPrivate": false, "subId": "S290808089"}, {"speciesCode": "brdowl", "comName": "Barred Owl", "sciName": "Strix varia", "locId": "L3176398", "locName": "Deer Run Forest Preserve", "obsDt": "2025-12-27 06:30", "howMany": 2, "lat": 42.2038654, "lng": -88.9725745, "obsValid": true, "obsReviewed": false, "locationPrivate": false, "subId": "S290808089"}, {"speciesCode": "nswowl", "comName": "Northern Saw-whet Owl", "sciName": "Aegolius acadicus", "locId": "L865897", "locName": "Klehm Arboretum and Botanic Garden, Rockford", "obsDt": "2025-12-27 05:30", "howMany": 2, "lat": 42.2444835, "lng": -89.1122746, "obsValid": true, "obsReviewed": false, "locationPrivate": false, "subId": "S290684319"}]