[{"speciesCode": "norhar2", "comName": "Northern Harrier", "sciName": "Circus hudsonius", "locId": "L28370884", "locName": "4501\u20134523 IL-26, Hennepin US-IL 41.15596, -89.30454", "obsDt": "2025-12-16 15:31", "howMany": 3, "lat": 41.155957, "lng": -89.304542, "obsValid": true, "obsReviewed": false, "locationPrivate": true, "subId": "S288892224"}, {"speciesCode": "daejun", "comName": "Dark-eyed Junco", "sciName": "Junco hyemalis", "locId": "L17166766", "locName": "Putnam CBC rural roads", "obsDt": "2025-12-16 15:01", "howMany": 7, "lat": 41.290411, "lng": -89.2456677, "obsValid": true, "obsReviewed": false, "locationPrivate": true, "subId": "S288902643"}, {"speciesCode": "blujay", "comName": "Blue Jay", "sciName": "Cyanocitta cristata", "locId": "L38709002", "locName": "616 Hennepin St, Granville US-IL 41.26489, -89.24052", "obsDt": "2025-12-16 14:31", "howMany": 1, "lat": 41.264889, "lng": -89.240517, "obsValid": true, "obsReviewed": false, "locationPrivate": true, "subId": "S288883338"}, {"speciesCode": "eursta", "comName": "European Starling", "sciName": "Sturnus vulgaris", "locId": "L38709002", "locName": "616 Hennepin St, Granville US-IL 41.26489, -89.24052", "obsDt": "2025-12-16 14:31", "howMany": 68, "lat": 41.264889, "lng": -89.240517, "obsValid": true, "obsReviewed": false, "locationPrivate": true, "subId": "S288883338", "exoticCategory": "N"}, {"speciesCode": "moudov", "comName": "Mourning Dove", "sciName": "Zenaida macroura", "locId": "L17166766", "locName": "Putnam CBC rural roads", "obsDt": "2025-12-16 13:58", "howMany": 1, "lat": 41.290411, "lng": -89.2456677, "obsValid": true, "obsReviewed": false, "locationPrivate": true, "subId": "S288879893"}, {"speciesCode": "baleag", "comName": "Bald Eagle", "sciName": "Haliaeetus leucocephalus", "locId": "L17166766", "locName": "Putnam CBC rural roads", "obsDt": "2025-12-16 13:58", "howMany": 1, "lat": 41.290411, "lng": -89.2456677, "obsValid": true, "obsReviewed": false, "locationPrivate": true, "subId": "S288879893"}, {"speciesCode": "rethaw", "comName": "Red-tailed Hawk", "sciName": "Buteo jamaicensis", "locId": "L17166766", "locName": "Putnam CBC rural roads", "obsDt": "2025-12-16 13:58", "howMany": 2, "lat": 41.290411, "lng": -89.2456677, "obsValid": true, "obsReviewed": false, "locationPrivate": true, "subId": "S288879893"}, {"speciesCode": "rolhaw", "comName": "Rough-legged Hawk", "sciName": "Buteo lagopus", "locId": "L17166766", "locName": "Putnam CBC rural roads", "obsDt": "2025-12-16 13:58", "howMany": 1, "lat": 41.290411, "lng": -89.2456677, "obsValid": true, "obsReviewed": false, "locationPrivate": true, "subId": "S288879893"}, {"speciesCode": "dowwoo", "comName": "Downy Woodpecker", "sciName": "Dryobates pubescens", "locId": "L17166766", "locName": "Putnam CBC rural roads", "obsDt": "2025-12-16 13:58", "howMany": 1, "lat": 41.290411, "lng": -89.2456677, "obsValid": true, "obsReviewed": false, "locationPrivate": true, "subId": "S288879893"}, {"speciesCode": "amekes", "comName": "American Kestrel", "sciName": "Falco sparverius", "locId": "L17166766", "locName": "Putnam CBC rural roads", "obsDt": "2025-12-16 13:58", "howMany": 1, "lat": 41.290411, "lng": -89.2456677, "obsValid": true, "obsReviewed": false, "locationPrivate": true, "subId": "S288879893"}, {"speciesCode": "amecro", "comName": "American Crow", "sciName": "Corvus brachyrhynchos", "locId": "L17166766", "locName": "Putnam CBC rural roads", "obsDt": "2025-12-16 13:58", "howMany": 1, "lat": 41.290411, "lng": -89.2456677, "obsValid": true, "obsReviewed": false, "locationPrivate": true, "subId": "S288879893"}, {"speciesCode": "bkcchi", "comName": "Black-capped Chickadee", "sciName": "Poecile atricapillus", "locId": "L17166766", "locName": "Putnam CBC rural roads", "obsDt": "2025-12-16 13:58", "howMany": 2, "lat": 41.290411, "lng": -89.2456677, "obsValid": true, "obsReviewed": false, "locationPrivate": true, "subId": "S288879893"}, {"speciesCode": "tuftit", "comName": "Tufted Titmouse", "sciName": "Baeolophus bicolor", "locId": "L17166766", "locName": "Putnam CBC rural roads", "obsDt": "2025-12-16 13:58", "howMany": 2, "lat": 41.290411, "lng": -89.2456677, "obsValid": true, "obsReviewed": false, "locationPrivate": true, "subId": "S288879893"}, {"speciesCode": "amtspa", "comName": "American Tree Sparrow", "sciName": "Spizelloides arborea", "locId": "L17166766", "locName": "Putnam CBC rural roads", "obsDt": "2025-12-16 13:58", "howMany": 12, "lat": 41.290411, "lng": -89.2456677, "obsValid": true, "obsReviewed": false, "locationPrivate": true, "subId": "S288879893"}, {"speciesCode": "rewbla", "comName": "Red-winged Blackbird", "sciName": "Agelaius phoeniceus", "locId": "L17166766", "locName": "Putnam CBC rural roads", "obsDt": "2025-12-16 13:58", "howMany": 86, "lat": 41.290411, "lng": -89.2456677, "obsValid": true, "obsReviewed": false, "locationPrivate": true, "subId": "S288879893"}, {"speciesCode": "bnhcow", "comName": "Brown-headed Cowbird", "sciName": "Molothrus ater", "locId": "L17166766", "locName": "Putnam CBC rural roads", "obsDt": "2025-12-16 13:58", "howMany": 20, "lat": 41.290411, "lng": -89.2456677, "obsValid": true, "obsReviewed": false, "locationPrivate": true, "subId": "S288879893"}, {"speciesCode": "comgra", "comName": "Common Grackle", "sciName": "Quiscalus quiscula", "locId": "L17166766", "locName": "Putnam CBC rural roads", "obsDt": "2025-12-16 13:58", "howMany": 48, "lat": 41.290411, "lng": -89.2456677, "obsValid": true, "obsReviewed": false, "locationPrivate": true, "subId": "S288879893"}, {"speciesCode": "hoomer", "comName": "Hooded Merganser", "sciName": "Lophodytes cucullatus", "locId": "L817871", "locName": "Lake Thunderbird", "obsDt": "2025-12-16 13:55", "howMany": 1, "lat": 41.2048769, "lng": -89.4404697, "obsValid": true, "obsReviewed": false, "locationPrivate": true, "subId": "S289004248"}, {"speciesCode": "coohaw", "comName": "Cooper's Hawk", "sciName": "Astur cooperii", "locId": "L817871", "locName": "Lake Thunderbird", "obsDt": "2025-12-16 13:55", "howMany": 1, "lat": 41.2048769, "lng": -89.4404697, "obsValid": true, "obsReviewed": false, "locationPrivate": true, "subId": "S289004248"}, {"speciesCode": "yebsap", "comName": "Yellow-bellied Sapsucker", "sciName": "Sphyrapicus varius", "locId": "L817871", "locName": "Lake Thunderbird", "obsDt": "2025-12-16 13:55", "howMany": 1, "lat": 41.2048769, "lng": -89.4404697, "obsValid": true, "obsReviewed": false, "locationPrivate": true, "subId": "S289004248"}, {"speciesCode": "rehwoo", "comName": "Red-headed Woodpecker", "sciName": "Melanerpes erythrocephalus", "locId": "L817871", "locName": "Lake Thunderbird", "obsDt": "2025-12-16 13:55", "howMany": 13, "lat": 41.2048769, "lng": -89.4404697, "obsValid": true, "obsReviewed": true, "locationPrivate": true, "subId": "S289004248"}, {"speciesCode": "rebwoo", "comName": "Red-bellied Woodpecker", "sciName": "Melanerpes carolinus", "locId": "L817871", "locName": "Lake Thunderbird", "obsDt": "2025-12-16 13:55", "howMany": 14, "lat": 41.2048769, "lng": -89.4404697, "obsValid": true, "obsReviewed": false, "locationPrivate": true, "subId": "S289004248"}, {"speciesCode": "haiwoo", "comName": "Hairy Woodpecker", "sciName": "Leuconotopicus villosus", "locId": "L817871", "locName": "Lake Thunderbird", "obsDt": "2025-12-16 13:55", "howMany": 1, "lat": 41.2048769, "lng": -89.4404697, "obsValid": true, "obsReviewed": false, "locationPrivate": true, "subId": "S289004248"}, {"speciesCode": "pilwoo", "comName": "Pileated Woodpecker", "sciName": "Dryocopus pileatus", "locId": "L817871", "locName": "Lake Thunderbird", "obsDt": "2025-12-16 13:55", "howMany": 1, "lat": 41.2048769, "lng": -89.4404697, "obsValid": true, "obsReviewed": false, "locationPrivate": true, "subId": "S289004248"}, {"speciesCode": "norfli", "comName": "Northern Flicker", "sciName": "Colaptes auratus", "locId": "L817871", "locName": "Lake Thunderbird", "obsDt": "2025-12-16 13:55", "howMany": 4, "lat": 41.2048769, "lng": -89.4404697, "obsValid": true, "obsReviewed": false, "locationPrivate": true, "subId": "S289004248"}, {"speciesCode": "whbnut", "comName": "White-breasted Nuthatch", "sciName": "Sitta carolinensis", "locId": "L817871", "locName": "Lake Thunderbird", "obsDt": "2025-12-16 13:55", "howMany": 18, "lat": 41.2048769, "lng": -89.4404697, "obsValid": true, "obsReviewed": false, "locationPrivate": true, "subId": "S289004248"}, {"speciesCode": "easblu", "comName": "Eastern Bluebird", "sciName": "Sialia sialis", "locId": "L817871", "locName": "Lake Thunderbird", "obsDt": "2025-12-16 13:55", "howMany": 9, "lat": 41.2048769, "lng": -89.4404697, "obsValid": true, "obsReviewed": false, "locationPrivate": true, "subId": "S289004248"}, {"speciesCode": "herthr", "comName": "Hermit Thrush", "sciName": "Catharus guttatus", "locId": "L817871", "locName": "Lake Thunderbird", "obsDt": "2025-12-16 13:55", "howMany": 2, "lat": 41.2048769, "lng": -89.4404697, "obsValid": true, "obsReviewed": false, "locationPrivate": true, "subId": "S289004248"}, {"speciesCode": "amerob", "comName": "American Robin", "sciName": "Turdus migratorius", "locId": "L817871", "locName": "Lake Thunderbird", "obsDt": "2025-12-16 13:55", "howMany": 9, "lat": 41.2048769, "lng": -89.4404697, "obsValid": true, "obsReviewed": false, "locationPrivate": true, "subId": "S289004248"}, {"speciesCode": "cedwax", "comName": "Cedar Waxwing", "sciName": "Bombycilla cedrorum", "locId": "L817871", "locName": "Lake Thunderbird", "obsDt": "2025-12-16 13:55", "howMany": 17, "lat": 41.2048769, "lng": -89.4404697, "obsValid": true, "obsReviewed": false, "locationPrivate": true, "subId": "S289004248"}, {"speciesCode": "houspa", "comName": "House Sparrow", "sciName": "Passer domesticus", "locId": "L817871", "locName": "Lake Thunderbird", "obsDt": "2025-12-16 13:55", "howMany": 7, "lat": 41.2048769, "lng": -89.4404697, "obsValid": true, "obsReviewed": false, "locationPrivate": true, "subId": "S289004248", "exoticCategory": "N"}, {"speciesCode": "houfin", "comName": "House Finch", "sciName": "Haemorhous mexicanus", "locId": "L817871", "locName": "Lake Thunderbird", "obsDt": "2025-12-16 13:55", "howMany": 23, "lat": 41.2048769, "lng": -89.4404697, "obsValid": true, "obsReviewed": false, "locationPrivate": true, "subId": "S289004248", "exoticCategory": "N"}, {"speciesCode": "whtspa", "comName": "White-throated Sparrow", "sciName": "Zonotrichia albicollis", "locId": "L817871", "locName": "Lake Thunderbird", "obsDt": "2025-12-16 13:55", "howMany": 7, "lat": 41.2048769, "lng": -89.4404697, "obsValid": true, "obsReviewed": false, "locationPrivate": true, "subId": "S289004248"}, {"speciesCode": "norcar", "comName": "Northern Cardinal", "sciName": "Cardinalis cardinalis", "locId": "L817871", "locName": "Lake Thunderbird", "obsDt": "2025-12-16 13:55", "howMany": 6, "lat": 41.2048769, "lng": -89.4404697, "obsValid": true, "obsReviewed": false, "locationPrivate": true, "subId": "S289004248"}, {"speciesCode": "cangoo", "comName": "Canada Goose", "sciName": "Branta canadensis", "locId": "L28375222", "locName": "Village of Hennepin", "obsDt": "2025-12-16 13:54", "howMany": 1, "lat": 41.249767, "lng": -89.330077, "obsValid": true, "obsReviewed": false, "locationPrivate": true, "subId": "S288878099"}, {"speciesCode": "comgol", "comName": "Common Goldeneye", "sciName": "Bucephala clangula", "locId": "L28375222", "locName": "Village of Hennepin", "obsDt": "2025-12-16 13:54", "howMany": 6, "lat": 41.249767, "lng": -89.330077, "obsValid": true, "obsReviewed": false, "locationPrivate": true, "subId": "S288878099"}, {"speciesCode": "ribgul", "comName": "Ring-billed Gull", "sciName": "Larus delawarensis", "locId": "L28375222", "locName": "Village of Hennepin", "obsDt": "2025-12-16 13:54", "howMany": 1, "lat": 41.249767, "lng": -89.330077, "obsValid": true, "obsReviewed": false, "locationPrivate": true, "subId": "S288878099"}, {"speciesCode": "amhgul1", "comName": "American Herring Gull", "sciName": "Larus smithsonianus", "locId": "L28375222", "locName": "Village of Hennepin", "obsDt": "2025-12-16 13:54", "howMany": 3, "lat": 41.249767, "lng": -89.330077, "obsValid": true, "obsReviewed": false, "locationPrivate": true, "subId": "S288878099"}, {"speciesCode": "shshaw", "comName": "Sharp-shinned Hawk", "sciName": "Accipiter striatus", "locId": "L15387793", "locName": "Putnam Co. Conservation District", "obsDt": "2025-12-16 13:44", "howMany": 1, "lat": 41.1696743, "lng": -89.2901086, "obsValid": true, "obsReviewed": false, "locationPrivate": false, "subId": "S288887889"}, {"speciesCode": "brdowl", "comName": "Barred Owl", "sciName": "Strix varia", "locId": "L15387793", "locName": "Putnam Co. Conservation District", "obsDt": "2025-12-16 13:44", "howMany": 2, "lat": 41.1696743, "lng": -89.2901086, "obsValid": true, "obsReviewed": false, "locationPrivate": false, "subId": "S288887889"}, {"speciesCode": "purfin", "comName": "Purple Finch", "sciName": "Haemorhous purpureus", "locId": "L15387793", "locName": "Putnam Co. Conservation District", "obsDt": "2025-12-16 13:44", "howMany": 8, "lat": 41.1696743, "lng": -89.2901086, "obsValid": true, "obsReviewed": false, "locationPrivate": false, "subId": "S288887889"}, {"speciesCode": "amegfi", "comName": "American Goldfinch", "sciName": "Spinus tristis", "locId": "L15387793", "locName": "Putnam Co. Conservation District", "obsDt": "2025-12-16 13:44", "howMany": 1, "lat": 41.1696743, "lng": -89.2901086, "obsValid": true, "obsReviewed": false, "locationPrivate": false, "subId": "S288887889"}, {"speciesCode": "eutspa", "comName": "Eurasian Tree Sparrow", "sciName": "Passer montanus", "locId": "L10665516", "locName": "Florid Loop", "obsDt": "2025-12-16 12:56", "howMany": 7, "lat": 41.224475, "lng": -89.3058473, "obsValid": true, "obsReviewed": false, "locationPrivate": true, "subId": "S288875535", "exoticCategory": "N"}, {"speciesCode": "whcspa", "comName": "White-crowned Sparrow", "sciName": "Zonotrichia leucophrys", "locId": "L6573696", "locName": "Town of Putnam", "obsDt": "2025-12-16 12:50", "howMany": 1, "lat": 41.1830031, "lng": -89.3978834, "obsValid": true, "obsReviewed": false, "locationPrivate": true, "subId": "S291257788"}, {"speciesCode": "brncre", "comName": "Brown Creeper", "sciName": "Certhia americana", "locId": "L38710418", "locName": "Donnelly/DePue Waterfowl Mgmt Area", "obsDt": "2025-12-16 12:44", "howMany": 2, "lat": 41.286133, "lng": -89.324387, "obsValid": true, "obsReviewed": false, "locationPrivate": true, "subId": "S288875422"}, {"speciesCode": "carwre", "comName": "Carolina Wren", "sciName": "Thryothorus ludovicianus", "locId": "L38710418", "locName": "Donnelly/DePue Waterfowl Mgmt Area", "obsDt": "2025-12-16 12:44", "howMany": 2, "lat": 41.286133, "lng": -89.324387, "obsValid": true, "obsReviewed": false, "locationPrivate": true, "subId": "S288875422"}, {"speciesCode": "sonspa", "comName": "Song Sparrow", "sciName": "Melospiza melodia", "locId": "L38710418", "locName": "Donnelly/DePue Waterfowl Mgmt Area", "obsDt": "2025-12-16 12:44", "howMany": 4, "lat": 41.286133, "lng": -89.324387, "obsValid": true, "obsReviewed": false, "locationPrivate": true, "subId": "S288875422"}, {"speciesCode": "swaspa", "comName": "Swamp Sparrow", "sciName": "Melospiza georgiana", "locId": "L38710418", "locName": "Donnelly/DePue Waterfowl Mgmt Area", "obsDt": "2025-12-16 12:44", "howMany": 1, "lat": 41.286133, "lng": -89.324387, "obsValid": true, "obsReviewed": false, "locationPrivate": true, "subId": "S288875422"}, {"speciesCode": "horlar", "comName": "Horned Lark", "sciName": "Eremophila alpestris", "locId": "L8294940", "locName": "West of River, south of town of Putnam", "obsDt": "2025-12-16 11:55", "howMany": 6, "lat": 41.1610986, "lng": -89.3695629, "obsValid": true, "obsReviewed": false, "locationPrivate": true, "subId": "S291253922"}, {"speciesCode": "winwre3", "comName": "Winter Wren", "sciName": "Troglodytes hiemalis", "locId": "L8294940", "locName": "West of River, south of town of Putnam", "obsDt": "2025-12-16 11:55", "howMany": 1, "lat": 41.1610986, "lng": -89.3695629, "obsValid": true, "obsReviewed": false, "locationPrivate": true, "subId": "S291253922"}, {"speciesCode": "rocpig", "comName": "Rock Pigeon", "sciName": "Columba livia", "locId": "L56038323", "locName": "9000\u20139186 N 600th Ave, Hennepin US-IL 41.19145, -89.29767", "obsDt": "2025-12-16 11:27", "howMany": 5, "lat": 41.191452, "lng": -89.297675, "obsValid": true, "obsReviewed": false, "locationPrivate": true, "subId": "S288874254", "exoticCategory": "N"}, {"speciesCode": "eucdov", "comName": "Eurasian Collared-Dove", "sciName": "Streptopelia decaocto", "locId": "L56038323", "locName": "9000\u20139186 N 600th Ave, Hennepin US-IL 41.19145, -89.29767", "obsDt": "2025-12-16 11:27", "howMany": 6, "lat": 41.191452, "lng": -89.297675, "obsValid": true, "obsReviewed": false, "locationPrivate": true, "subId": "S288874254", "exoticCategory": "N"}, {"speciesCode": "easmea", "comName": "Eastern Meadowlark", "sciName": "Sturnella magna", "locId": "L56038323", "locName": "9000\u20139186 N 600th Ave, Hennepin US-IL 41.19145, -89.29767", "obsDt": "2025-12-16 11:27", "howMany": 1, "lat": 41.191452, "lng": -89.297675, "obsValid": true, "obsReviewed": false, "locationPrivate": true, "subId": "S288874254"}, {"speciesCode": "mallar3", "comName": "Mallard", "sciName": "Anas platyrhynchos", "locId": "L680795", "locName": "Lake Senachwine (Putnam Co.)", "obsDt": "2025-12-16 10:50", "howMany": 1250, "lat": 41.1858889, "lng": -89.3545532, "obsValid": true, "obsReviewed": false, "locationPrivate": false, "subId": "S291242238"}, {"speciesCode": "ambduc", "comName": "American Black Duck", "sciName": "Anas rubripes", "locId": "L680795", "locName": "Lake Senachwine (Putnam Co.)", "obsDt": "2025-12-16 10:50", "howMany": 6, "lat": 41.1858889, "lng": -89.3545532, "obsValid": true, "obsReviewed": false, "locationPrivate": false, "subId": "S291242238"}, {"speciesCode": "gnwtea", "comName": "Green-winged Teal", "sciName": "Anas crecca", "locId": "L680795", "locName": "Lake Senachwine (Putnam Co.)", "obsDt": "2025-12-16 10:50", "howMany": 28, "lat": 41.1858889, "lng": -89.3545532, "obsValid": true, "obsReviewed": false, "locationPrivate": false, "subId": "S291242238"}, {"speciesCode": "killde", "comName": "Killdeer", "sciName": "Charadrius vociferus", "locId": "L680795", "locName": "Lake Senachwine (Putnam Co.)", "obsDt": "2025-12-16 10:50", "howMany": 2, "lat": 41.1858889, "lng": -89.3545532, "obsValid": true, "obsReviewed": false, "locationPrivate": false, "subId": "S291242238"}, {"speciesCode": "gadwal", "comName": "Gadwall", "sciName": "Mareca strepera", "locId": "L56035196", "locName": "Swan Lake Duck Club Shack (private)", "obsDt": "2025-12-16 10:40", "howMany": 40, "lat": 41.165185, "lng": -89.306724, "obsValid": true, "obsReviewed": false, "locationPrivate": true, "subId": "S288858383"}, {"speciesCode": "norpin", "comName": "Northern Pintail", "sciName": "Anas acuta", "locId": "L56035196", "locName": "Swan Lake Duck Club Shack (private)", "obsDt": "2025-12-16 10:40", "howMany": 1, "lat": 41.165185, "lng": -89.306724, "obsValid": true, "obsReviewed": false, "locationPrivate": true, "subId": "S288858383"}, {"speciesCode": "rudduc", "comName": "Ruddy Duck", "sciName": "Oxyura jamaicensis", "locId": "L56035196", "locName": "Swan Lake Duck Club Shack (private)", "obsDt": "2025-12-16 10:40", "howMany": 1, "lat": 41.165185, "lng": -89.306724, "obsValid": true, "obsReviewed": false, "locationPrivate": true, "subId": "S288858383"}, {"speciesCode": "belkin1", "comName": "Belted Kingfisher", "sciName": "Megaceryle alcyon", "locId": "L56035196", "locName": "Swan Lake Duck Club Shack (private)", "obsDt": "2025-12-16 10:40", "howMany": 1, "lat": 41.165185, "lng": -89.306724, "obsValid": true, "obsReviewed": false, "locationPrivate": true, "subId": "S288858383"}, {"speciesCode": "amepip", "comName": "American Pipit", "sciName": "Anthus rubescens", "locId": "L56035196", "locName": "Swan Lake Duck Club Shack (private)", "obsDt": "2025-12-16 10:40", "howMany": 1, "lat": 41.165185, "lng": -89.306724, "obsValid": true, "obsReviewed": false, "locationPrivate": true, "subId": "S288858383"}, {"speciesCode": "reshaw", "comName": "Red-shouldered Hawk", "sciName": "Buteo lineatus", "locId": "L5522453", "locName": "Dixon Waterfowl Refuge--Sandy Hollow", "obsDt": "2025-12-16 10:30", "howMany": 2, "lat": 41.1985202, "lng": -89.321726, "obsValid": true, "obsReviewed": false, "locationPrivate": false, "subId": "S288859209"}, {"speciesCode": "snogoo", "comName": "Snow Goose", "sciName": "Anser caerulescens", "locId": "L164819", "locName": "Dixon Waterfowl Refuge at Hennepin & Hopper Lakes", "obsDt": "2025-12-16 09:57", "howMany": 20, "lat": 41.2132356, "lng": -89.3230426, "obsValid": true, "obsReviewed": false, "locationPrivate": false, "subId": "S288851045"}, {"speciesCode": "foxspa", "comName": "Fox Sparrow", "sciName": "Passerella iliaca", "locId": "L17166766", "locName": "Putnam CBC rural roads", "obsDt": "2025-12-16 09:53", "howMany": 2, "lat": 41.290411, "lng": -89.2456677, "obsValid": true, "obsReviewed": false, "locationPrivate": true, "subId": "S288851996"}, {"speciesCode": "gockin", "comName": "Golden-crowned Kinglet", "sciName": "Regulus satrapa", "locId": "L817870", "locName": "Miller-Anderson Woods Nature Preserve (Putnam Co.)", "obsDt": "2025-12-16 09:15", "howMany": 1, "lat": 41.2323157, "lng": -89.402318, "obsValid": true, "obsReviewed": false, "locationPrivate": false, "subId": "S291233460"}, {"speciesCode": "eastow", "comName": "Eastern Towhee", "sciName": "Pipilo erythrophthalmus", "locId": "L817870", "locName": "Miller-Anderson Woods Nature Preserve (Putnam Co.)", "obsDt": "2025-12-16 09:15", "howMany": 1, "lat": 41.2323157, "lng": -89.402318, "obsValid": true, "obsReviewed": false, "locationPrivate": false, "subId": "S291233460"}, {"speciesCode": "yerwar", "comName": "Yellow-rumped Warbler", "sciName": "Setophaga coronata", "locId": "L817870", "locName": "Miller-Anderson Woods Nature Preserve (Putnam Co.)", "obsDt": "2025-12-16 09:15", "howMany": 4, "lat": 41.2323157, "lng": -89.402318, "obsValid": true, "obsReviewed": false, "locationPrivate": false, "subId": "S291233460"}, {"speciesCode": "grbher3", "comName": "Great Blue Heron", "sciName": "Ardea herodias", "locId": "L17166735", "locName": "Bottom Road, Putnam", "obsDt": "2025-12-16 08:49", "howMany": 1, "lat": 41.3049582, "lng": -89.202598, "obsValid": true, "obsReviewed": false, "locationPrivate": true, "subId": "S288840943"}, {"speciesCode": "mutswa", "comName": "Mute Swan", "sciName": "Cygnus olor", "locId": "L164819", "locName": "Dixon Waterfowl Refuge at Hennepin & Hopper Lakes", "obsDt": "2025-12-16 07:10", "howMany": 10, "lat": 41.2132356, "lng": -89.3230426, "obsValid": true, "obsReviewed": false, "locationPrivate": false, "subId": "S288842282", "exoticCategory": "N"}, {"speciesCode": "truswa", "comName": "Trumpeter Swan", "sciName": "Cygnus buccinator", "locId": "L164819", "locName": "Dixon Waterfowl Refuge at Hennepin & Hopper Lakes", "obsDt": "2025-12-16 07:10", "howMany": 12, "lat": 41.2132356, "lng": -89.3230426, "obsValid": true, "obsReviewed": false, "locationPrivate": false, "subId": "S288842282"}, {"speciesCode": "tunswa", "comName": "Tundra Swan", "sciName": "Cygnus columbianus", "locId": "L164819", "locName": "Dixon Waterfowl Refuge at Hennepin & Hopper Lakes", "obsDt": "2025-12-16 07:10", "howMany": 4, "lat": 41.2132356, "lng": -89.3230426, "obsValid": true, "obsReviewed": false, "locationPrivate": false, "subId": "S288842282"}, {"speciesCode": "wiltur", "comName": "Wild Turkey", "sciName": "Meleagris gallopavo", "locId": "L164819", "locName": "Dixon Waterfowl Refuge at Hennepin & Hopper Lakes", "obsDt": "2025-12-16 07:10", "howMany": 3, "lat": 41.2132356, "lng": -89.3230426, "obsValid": true, "obsReviewed": false, "locationPrivate": false, "subId": "S288842282"}, {"speciesCode": "sancra", "comName": "Sandhill Crane", "sciName": "Antigone canadensis", "locId": "L164819", "locName": "Dixon Waterfowl Refuge at Hennepin & Hopper Lakes", "obsDt": "2025-12-16 07:10", "howMany": 26, "lat": 41.2132356, "lng": -89.3230426, "obsValid": true, "obsReviewed": false, "locationPrivate": false, "subId": "S288842282"}, {"speciesCode": "wilsni1", "comName": "Wilson's Snipe", "sciName": "Gallinago delicata", "locId": "L164819", "locName": "Dixon Waterfowl Refuge at Hennepin & Hopper Lakes", "obsDt": "2025-12-16 07:10", "howMany": 7, "lat": 41.2132356, "lng": -89.3230426, "obsValid": true, "obsReviewed": false, "locationPrivate": false, "subId": "S288842282"}, {"speciesCode": "grycat", "comName": "Gray Catbird", "sciName": "Dumetella carolinensis", "locId": "L164819", "locName": "Dixon Waterfowl Refuge at Hennepin & Hopper Lakes", "obsDt": "2025-12-16 07:10", "howMany": 2, "lat": 41.2132356, "lng": -89.3230426, "obsValid": true, "obsReviewed": true, "locationPrivate": false, "subId": "S288842282"}]