[{"speciesCode": "sheowl", "comName": "Short-eared Owl", "sciName": "Asio flammeus", "locId": "L10385883", "locName": "20541 E 500 North Rd, Downs US-IL (40.3550,-88.8626)", "obsDt": "2025-12-27 17:37", "howMany": 1, "lat": 40.354978, "lng": -88.862594, "obsValid": true, "obsReviewed": false, "locationPrivate": true, "subId": "S290654330"}, {"speciesCode": "easowl1", "comName": "Eastern Screech-Owl", "sciName": "Megascops asio", "locId": "L1520022", "locName": "Hidden Creek Nature Sanctuary", "obsDt": "2025-12-27 16:23", "howMany": 1, "lat": 40.5171031, "lng": -88.9857914, "obsValid": true, "obsReviewed": false, "locationPrivate": false, "subId": "S290651440"}, {"speciesCode": "rethaw", "comName": "Red-tailed Hawk", "sciName": "Buteo jamaicensis", "locId": "L56430615", "locName": "Shell Gas Station, 805 Hemlock Street, Le Roy, Illinois, US (40.337, -88.769)", "obsDt": "2025-12-27 15:43", "howMany": 1, "lat": 40.3371437, "lng": -88.7688586, "obsValid": true, "obsReviewed": false, "locationPrivate": true, "subId": "S290631782"}, {"speciesCode": "amekes", "comName": "American Kestrel", "sciName": "Falco sparverius", "locId": "L56430615", "locName": "Shell Gas Station, 805 Hemlock Street, Le Roy, Illinois, US (40.337, -88.769)", "obsDt": "2025-12-27 15:43", "howMany": 1, "lat": 40.3371437, "lng": -88.7688586, "obsValid": true, "obsReviewed": false, "locationPrivate": true, "subId": "S290631782"}, {"speciesCode": "eursta", "comName": "European Starling", "sciName": "Sturnus vulgaris", "locId": "L56430615", "locName": "Shell Gas Station, 805 Hemlock Street, Le Roy, Illinois, US (40.337, -88.769)", "obsDt": "2025-12-27 15:43", "lat": 40.3371437, "lng": -88.7688586, "obsValid": true, "obsReviewed": false, "locationPrivate": true, "subId": "S290631782", "exoticCategory": "N"}, {"speciesCode": "houspa", "comName": "House Sparrow", "sciName": "Passer domesticus", "locId": "L56430615", "locName": "Shell Gas Station, 805 Hemlock Street, Le Roy, Illinois, US (40.337, -88.769)", "obsDt": "2025-12-27 15:43", "lat": 40.3371437, "lng": -88.7688586, "obsValid": true, "obsReviewed": false, "locationPrivate": true, "subId": "S290631782", "exoticCategory": "N"}, {"speciesCode": "cangoo", "comName": "Canada Goose", "sciName": "Branta canadensis", "locId": "L30927250", "locName": "Lake Bloomington--North Park", "obsDt": "2025-12-27 15:40", "howMany": 20, "lat": 40.6618186, "lng": -88.9329776, "obsValid": true, "obsReviewed": false, "locationPrivate": false, "subId": "S290671076"}, {"speciesCode": "baleag", "comName": "Bald Eagle", "sciName": "Haliaeetus leucocephalus", "locId": "L30927250", "locName": "Lake Bloomington--North Park", "obsDt": "2025-12-27 15:40", "howMany": 1, "lat": 40.6618186, "lng": -88.9329776, "obsValid": true, "obsReviewed": false, "locationPrivate": false, "subId": "S290671076"}, {"speciesCode": "rebwoo", "comName": "Red-bellied Woodpecker", "sciName": "Melanerpes carolinus", "locId": "L30927250", "locName": "Lake Bloomington--North Park", "obsDt": "2025-12-27 15:40", "howMany": 1, "lat": 40.6618186, "lng": -88.9329776, "obsValid": true, "obsReviewed": false, "locationPrivate": false, "subId": "S290671076"}, {"speciesCode": "dowwoo", "comName": "Downy Woodpecker", "sciName": "Dryobates pubescens", "locId": "L30927250", "locName": "Lake Bloomington--North Park", "obsDt": "2025-12-27 15:40", "howMany": 1, "lat": 40.6618186, "lng": -88.9329776, "obsValid": true, "obsReviewed": false, "locationPrivate": false, "subId": "S290671076"}, {"speciesCode": "tuftit", "comName": "Tufted Titmouse", "sciName": "Baeolophus bicolor", "locId": "L30927250", "locName": "Lake Bloomington--North Park", "obsDt": "2025-12-27 15:40", "howMany": 1, "lat": 40.6618186, "lng": -88.9329776, "obsValid": true, "obsReviewed": false, "locationPrivate": false, "subId": "S290671076"}, {"speciesCode": "whbnut", "comName": "White-breasted Nuthatch", "sciName": "Sitta carolinensis", "locId": "L30927250", "locName": "Lake Bloomington--North Park", "obsDt": "2025-12-27 15:40", "howMany": 12, "lat": 40.6618186, "lng": -88.9329776, "obsValid": true, "obsReviewed": false, "locationPrivate": false, "subId": "S290671076"}, {"speciesCode": "amtspa", "comName": "American Tree Sparrow", "sciName": "Spizelloides arborea", "locId": "L30927250", "locName": "Lake Bloomington--North Park", "obsDt": "2025-12-27 15:40", "howMany": 12, "lat": 40.6618186, "lng": -88.9329776, "obsValid": true, "obsReviewed": false, "locationPrivate": false, "subId": "S290671076"}, {"speciesCode": "daejun", "comName": "Dark-eyed Junco", "sciName": "Junco hyemalis", "locId": "L30927250", "locName": "Lake Bloomington--North Park", "obsDt": "2025-12-27 15:40", "howMany": 14, "lat": 40.6618186, "lng": -88.9329776, "obsValid": true, "obsReviewed": false, "locationPrivate": false, "subId": "S290671076"}, {"speciesCode": "blujay", "comName": "Blue Jay", "sciName": "Cyanocitta cristata", "locId": "L56429163", "locName": "3210 W Northtown Rd, Normal US-IL 40.54691, -89.05428", "obsDt": "2025-12-27 14:31", "howMany": 2, "lat": 40.546906, "lng": -89.054278, "obsValid": true, "obsReviewed": false, "locationPrivate": true, "subId": "S290625665"}, {"speciesCode": "houfin", "comName": "House Finch", "sciName": "Haemorhous mexicanus", "locId": "L56429163", "locName": "3210 W Northtown Rd, Normal US-IL 40.54691, -89.05428", "obsDt": "2025-12-27 14:31", "howMany": 2, "lat": 40.546906, "lng": -89.054278, "obsValid": true, "obsReviewed": false, "locationPrivate": true, "subId": "S290625665", "exoticCategory": "N"}, {"speciesCode": "rewbla", "comName": "Red-winged Blackbird", "sciName": "Agelaius phoeniceus", "locId": "L56429163", "locName": "3210 W Northtown Rd, Normal US-IL 40.54691, -89.05428", "obsDt": "2025-12-27 14:31", "howMany": 6, "lat": 40.546906, "lng": -89.054278, "obsValid": true, "obsReviewed": false, "locationPrivate": true, "subId": "S290625665"}, {"speciesCode": "bnhcow", "comName": "Brown-headed Cowbird", "sciName": "Molothrus ater", "locId": "L56429163", "locName": "3210 W Northtown Rd, Normal US-IL 40.54691, -89.05428", "obsDt": "2025-12-27 14:31", "howMany": 40, "lat": 40.546906, "lng": -89.054278, "obsValid": true, "obsReviewed": false, "locationPrivate": true, "subId": "S290625665"}, {"speciesCode": "horlar", "comName": "Horned Lark", "sciName": "Eremophila alpestris", "locId": "L56440354", "locName": "N 1850 East Rd, Gridley US-IL 40.72449, -88.91920", "obsDt": "2025-12-27 14:06", "howMany": 2, "lat": 40.724494, "lng": -88.919199, "obsValid": true, "obsReviewed": false, "locationPrivate": true, "subId": "S290671037"}, {"speciesCode": "amerob", "comName": "American Robin", "sciName": "Turdus migratorius", "locId": "L56440354", "locName": "N 1850 East Rd, Gridley US-IL 40.72449, -88.91920", "obsDt": "2025-12-27 14:06", "howMany": 1, "lat": 40.724494, "lng": -88.919199, "obsValid": true, "obsReviewed": false, "locationPrivate": true, "subId": "S290671037"}, {"speciesCode": "laplon", "comName": "Lapland Longspur", "sciName": "Calcarius lapponicus", "locId": "L56440354", "locName": "N 1850 East Rd, Gridley US-IL 40.72449, -88.91920", "obsDt": "2025-12-27 14:06", "howMany": 11, "lat": 40.724494, "lng": -88.919199, "obsValid": true, "obsReviewed": false, "locationPrivate": true, "subId": "S290671037"}, {"speciesCode": "norcar", "comName": "Northern Cardinal", "sciName": "Cardinalis cardinalis", "locId": "L8320051", "locName": "8376 Idlewood Dr, Bloomington US-IL (40.4065,-88.8917)", "obsDt": "2025-12-27 13:29", "howMany": 2, "lat": 40.406461, "lng": -88.891686, "obsValid": true, "obsReviewed": false, "locationPrivate": true, "subId": "S290599251"}, {"speciesCode": "perfal", "comName": "Peregrine Falcon", "sciName": "Falco peregrinus", "locId": "L12359458", "locName": "Illinois State University", "obsDt": "2025-12-27 13:25", "howMany": 1, "lat": 40.5086659, "lng": -88.9911463, "obsValid": true, "obsReviewed": false, "locationPrivate": false, "subId": "S290601879"}, {"speciesCode": "comgol", "comName": "Common Goldeneye", "sciName": "Bucephala clangula", "locId": "L300506", "locName": "White Oak Park, Bloomington", "obsDt": "2025-12-27 13:11", "howMany": 13, "lat": 40.494184, "lng": -89.0151165, "obsValid": true, "obsReviewed": false, "locationPrivate": false, "subId": "S290594995"}, {"speciesCode": "horgre", "comName": "Horned Grebe", "sciName": "Podiceps auritus", "locId": "L300506", "locName": "White Oak Park, Bloomington", "obsDt": "2025-12-27 13:11", "howMany": 1, "lat": 40.494184, "lng": -89.0151165, "obsValid": true, "obsReviewed": false, "locationPrivate": false, "subId": "S290594995"}, {"speciesCode": "mutswa", "comName": "Mute Swan", "sciName": "Cygnus olor", "locId": "L11208014", "locName": "Heyworth Sewage Treatment Ponds (restricted access)", "obsDt": "2025-12-27 12:59", "howMany": 10, "lat": 40.3186068, "lng": -88.994445, "obsValid": true, "obsReviewed": false, "locationPrivate": false, "subId": "S290590697", "exoticCategory": "N"}, {"speciesCode": "mallar3", "comName": "Mallard", "sciName": "Anas platyrhynchos", "locId": "L11208014", "locName": "Heyworth Sewage Treatment Ponds (restricted access)", "obsDt": "2025-12-27 12:59", "howMany": 8, "lat": 40.3186068, "lng": -88.994445, "obsValid": true, "obsReviewed": false, "locationPrivate": false, "subId": "S290590697"}, {"speciesCode": "canvas", "comName": "Canvasback", "sciName": "Aythya valisineria", "locId": "L11208014", "locName": "Heyworth Sewage Treatment Ponds (restricted access)", "obsDt": "2025-12-27 12:59", "howMany": 1, "lat": 40.3186068, "lng": -88.994445, "obsValid": true, "obsReviewed": false, "locationPrivate": false, "subId": "S290590697"}, {"speciesCode": "ribgul", "comName": "Ring-billed Gull", "sciName": "Larus delawarensis", "locId": "L11208014", "locName": "Heyworth Sewage Treatment Ponds (restricted access)", "obsDt": "2025-12-27 12:59", "howMany": 6, "lat": 40.3186068, "lng": -88.994445, "obsValid": true, "obsReviewed": false, "locationPrivate": false, "subId": "S290590697"}, {"speciesCode": "amecro", "comName": "American Crow", "sciName": "Corvus brachyrhynchos", "locId": "L11208014", "locName": "Heyworth Sewage Treatment Ponds (restricted access)", "obsDt": "2025-12-27 12:59", "howMany": 3, "lat": 40.3186068, "lng": -88.994445, "obsValid": true, "obsReviewed": false, "locationPrivate": false, "subId": "S290590697"}, {"speciesCode": "gwfgoo", "comName": "Greater White-fronted Goose", "sciName": "Anser albifrons", "locId": "L29498483", "locName": "Heyworth Quarry Ponds (roadside birding only)", "obsDt": "2025-12-27 12:48", "howMany": 50, "lat": 40.304406, "lng": -89.035533, "obsValid": true, "obsReviewed": false, "locationPrivate": false, "subId": "S290588061"}, {"speciesCode": "commer", "comName": "Common Merganser", "sciName": "Mergus merganser", "locId": "L29498483", "locName": "Heyworth Quarry Ponds (roadside birding only)", "obsDt": "2025-12-27 12:48", "howMany": 2, "lat": 40.304406, "lng": -89.035533, "obsValid": true, "obsReviewed": false, "locationPrivate": false, "subId": "S290588061"}, {"speciesCode": "pibgre", "comName": "Pied-billed Grebe", "sciName": "Podilymbus podiceps", "locId": "L4137491", "locName": "Downs Quarry Ponds (roadside birding only)", "obsDt": "2025-12-27 12:26", "howMany": 1, "lat": 40.388235, "lng": -88.881895, "obsValid": true, "obsReviewed": false, "locationPrivate": false, "subId": "S290581807"}, {"speciesCode": "truswa", "comName": "Trumpeter Swan", "sciName": "Cygnus buccinator", "locId": "L293830", "locName": "Evergreen Lake (McLean Co.)", "obsDt": "2025-12-27 10:06", "howMany": 6, "lat": 40.6445574, "lng": -89.042146, "obsValid": true, "obsReviewed": true, "locationPrivate": false, "subId": "S290625780"}, {"speciesCode": "grbher3", "comName": "Great Blue Heron", "sciName": "Ardea herodias", "locId": "L293830", "locName": "Evergreen Lake (McLean Co.)", "obsDt": "2025-12-27 10:06", "howMany": 1, "lat": 40.6445574, "lng": -89.042146, "obsValid": true, "obsReviewed": false, "locationPrivate": false, "subId": "S290625780"}, {"speciesCode": "yebsap", "comName": "Yellow-bellied Sapsucker", "sciName": "Sphyrapicus varius", "locId": "L293830", "locName": "Evergreen Lake (McLean Co.)", "obsDt": "2025-12-27 10:06", "howMany": 2, "lat": 40.6445574, "lng": -89.042146, "obsValid": true, "obsReviewed": false, "locationPrivate": false, "subId": "S290625780"}, {"speciesCode": "haiwoo", "comName": "Hairy Woodpecker", "sciName": "Leuconotopicus villosus", "locId": "L293830", "locName": "Evergreen Lake (McLean Co.)", "obsDt": "2025-12-27 10:06", "howMany": 1, "lat": 40.6445574, "lng": -89.042146, "obsValid": true, "obsReviewed": false, "locationPrivate": false, "subId": "S290625780"}, {"speciesCode": "norfli", "comName": "Northern Flicker", "sciName": "Colaptes auratus", "locId": "L293830", "locName": "Evergreen Lake (McLean Co.)", "obsDt": "2025-12-27 10:06", "howMany": 6, "lat": 40.6445574, "lng": -89.042146, "obsValid": true, "obsReviewed": false, "locationPrivate": false, "subId": "S290625780"}, {"speciesCode": "bkcchi", "comName": "Black-capped Chickadee", "sciName": "Poecile atricapillus", "locId": "L293830", "locName": "Evergreen Lake (McLean Co.)", "obsDt": "2025-12-27 10:06", "howMany": 6, "lat": 40.6445574, "lng": -89.042146, "obsValid": true, "obsReviewed": false, "locationPrivate": false, "subId": "S290625780"}, {"speciesCode": "carwre", "comName": "Carolina Wren", "sciName": "Thryothorus ludovicianus", "locId": "L293830", "locName": "Evergreen Lake (McLean Co.)", "obsDt": "2025-12-27 10:06", "howMany": 2, "lat": 40.6445574, "lng": -89.042146, "obsValid": true, "obsReviewed": false, "locationPrivate": false, "subId": "S290625780"}, {"speciesCode": "easblu", "comName": "Eastern Bluebird", "sciName": "Sialia sialis", "locId": "L293830", "locName": "Evergreen Lake (McLean Co.)", "obsDt": "2025-12-27 10:06", "howMany": 3, "lat": 40.6445574, "lng": -89.042146, "obsValid": true, "obsReviewed": false, "locationPrivate": false, "subId": "S290625780"}, {"speciesCode": "purfin", "comName": "Purple Finch", "sciName": "Haemorhous purpureus", "locId": "L293830", "locName": "Evergreen Lake (McLean Co.)", "obsDt": "2025-12-27 10:06", "howMany": 2, "lat": 40.6445574, "lng": -89.042146, "obsValid": true, "obsReviewed": false, "locationPrivate": false, "subId": "S290625780"}, {"speciesCode": "whtspa", "comName": "White-throated Sparrow", "sciName": "Zonotrichia albicollis", "locId": "L293830", "locName": "Evergreen Lake (McLean Co.)", "obsDt": "2025-12-27 10:06", "howMany": 30, "lat": 40.6445574, "lng": -89.042146, "obsValid": true, "obsReviewed": false, "locationPrivate": false, "subId": "S290625780"}, {"speciesCode": "belkin1", "comName": "Belted Kingfisher", "sciName": "Megaceryle alcyon", "locId": "L1056875", "locName": "Centennial Park, Heyworth", "obsDt": "2025-12-27 09:41", "howMany": 1, "lat": 40.3153548, "lng": -89.0020436, "obsValid": true, "obsReviewed": false, "locationPrivate": false, "subId": "S290598986"}, {"speciesCode": "rehwoo", "comName": "Red-headed Woodpecker", "sciName": "Melanerpes erythrocephalus", "locId": "L328859", "locName": "Merwin Nature Preserve--North of Mackinaw River", "obsDt": "2025-12-27 09:20", "howMany": 2, "lat": 40.6661824, "lng": -88.8987601, "obsValid": true, "obsReviewed": false, "locationPrivate": false, "subId": "S290790467"}, {"speciesCode": "brncre", "comName": "Brown Creeper", "sciName": "Certhia americana", "locId": "L13642552", "locName": "Herrin's Nest - Spin Lake, Danvers (McLean Co.)", "obsDt": "2025-12-27 09:00", "howMany": 2, "lat": 40.5567273, "lng": -89.2499908, "obsValid": true, "obsReviewed": false, "locationPrivate": true, "subId": "S290875536"}, {"speciesCode": "eutspa", "comName": "Eurasian Tree Sparrow", "sciName": "Passer montanus", "locId": "L13642552", "locName": "Herrin's Nest - Spin Lake, Danvers (McLean Co.)", "obsDt": "2025-12-27 09:00", "howMany": 7, "lat": 40.5567273, "lng": -89.2499908, "obsValid": true, "obsReviewed": false, "locationPrivate": true, "subId": "S290875536", "exoticCategory": "N"}, {"speciesCode": "tunswa", "comName": "Tundra Swan", "sciName": "Cygnus columbianus", "locId": "L29498483", "locName": "Heyworth Quarry Ponds (roadside birding only)", "obsDt": "2025-12-27 08:29", "howMany": 2, "lat": 40.304406, "lng": -89.035533, "obsValid": true, "obsReviewed": false, "locationPrivate": false, "subId": "S290598942"}, {"speciesCode": "gadwal", "comName": "Gadwall", "sciName": "Mareca strepera", "locId": "L300506", "locName": "White Oak Park, Bloomington", "obsDt": "2025-12-27 08:20", "howMany": 1, "lat": 40.494184, "lng": -89.0151165, "obsValid": true, "obsReviewed": false, "locationPrivate": false, "subId": "S290516497"}, {"speciesCode": "sonspa", "comName": "Song Sparrow", "sciName": "Melospiza melodia", "locId": "L300506", "locName": "White Oak Park, Bloomington", "obsDt": "2025-12-27 08:20", "howMany": 1, "lat": 40.494184, "lng": -89.0151165, "obsValid": true, "obsReviewed": false, "locationPrivate": false, "subId": "S290516497"}, {"speciesCode": "norhar2", "comName": "Northern Harrier", "sciName": "Circus hudsonius", "locId": "L38756170", "locName": "400 N. and 1100 E., Shirley", "obsDt": "2025-12-27 07:40", "howMany": 4, "lat": 40.3443475, "lng": -89.0609954, "obsValid": true, "obsReviewed": false, "locationPrivate": false, "subId": "S290599180"}]