[{"speciesCode": "grhowl", "comName": "Great Horned Owl", "sciName": "Bubo virginianus", "locId": "L55775938", "locName": "Westmont Home", "obsDt": "2025-12-06 22:28", "howMany": 2, "lat": 41.794089, "lng": -87.976994, "obsValid": true, "obsReviewed": false, "locationPrivate": true, "subId": "S287598229"}, {"speciesCode": "truswa", "comName": "Trumpeter Swan", "sciName": "Cygnus buccinator", "locId": "L2717205", "locName": "Centennial Trail--West of Route 83 (DuPage Co.)", "obsDt": "2025-12-06 16:28", "howMany": 3, "lat": 41.6877722, "lng": -87.9814202, "obsValid": true, "obsReviewed": false, "locationPrivate": false, "subId": "S287573246"}, {"speciesCode": "amtspa", "comName": "American Tree Sparrow", "sciName": "Spizelloides arborea", "locId": "L2717205", "locName": "Centennial Trail--West of Route 83 (DuPage Co.)", "obsDt": "2025-12-06 16:28", "howMany": 1, "lat": 41.6877722, "lng": -87.9814202, "obsValid": true, "obsReviewed": false, "locationPrivate": false, "subId": "S287573246"}, {"speciesCode": "daejun", "comName": "Dark-eyed Junco", "sciName": "Junco hyemalis", "locId": "L2717205", "locName": "Centennial Trail--West of Route 83 (DuPage Co.)", "obsDt": "2025-12-06 16:28", "howMany": 3, "lat": 41.6877722, "lng": -87.9814202, "obsValid": true, "obsReviewed": false, "locationPrivate": false, "subId": "S287573246"}, {"speciesCode": "cangoo", "comName": "Canada Goose", "sciName": "Branta canadensis", "locId": "L2306429", "locName": "Bensenville Ditch", "obsDt": "2025-12-06 15:40", "howMany": 22, "lat": 41.9430427, "lng": -87.9301588, "obsValid": true, "obsReviewed": false, "locationPrivate": false, "subId": "S287573548"}, {"speciesCode": "mallar3", "comName": "Mallard", "sciName": "Anas platyrhynchos", "locId": "L2306429", "locName": "Bensenville Ditch", "obsDt": "2025-12-06 15:40", "howMany": 33, "lat": 41.9430427, "lng": -87.9301588, "obsValid": true, "obsReviewed": false, "locationPrivate": false, "subId": "S287573548"}, {"speciesCode": "canvas", "comName": "Canvasback", "sciName": "Aythya valisineria", "locId": "L2306429", "locName": "Bensenville Ditch", "obsDt": "2025-12-06 15:40", "howMany": 1, "lat": 41.9430427, "lng": -87.9301588, "obsValid": true, "obsReviewed": false, "locationPrivate": false, "subId": "S287573548"}, {"speciesCode": "rebmer", "comName": "Red-breasted Merganser", "sciName": "Mergus serrator", "locId": "L2306429", "locName": "Bensenville Ditch", "obsDt": "2025-12-06 15:40", "howMany": 1, "lat": 41.9430427, "lng": -87.9301588, "obsValid": true, "obsReviewed": false, "locationPrivate": false, "subId": "S287573548"}, {"speciesCode": "rebnut", "comName": "Red-breasted Nuthatch", "sciName": "Sitta canadensis", "locId": "L5811173", "locName": "Co(r)vid Corner", "obsDt": "2025-12-06 15:35", "howMany": 1, "lat": 41.8878859, "lng": -88.2025445, "obsValid": true, "obsReviewed": false, "locationPrivate": true, "subId": "S287566261"}, {"speciesCode": "houspa", "comName": "House Sparrow", "sciName": "Passer domesticus", "locId": "L5811173", "locName": "Co(r)vid Corner", "obsDt": "2025-12-06 15:35", "howMany": 2, "lat": 41.8878859, "lng": -88.2025445, "obsValid": true, "obsReviewed": false, "locationPrivate": true, "subId": "S287566261", "exoticCategory": "N"}, {"speciesCode": "houfin", "comName": "House Finch", "sciName": "Haemorhous mexicanus", "locId": "L5811173", "locName": "Co(r)vid Corner", "obsDt": "2025-12-06 15:35", "howMany": 1, "lat": 41.8878859, "lng": -88.2025445, "obsValid": true, "obsReviewed": false, "locationPrivate": true, "subId": "S287566261", "exoticCategory": "N"}, {"speciesCode": "foxspa", "comName": "Fox Sparrow", "sciName": "Passerella iliaca", "locId": "L5811173", "locName": "Co(r)vid Corner", "obsDt": "2025-12-06 15:35", "howMany": 1, "lat": 41.8878859, "lng": -88.2025445, "obsValid": true, "obsReviewed": false, "locationPrivate": true, "subId": "S287566261"}, {"speciesCode": "whtspa", "comName": "White-throated Sparrow", "sciName": "Zonotrichia albicollis", "locId": "L5811173", "locName": "Co(r)vid Corner", "obsDt": "2025-12-06 15:35", "howMany": 1, "lat": 41.8878859, "lng": -88.2025445, "obsValid": true, "obsReviewed": false, "locationPrivate": true, "subId": "S287566261"}, {"speciesCode": "hoomer", "comName": "Hooded Merganser", "sciName": "Lophodytes cucullatus", "locId": "L679066", "locName": "West Branch Forest Preserve", "obsDt": "2025-12-06 15:22", "howMany": 4, "lat": 41.9326501, "lng": -88.1819773, "obsValid": true, "obsReviewed": false, "locationPrivate": false, "subId": "S287562217"}, {"speciesCode": "moudov", "comName": "Mourning Dove", "sciName": "Zenaida macroura", "locId": "L152637", "locName": "Fermilab (DuPage Co.)", "obsDt": "2025-12-06 15:00", "howMany": 2, "lat": 41.8395126, "lng": -88.2190218, "obsValid": true, "obsReviewed": false, "locationPrivate": false, "subId": "S287584790"}, {"speciesCode": "sancra", "comName": "Sandhill Crane", "sciName": "Antigone canadensis", "locId": "L14685105", "locName": "Greene Valley Forest Preserve--Thunderbird Area", "obsDt": "2025-12-06 15:00", "howMany": 2, "lat": 41.7356379, "lng": -88.0878548, "obsValid": true, "obsReviewed": false, "locationPrivate": false, "subId": "S287565272"}, {"speciesCode": "whocra", "comName": "Whooping Crane", "sciName": "Grus americana", "locId": "L152637", "locName": "Fermilab (DuPage Co.)", "obsDt": "2025-12-06 15:00", "howMany": 3, "lat": 41.8395126, "lng": -88.2190218, "obsValid": true, "obsReviewed": true, "locationPrivate": false, "subId": "S287584790"}, {"speciesCode": "wilsni1", "comName": "Wilson's Snipe", "sciName": "Gallinago delicata", "locId": "L152637", "locName": "Fermilab (DuPage Co.)", "obsDt": "2025-12-06 15:00", "howMany": 1, "lat": 41.8395126, "lng": -88.2190218, "obsValid": true, "obsReviewed": false, "locationPrivate": false, "subId": "S287584790"}, {"speciesCode": "shshaw", "comName": "Sharp-shinned Hawk", "sciName": "Accipiter striatus", "locId": "L14685105", "locName": "Greene Valley Forest Preserve--Thunderbird Area", "obsDt": "2025-12-06 15:00", "howMany": 1, "lat": 41.7356379, "lng": -88.0878548, "obsValid": true, "obsReviewed": false, "locationPrivate": false, "subId": "S287565272"}, {"speciesCode": "sheowl", "comName": "Short-eared Owl", "sciName": "Asio flammeus", "locId": "L152637", "locName": "Fermilab (DuPage Co.)", "obsDt": "2025-12-06 15:00", "howMany": 1, "lat": 41.8395126, "lng": -88.2190218, "obsValid": true, "obsReviewed": false, "locationPrivate": false, "subId": "S287584790"}, {"speciesCode": "rebwoo", "comName": "Red-bellied Woodpecker", "sciName": "Melanerpes carolinus", "locId": "L14685105", "locName": "Greene Valley Forest Preserve--Thunderbird Area", "obsDt": "2025-12-06 15:00", "howMany": 1, "lat": 41.7356379, "lng": -88.0878548, "obsValid": true, "obsReviewed": false, "locationPrivate": false, "subId": "S287565272"}, {"speciesCode": "norfli", "comName": "Northern Flicker", "sciName": "Colaptes auratus", "locId": "L152637", "locName": "Fermilab (DuPage Co.)", "obsDt": "2025-12-06 15:00", "howMany": 2, "lat": 41.8395126, "lng": -88.2190218, "obsValid": true, "obsReviewed": false, "locationPrivate": false, "subId": "S287584790"}, {"speciesCode": "amekes", "comName": "American Kestrel", "sciName": "Falco sparverius", "locId": "L152637", "locName": "Fermilab (DuPage Co.)", "obsDt": "2025-12-06 15:00", "howMany": 1, "lat": 41.8395126, "lng": -88.2190218, "obsValid": true, "obsReviewed": false, "locationPrivate": false, "subId": "S287584790"}, {"speciesCode": "blujay", "comName": "Blue Jay", "sciName": "Cyanocitta cristata", "locId": "L14685105", "locName": "Greene Valley Forest Preserve--Thunderbird Area", "obsDt": "2025-12-06 15:00", "howMany": 3, "lat": 41.7356379, "lng": -88.0878548, "obsValid": true, "obsReviewed": false, "locationPrivate": false, "subId": "S287565272"}, {"speciesCode": "amecro", "comName": "American Crow", "sciName": "Corvus brachyrhynchos", "locId": "L14685105", "locName": "Greene Valley Forest Preserve--Thunderbird Area", "obsDt": "2025-12-06 15:00", "howMany": 1, "lat": 41.7356379, "lng": -88.0878548, "obsValid": true, "obsReviewed": false, "locationPrivate": false, "subId": "S287565272"}, {"speciesCode": "eursta", "comName": "European Starling", "sciName": "Sturnus vulgaris", "locId": "L14685105", "locName": "Greene Valley Forest Preserve--Thunderbird Area", "obsDt": "2025-12-06 15:00", "howMany": 4, "lat": 41.7356379, "lng": -88.0878548, "obsValid": true, "obsReviewed": false, "locationPrivate": false, "subId": "S287565272", "exoticCategory": "N"}, {"speciesCode": "amerob", "comName": "American Robin", "sciName": "Turdus migratorius", "locId": "L14685105", "locName": "Greene Valley Forest Preserve--Thunderbird Area", "obsDt": "2025-12-06 15:00", "howMany": 1, "lat": 41.7356379, "lng": -88.0878548, "obsValid": true, "obsReviewed": false, "locationPrivate": false, "subId": "S287565272"}, {"speciesCode": "norcar", "comName": "Northern Cardinal", "sciName": "Cardinalis cardinalis", "locId": "L14685105", "locName": "Greene Valley Forest Preserve--Thunderbird Area", "obsDt": "2025-12-06 15:00", "howMany": 1, "lat": 41.7356379, "lng": -88.0878548, "obsValid": true, "obsReviewed": false, "locationPrivate": false, "subId": "S287565272"}, {"speciesCode": "rethaw", "comName": "Red-tailed Hawk", "sciName": "Buteo jamaicensis", "locId": "L4730395", "locName": "Greene Valley - EGV22", "obsDt": "2025-12-06 14:10", "howMany": 1, "lat": 41.7334169, "lng": -88.0752146, "obsValid": true, "obsReviewed": false, "locationPrivate": true, "subId": "S287590844"}, {"speciesCode": "bkcchi", "comName": "Black-capped Chickadee", "sciName": "Poecile atricapillus", "locId": "L16683002", "locName": "The Moth House", "obsDt": "2025-12-06 13:43", "howMany": 1, "lat": 41.7810035, "lng": -88.0201703, "obsValid": true, "obsReviewed": false, "locationPrivate": true, "subId": "S287724256"}, {"speciesCode": "brncre", "comName": "Brown Creeper", "sciName": "Certhia americana", "locId": "L16683002", "locName": "The Moth House", "obsDt": "2025-12-06 13:43", "howMany": 1, "lat": 41.7810035, "lng": -88.0201703, "obsValid": true, "obsReviewed": false, "locationPrivate": true, "subId": "S287724256"}, {"speciesCode": "amegfi", "comName": "American Goldfinch", "sciName": "Spinus tristis", "locId": "L16683002", "locName": "The Moth House", "obsDt": "2025-12-06 13:43", "howMany": 9, "lat": 41.7810035, "lng": -88.0201703, "obsValid": true, "obsReviewed": false, "locationPrivate": true, "subId": "S287724256"}, {"speciesCode": "tunswa", "comName": "Tundra Swan", "sciName": "Cygnus columbianus", "locId": "L152646", "locName": "Greene Valley Forest Preserve", "obsDt": "2025-12-06 13:07", "howMany": 17, "lat": 41.7385, "lng": -88.0777, "obsValid": true, "obsReviewed": false, "locationPrivate": false, "subId": "S287590705"}, {"speciesCode": "rolhaw", "comName": "Rough-legged Hawk", "sciName": "Buteo lagopus", "locId": "L152646", "locName": "Greene Valley Forest Preserve", "obsDt": "2025-12-06 13:07", "howMany": 1, "lat": 41.7385, "lng": -88.0777, "obsValid": true, "obsReviewed": false, "locationPrivate": false, "subId": "S287590705"}, {"speciesCode": "dowwoo", "comName": "Downy Woodpecker", "sciName": "Dryobates pubescens", "locId": "L152646", "locName": "Greene Valley Forest Preserve", "obsDt": "2025-12-06 13:07", "howMany": 3, "lat": 41.7385, "lng": -88.0777, "obsValid": true, "obsReviewed": false, "locationPrivate": false, "subId": "S287590705"}, {"speciesCode": "gockin", "comName": "Golden-crowned Kinglet", "sciName": "Regulus satrapa", "locId": "L152646", "locName": "Greene Valley Forest Preserve", "obsDt": "2025-12-06 13:07", "howMany": 1, "lat": 41.7385, "lng": -88.0777, "obsValid": true, "obsReviewed": false, "locationPrivate": false, "subId": "S287590705"}, {"speciesCode": "whbnut", "comName": "White-breasted Nuthatch", "sciName": "Sitta carolinensis", "locId": "L152646", "locName": "Greene Valley Forest Preserve", "obsDt": "2025-12-06 13:07", "howMany": 3, "lat": 41.7385, "lng": -88.0777, "obsValid": true, "obsReviewed": false, "locationPrivate": false, "subId": "S287590705"}, {"speciesCode": "herthr", "comName": "Hermit Thrush", "sciName": "Catharus guttatus", "locId": "L152646", "locName": "Greene Valley Forest Preserve", "obsDt": "2025-12-06 13:07", "howMany": 3, "lat": 41.7385, "lng": -88.0777, "obsValid": true, "obsReviewed": true, "locationPrivate": false, "subId": "S287590705"}, {"speciesCode": "cedwax", "comName": "Cedar Waxwing", "sciName": "Bombycilla cedrorum", "locId": "L152646", "locName": "Greene Valley Forest Preserve", "obsDt": "2025-12-06 13:07", "howMany": 15, "lat": 41.7385, "lng": -88.0777, "obsValid": true, "obsReviewed": false, "locationPrivate": false, "subId": "S287590705"}, {"speciesCode": "grbher3", "comName": "Great Blue Heron", "sciName": "Ardea herodias", "locId": "L152637", "locName": "Fermilab (DuPage Co.)", "obsDt": "2025-12-06 13:05", "howMany": 1, "lat": 41.8395126, "lng": -88.2190218, "obsValid": true, "obsReviewed": false, "locationPrivate": false, "subId": "S287602107"}, {"speciesCode": "coohaw", "comName": "Cooper's Hawk", "sciName": "Astur cooperii", "locId": "L152637", "locName": "Fermilab (DuPage Co.)", "obsDt": "2025-12-06 13:05", "howMany": 2, "lat": 41.8395126, "lng": -88.2190218, "obsValid": true, "obsReviewed": false, "locationPrivate": false, "subId": "S287602107"}, {"speciesCode": "norhar2", "comName": "Northern Harrier", "sciName": "Circus hudsonius", "locId": "L152637", "locName": "Fermilab (DuPage Co.)", "obsDt": "2025-12-06 13:05", "howMany": 1, "lat": 41.8395126, "lng": -88.2190218, "obsValid": true, "obsReviewed": false, "locationPrivate": false, "subId": "S287602107"}, {"speciesCode": "easblu", "comName": "Eastern Bluebird", "sciName": "Sialia sialis", "locId": "L152637", "locName": "Fermilab (DuPage Co.)", "obsDt": "2025-12-06 13:05", "howMany": 6, "lat": 41.8395126, "lng": -88.2190218, "obsValid": true, "obsReviewed": false, "locationPrivate": false, "subId": "S287602107"}, {"speciesCode": "sonspa", "comName": "Song Sparrow", "sciName": "Melospiza melodia", "locId": "L152637", "locName": "Fermilab (DuPage Co.)", "obsDt": "2025-12-06 13:05", "howMany": 1, "lat": 41.8395126, "lng": -88.2190218, "obsValid": true, "obsReviewed": false, "locationPrivate": false, "subId": "S287602107"}, {"speciesCode": "brdowl", "comName": "Barred Owl", "sciName": "Strix varia", "locId": "L152673", "locName": "Maple Grove Forest Preserve", "obsDt": "2025-12-06 12:49", "howMany": 2, "lat": 41.7905, "lng": -88.0225, "obsValid": true, "obsReviewed": false, "locationPrivate": false, "subId": "S287549805"}, {"speciesCode": "haiwoo", "comName": "Hairy Woodpecker", "sciName": "Leuconotopicus villosus", "locId": "L152673", "locName": "Maple Grove Forest Preserve", "obsDt": "2025-12-06 12:49", "howMany": 1, "lat": 41.7905, "lng": -88.0225, "obsValid": true, "obsReviewed": false, "locationPrivate": false, "subId": "S287549805"}, {"speciesCode": "pilwoo", "comName": "Pileated Woodpecker", "sciName": "Dryocopus pileatus", "locId": "L152646", "locName": "Greene Valley Forest Preserve", "obsDt": "2025-12-06 11:50", "howMany": 2, "lat": 41.7385, "lng": -88.0777, "obsValid": true, "obsReviewed": false, "locationPrivate": false, "subId": "S287560396"}, {"speciesCode": "purfin", "comName": "Purple Finch", "sciName": "Haemorhous purpureus", "locId": "L14685105", "locName": "Greene Valley Forest Preserve--Thunderbird Area", "obsDt": "2025-12-06 11:30", "howMany": 3, "lat": 41.7356379, "lng": -88.0878548, "obsValid": true, "obsReviewed": false, "locationPrivate": false, "subId": "S287554256"}, {"speciesCode": "rewbla", "comName": "Red-winged Blackbird", "sciName": "Agelaius phoeniceus", "locId": "L14685105", "locName": "Greene Valley Forest Preserve--Thunderbird Area", "obsDt": "2025-12-06 11:30", "howMany": 2, "lat": 41.7356379, "lng": -88.0878548, "obsValid": true, "obsReviewed": false, "locationPrivate": false, "subId": "S287554256"}, {"speciesCode": "winwre3", "comName": "Winter Wren", "sciName": "Troglodytes hiemalis", "locId": "L2306429", "locName": "Bensenville Ditch", "obsDt": "2025-12-06 10:20", "howMany": 1, "lat": 41.9430427, "lng": -87.9301588, "obsValid": true, "obsReviewed": false, "locationPrivate": false, "subId": "S287552799"}, {"speciesCode": "horlar", "comName": "Horned Lark", "sciName": "Eremophila alpestris", "locId": "L12743802", "locName": "Kress Creek Farms Park", "obsDt": "2025-12-06 09:51", "howMany": 16, "lat": 41.8547825, "lng": -88.2077297, "obsValid": true, "obsReviewed": false, "locationPrivate": false, "subId": "S287507061"}, {"speciesCode": "ribgul", "comName": "Ring-billed Gull", "sciName": "Larus delawarensis", "locId": "L673076", "locName": "Mallard Lake Forest Preserve", "obsDt": "2025-12-06 08:41", "howMany": 2, "lat": 41.9626175, "lng": -88.1296635, "obsValid": true, "obsReviewed": false, "locationPrivate": false, "subId": "S287509115"}, {"speciesCode": "rocpig", "comName": "Rock Pigeon", "sciName": "Columba livia", "locId": "L5545010", "locName": "Before Lake St., I355", "obsDt": "2025-12-06 08:18", "howMany": 40, "lat": 41.9472664, "lng": -88.0375242, "obsValid": true, "obsReviewed": false, "locationPrivate": true, "subId": "S287580315", "exoticCategory": "N"}, {"speciesCode": "carwre", "comName": "Carolina Wren", "sciName": "Thryothorus ludovicianus", "locId": "L11303719", "locName": "Chicago Avenue", "obsDt": "2025-12-06 08:05", "howMany": 2, "lat": 41.801546, "lng": -88.024753, "obsValid": true, "obsReviewed": false, "locationPrivate": true, "subId": "S287515178"}, {"speciesCode": "reshaw", "comName": "Red-shouldered Hawk", "sciName": "Buteo lineatus", "locId": "L21262385", "locName": "Kirkland Lane, Brandywine", "obsDt": "2025-12-06 08:03", "howMany": 1, "lat": 41.857734, "lng": -87.9761517, "obsValid": true, "obsReviewed": false, "locationPrivate": true, "subId": "S287486107"}, {"speciesCode": "killde", "comName": "Killdeer", "sciName": "Charadrius vociferus", "locId": "L1808867", "locName": "Wood Dale Reservoir", "obsDt": "2025-12-06 08:00", "howMany": 1, "lat": 41.9726752, "lng": -87.9885417, "obsValid": true, "obsReviewed": false, "locationPrivate": false, "subId": "S287580984"}, {"speciesCode": "amhgul1", "comName": "American Herring Gull", "sciName": "Larus smithsonianus", "locId": "L1808867", "locName": "Wood Dale Reservoir", "obsDt": "2025-12-06 08:00", "howMany": 2, "lat": 41.9726752, "lng": -87.9885417, "obsValid": true, "obsReviewed": false, "locationPrivate": false, "subId": "S287580984"}, {"speciesCode": "swaspa", "comName": "Swamp Sparrow", "sciName": "Melospiza georgiana", "locId": "L1808867", "locName": "Wood Dale Reservoir", "obsDt": "2025-12-06 08:00", "howMany": 2, "lat": 41.9726752, "lng": -87.9885417, "obsValid": true, "obsReviewed": false, "locationPrivate": false, "subId": "S287580984"}, {"speciesCode": "pinsis", "comName": "Pine Siskin", "sciName": "Spinus pinus", "locId": "L5811173", "locName": "Co(r)vid Corner", "obsDt": "2025-12-06 07:09", "howMany": 1, "lat": 41.8878859, "lng": -88.2025445, "obsValid": true, "obsReviewed": false, "locationPrivate": true, "subId": "S287483539"}]