[{"speciesCode": "sheowl", "comName": "Short-eared Owl", "sciName": "Asio flammeus", "locId": "L38756170", "locName": "400 N. and 1100 E., Shirley", "obsDt": "2025-12-18 17:00", "howMany": 1, "lat": 40.3443475, "lng": -89.0609954, "obsValid": true, "obsReviewed": false, "locationPrivate": false, "subId": "S289145204"}, {"speciesCode": "cangoo", "comName": "Canada Goose", "sciName": "Branta canadensis", "locId": "L9813619", "locName": "Fransen Nature Area", "obsDt": "2025-12-18 16:15", "lat": 40.5317005, "lng": -88.9749241, "obsValid": true, "obsReviewed": false, "locationPrivate": false, "subId": "S289260744"}, {"speciesCode": "amerob", "comName": "American Robin", "sciName": "Turdus migratorius", "locId": "L9813619", "locName": "Fransen Nature Area", "obsDt": "2025-12-18 16:15", "howMany": 15, "lat": 40.5317005, "lng": -88.9749241, "obsValid": true, "obsReviewed": false, "locationPrivate": false, "subId": "S289260744"}, {"speciesCode": "whtspa", "comName": "White-throated Sparrow", "sciName": "Zonotrichia albicollis", "locId": "L9813619", "locName": "Fransen Nature Area", "obsDt": "2025-12-18 16:15", "howMany": 3, "lat": 40.5317005, "lng": -88.9749241, "obsValid": true, "obsReviewed": false, "locationPrivate": false, "subId": "S289260744"}, {"speciesCode": "coohaw", "comName": "Cooper's Hawk", "sciName": "Astur cooperii", "locId": "L13979137", "locName": "1301 Searle Dr, Normal US-IL 40.50360, -89.00649", "obsDt": "2025-12-18 15:22", "howMany": 1, "lat": 40.503604, "lng": -89.006488, "obsValid": true, "obsReviewed": false, "locationPrivate": true, "subId": "S289115869"}, {"speciesCode": "shshaw", "comName": "Sharp-shinned Hawk", "sciName": "Accipiter striatus", "locId": "L9813619", "locName": "Fransen Nature Area", "obsDt": "2025-12-18 14:40", "howMany": 1, "lat": 40.5317005, "lng": -88.9749241, "obsValid": true, "obsReviewed": false, "locationPrivate": false, "subId": "S289111700"}, {"speciesCode": "purfin", "comName": "Purple Finch", "sciName": "Haemorhous purpureus", "locId": "L19287792", "locName": "15962 E Old Orchard Rd, Bloomington US-IL (40.4240,-88.9617)", "obsDt": "2025-12-18 13:20", "howMany": 1, "lat": 40.424022, "lng": -88.961749, "obsValid": true, "obsReviewed": false, "locationPrivate": true, "subId": "S289128402"}, {"speciesCode": "houspa", "comName": "House Sparrow", "sciName": "Passer domesticus", "locId": "L29268145", "locName": "GreyFoxJewel", "obsDt": "2025-12-18 12:00", "howMany": 20, "lat": 40.453345, "lng": -89.0305, "obsValid": true, "obsReviewed": false, "locationPrivate": true, "subId": "S289095842", "exoticCategory": "N"}, {"speciesCode": "daejun", "comName": "Dark-eyed Junco", "sciName": "Junco hyemalis", "locId": "L29268145", "locName": "GreyFoxJewel", "obsDt": "2025-12-18 12:00", "howMany": 8, "lat": 40.453345, "lng": -89.0305, "obsValid": true, "obsReviewed": false, "locationPrivate": true, "subId": "S289095842"}, {"speciesCode": "norhar2", "comName": "Northern Harrier", "sciName": "Circus hudsonius", "locId": "L56079398", "locName": "McLean CR-1200 East X CR-600 North", "obsDt": "2025-12-18 08:30", "howMany": 1, "lat": 40.3705871, "lng": -89.038466, "obsValid": true, "obsReviewed": false, "locationPrivate": true, "subId": "S289071384"}, {"speciesCode": "rolhaw", "comName": "Rough-legged Hawk", "sciName": "Buteo lagopus", "locId": "L56079398", "locName": "McLean CR-1200 East X CR-600 North", "obsDt": "2025-12-18 08:30", "howMany": 1, "lat": 40.3705871, "lng": -89.038466, "obsValid": true, "obsReviewed": false, "locationPrivate": true, "subId": "S289071384"}]