[{"speciesCode": "merlin", "comName": "Merlin", "sciName": "Falco columbarius", "locId": "L56488512", "locName": "13744 Windy Prairie Drive, Huntley, Illinois, US (42.134, -88.433)", "obsDt": "2025-12-28 15:31", "howMany": 1, "lat": 42.1342976, "lng": -88.4326473, "obsValid": true, "obsReviewed": false, "locationPrivate": true, "subId": "S290873506"}, {"speciesCode": "cangoo", "comName": "Canada Goose", "sciName": "Branta canadensis", "locId": "L42454746", "locName": "Home", "obsDt": "2025-12-28 15:29", "howMany": 120, "lat": 41.810808, "lng": -88.328898, "obsValid": true, "obsReviewed": false, "locationPrivate": true, "subId": "S290888992"}, {"speciesCode": "mallar3", "comName": "Mallard", "sciName": "Anas platyrhynchos", "locId": "L42454746", "locName": "Home", "obsDt": "2025-12-28 15:29", "howMany": 2, "lat": 41.810808, "lng": -88.328898, "obsValid": true, "obsReviewed": false, "locationPrivate": true, "subId": "S290888992"}, {"speciesCode": "rebwoo", "comName": "Red-bellied Woodpecker", "sciName": "Melanerpes carolinus", "locId": "L42454746", "locName": "Home", "obsDt": "2025-12-28 15:29", "howMany": 1, "lat": 41.810808, "lng": -88.328898, "obsValid": true, "obsReviewed": false, "locationPrivate": true, "subId": "S290888992"}, {"speciesCode": "dowwoo", "comName": "Downy Woodpecker", "sciName": "Dryobates pubescens", "locId": "L42454746", "locName": "Home", "obsDt": "2025-12-28 15:29", "howMany": 1, "lat": 41.810808, "lng": -88.328898, "obsValid": true, "obsReviewed": false, "locationPrivate": true, "subId": "S290888992"}, {"speciesCode": "haiwoo", "comName": "Hairy Woodpecker", "sciName": "Leuconotopicus villosus", "locId": "L42454746", "locName": "Home", "obsDt": "2025-12-28 15:29", "howMany": 1, "lat": 41.810808, "lng": -88.328898, "obsValid": true, "obsReviewed": false, "locationPrivate": true, "subId": "S290888992"}, {"speciesCode": "whbnut", "comName": "White-breasted Nuthatch", "sciName": "Sitta carolinensis", "locId": "L42454746", "locName": "Home", "obsDt": "2025-12-28 15:29", "howMany": 1, "lat": 41.810808, "lng": -88.328898, "obsValid": true, "obsReviewed": false, "locationPrivate": true, "subId": "S290888992"}, {"speciesCode": "rebnut", "comName": "Red-breasted Nuthatch", "sciName": "Sitta canadensis", "locId": "L42454746", "locName": "Home", "obsDt": "2025-12-28 15:29", "howMany": 1, "lat": 41.810808, "lng": -88.328898, "obsValid": true, "obsReviewed": false, "locationPrivate": true, "subId": "S290888992"}, {"speciesCode": "brncre", "comName": "Brown Creeper", "sciName": "Certhia americana", "locId": "L42454746", "locName": "Home", "obsDt": "2025-12-28 15:29", "howMany": 1, "lat": 41.810808, "lng": -88.328898, "obsValid": true, "obsReviewed": false, "locationPrivate": true, "subId": "S290888992"}, {"speciesCode": "houspa", "comName": "House Sparrow", "sciName": "Passer domesticus", "locId": "L42454746", "locName": "Home", "obsDt": "2025-12-28 15:29", "howMany": 19, "lat": 41.810808, "lng": -88.328898, "obsValid": true, "obsReviewed": false, "locationPrivate": true, "subId": "S290888992", "exoticCategory": "N"}, {"speciesCode": "houfin", "comName": "House Finch", "sciName": "Haemorhous mexicanus", "locId": "L42454746", "locName": "Home", "obsDt": "2025-12-28 15:29", "howMany": 1, "lat": 41.810808, "lng": -88.328898, "obsValid": true, "obsReviewed": false, "locationPrivate": true, "subId": "S290888992", "exoticCategory": "N"}, {"speciesCode": "daejun", "comName": "Dark-eyed Junco", "sciName": "Junco hyemalis", "locId": "L42454746", "locName": "Home", "obsDt": "2025-12-28 15:29", "howMany": 5, "lat": 41.810808, "lng": -88.328898, "obsValid": true, "obsReviewed": false, "locationPrivate": true, "subId": "S290888992"}, {"speciesCode": "whtspa", "comName": "White-throated Sparrow", "sciName": "Zonotrichia albicollis", "locId": "L42454746", "locName": "Home", "obsDt": "2025-12-28 15:29", "howMany": 1, "lat": 41.810808, "lng": -88.328898, "obsValid": true, "obsReviewed": false, "locationPrivate": true, "subId": "S290888992"}, {"speciesCode": "bnhcow", "comName": "Brown-headed Cowbird", "sciName": "Molothrus ater", "locId": "L42454746", "locName": "Home", "obsDt": "2025-12-28 15:29", "howMany": 1, "lat": 41.810808, "lng": -88.328898, "obsValid": true, "obsReviewed": false, "locationPrivate": true, "subId": "S290888992"}, {"speciesCode": "norcar", "comName": "Northern Cardinal", "sciName": "Cardinalis cardinalis", "locId": "L42454746", "locName": "Home", "obsDt": "2025-12-28 15:29", "howMany": 4, "lat": 41.810808, "lng": -88.328898, "obsValid": true, "obsReviewed": false, "locationPrivate": true, "subId": "S290888992"}, {"speciesCode": "amhgul1", "comName": "American Herring Gull", "sciName": "Larus smithsonianus", "locId": "L1052581", "locName": "Carpentersville Dam (Fox River Shores)", "obsDt": "2025-12-28 14:12", "howMany": 3, "lat": 42.1145956, "lng": -88.2931387, "obsValid": true, "obsReviewed": false, "locationPrivate": false, "subId": "S290869005"}, {"speciesCode": "grbher3", "comName": "Great Blue Heron", "sciName": "Ardea herodias", "locId": "L1052581", "locName": "Carpentersville Dam (Fox River Shores)", "obsDt": "2025-12-28 14:12", "howMany": 6, "lat": 42.1145956, "lng": -88.2931387, "obsValid": true, "obsReviewed": false, "locationPrivate": false, "subId": "S290869005"}, {"speciesCode": "amekes", "comName": "American Kestrel", "sciName": "Falco sparverius", "locId": "L56480206", "locName": "Illinois 47, Huntley, Illinois, US (42.133, -88.433)", "obsDt": "2025-12-28 13:06", "howMany": 1, "lat": 42.1326727, "lng": -88.4325724, "obsValid": true, "obsReviewed": false, "locationPrivate": true, "subId": "S290839811"}, {"speciesCode": "amerob", "comName": "American Robin", "sciName": "Turdus migratorius", "locId": "L1809636", "locName": "Jericho Lake, Montgomery", "obsDt": "2025-12-28 12:06", "howMany": 25, "lat": 41.7381442, "lng": -88.3808041, "obsValid": true, "obsReviewed": false, "locationPrivate": false, "subId": "S291049241"}, {"speciesCode": "snogoo", "comName": "Snow Goose", "sciName": "Anser caerulescens", "locId": "L4355584", "locName": "Wetlands, North Aurora, IL", "obsDt": "2025-12-28 11:57", "howMany": 1, "lat": 41.801135, "lng": -88.3587885, "obsValid": true, "obsReviewed": false, "locationPrivate": true, "subId": "S290822009"}, {"speciesCode": "amecro", "comName": "American Crow", "sciName": "Corvus brachyrhynchos", "locId": "L42454746", "locName": "Home", "obsDt": "2025-12-28 11:19", "howMany": 1, "lat": 41.810808, "lng": -88.328898, "obsValid": true, "obsReviewed": false, "locationPrivate": true, "subId": "S290817549"}, {"speciesCode": "blujay", "comName": "Blue Jay", "sciName": "Cyanocitta cristata", "locId": "L42973546", "locName": "10N581 Highland Trail, Hampshire, Illinois, US (42.019, -88.492)", "obsDt": "2025-12-28 08:34", "howMany": 2, "lat": 42.01946, "lng": -88.4921833, "obsValid": true, "obsReviewed": false, "locationPrivate": true, "subId": "S290765888"}, {"speciesCode": "grhowl", "comName": "Great Horned Owl", "sciName": "Bubo virginianus", "locId": "L46629684", "locName": "41.88519, -88.33243", "obsDt": "2025-12-28 01:13", "howMany": 1, "lat": 41.885186, "lng": -88.332429, "obsValid": true, "obsReviewed": false, "locationPrivate": true, "subId": "S290693590"}]