[{"speciesCode": "grhowl", "comName": "Great Horned Owl", "sciName": "Bubo virginianus", "locId": "L56292045", "locName": "Loon Lake", "obsDt": "2025-12-26 23:02", "howMany": 1, "lat": 42.4592409, "lng": -88.0704068, "obsValid": true, "obsReviewed": false, "locationPrivate": true, "subId": "S290450307"}, {"speciesCode": "cangoo", "comName": "Canada Goose", "sciName": "Branta canadensis", "locId": "L55031444", "locName": "Near US45, IL120", "obsDt": "2025-12-26 15:47", "howMany": 6, "lat": 42.338958, "lng": -88.00118, "obsValid": true, "obsReviewed": false, "locationPrivate": true, "subId": "S290421018"}, {"speciesCode": "ribgul", "comName": "Ring-billed Gull", "sciName": "Larus delawarensis", "locId": "L55031444", "locName": "Near US45, IL120", "obsDt": "2025-12-26 15:47", "howMany": 1, "lat": 42.338958, "lng": -88.00118, "obsValid": true, "obsReviewed": false, "locationPrivate": true, "subId": "S290421018"}, {"speciesCode": "eursta", "comName": "European Starling", "sciName": "Sturnus vulgaris", "locId": "L55031444", "locName": "Near US45, IL120", "obsDt": "2025-12-26 15:47", "howMany": 4, "lat": 42.338958, "lng": -88.00118, "obsValid": true, "obsReviewed": false, "locationPrivate": true, "subId": "S290421018", "exoticCategory": "N"}, {"speciesCode": "houspa", "comName": "House Sparrow", "sciName": "Passer domesticus", "locId": "L55031444", "locName": "Near US45, IL120", "obsDt": "2025-12-26 15:47", "howMany": 40, "lat": 42.338958, "lng": -88.00118, "obsValid": true, "obsReviewed": false, "locationPrivate": true, "subId": "S290421018", "exoticCategory": "N"}, {"speciesCode": "truswa", "comName": "Trumpeter Swan", "sciName": "Cygnus buccinator", "locId": "L4339424", "locName": "Rt. 83 and Winchester Rd. Fluddle", "obsDt": "2025-12-26 15:19", "howMany": 8, "lat": 42.302391, "lng": -88.033191, "obsValid": true, "obsReviewed": false, "locationPrivate": false, "subId": "S290421062"}, {"speciesCode": "tunswa", "comName": "Tundra Swan", "sciName": "Cygnus columbianus", "locId": "L4339424", "locName": "Rt. 83 and Winchester Rd. Fluddle", "obsDt": "2025-12-26 15:19", "howMany": 1, "lat": 42.302391, "lng": -88.033191, "obsValid": true, "obsReviewed": false, "locationPrivate": false, "subId": "S290421062"}, {"speciesCode": "mallar3", "comName": "Mallard", "sciName": "Anas platyrhynchos", "locId": "L4339424", "locName": "Rt. 83 and Winchester Rd. Fluddle", "obsDt": "2025-12-26 15:19", "howMany": 500, "lat": 42.302391, "lng": -88.033191, "obsValid": true, "obsReviewed": false, "locationPrivate": false, "subId": "S290421062"}, {"speciesCode": "moudov", "comName": "Mourning Dove", "sciName": "Zenaida macroura", "locId": "L4339424", "locName": "Rt. 83 and Winchester Rd. Fluddle", "obsDt": "2025-12-26 15:19", "howMany": 30, "lat": 42.302391, "lng": -88.033191, "obsValid": true, "obsReviewed": false, "locationPrivate": false, "subId": "S290421062"}, {"speciesCode": "rethaw", "comName": "Red-tailed Hawk", "sciName": "Buteo jamaicensis", "locId": "L4339424", "locName": "Rt. 83 and Winchester Rd. Fluddle", "obsDt": "2025-12-26 15:19", "howMany": 1, "lat": 42.302391, "lng": -88.033191, "obsValid": true, "obsReviewed": false, "locationPrivate": false, "subId": "S290421062"}, {"speciesCode": "rebwoo", "comName": "Red-bellied Woodpecker", "sciName": "Melanerpes carolinus", "locId": "L654522", "locName": "Heller Nature Center, Highland Park", "obsDt": "2025-12-26 15:15", "howMany": 2, "lat": 42.2046161, "lng": -87.8441906, "obsValid": true, "obsReviewed": false, "locationPrivate": false, "subId": "S290621202"}, {"speciesCode": "haiwoo", "comName": "Hairy Woodpecker", "sciName": "Leuconotopicus villosus", "locId": "L654522", "locName": "Heller Nature Center, Highland Park", "obsDt": "2025-12-26 15:15", "howMany": 1, "lat": 42.2046161, "lng": -87.8441906, "obsValid": true, "obsReviewed": false, "locationPrivate": false, "subId": "S290621202"}, {"speciesCode": "bkcchi", "comName": "Black-capped Chickadee", "sciName": "Poecile atricapillus", "locId": "L654522", "locName": "Heller Nature Center, Highland Park", "obsDt": "2025-12-26 15:15", "howMany": 1, "lat": 42.2046161, "lng": -87.8441906, "obsValid": true, "obsReviewed": false, "locationPrivate": false, "subId": "S290621202"}, {"speciesCode": "amerob", "comName": "American Robin", "sciName": "Turdus migratorius", "locId": "L654522", "locName": "Heller Nature Center, Highland Park", "obsDt": "2025-12-26 15:15", "howMany": 9, "lat": 42.2046161, "lng": -87.8441906, "obsValid": true, "obsReviewed": false, "locationPrivate": false, "subId": "S290621202"}, {"speciesCode": "houfin", "comName": "House Finch", "sciName": "Haemorhous mexicanus", "locId": "L654522", "locName": "Heller Nature Center, Highland Park", "obsDt": "2025-12-26 15:15", "howMany": 1, "lat": 42.2046161, "lng": -87.8441906, "obsValid": true, "obsReviewed": false, "locationPrivate": false, "subId": "S290621202", "exoticCategory": "N"}, {"speciesCode": "daejun", "comName": "Dark-eyed Junco", "sciName": "Junco hyemalis", "locId": "L654522", "locName": "Heller Nature Center, Highland Park", "obsDt": "2025-12-26 15:15", "howMany": 1, "lat": 42.2046161, "lng": -87.8441906, "obsValid": true, "obsReviewed": false, "locationPrivate": false, "subId": "S290621202"}, {"speciesCode": "norcar", "comName": "Northern Cardinal", "sciName": "Cardinalis cardinalis", "locId": "L654522", "locName": "Heller Nature Center, Highland Park", "obsDt": "2025-12-26 15:15", "howMany": 2, "lat": 42.2046161, "lng": -87.8441906, "obsValid": true, "obsReviewed": false, "locationPrivate": false, "subId": "S290621202"}, {"speciesCode": "mutswa", "comName": "Mute Swan", "sciName": "Cygnus olor", "locId": "L298982", "locName": "Independence Grove Forest Preserve", "obsDt": "2025-12-26 14:39", "howMany": 5, "lat": 42.3104406, "lng": -87.9510555, "obsValid": true, "obsReviewed": false, "locationPrivate": false, "subId": "S290421296", "exoticCategory": "N"}, {"speciesCode": "gadwal", "comName": "Gadwall", "sciName": "Mareca strepera", "locId": "L298982", "locName": "Independence Grove Forest Preserve", "obsDt": "2025-12-26 14:39", "howMany": 2, "lat": 42.3104406, "lng": -87.9510555, "obsValid": true, "obsReviewed": false, "locationPrivate": false, "subId": "S290421296"}, {"speciesCode": "redhea", "comName": "Redhead", "sciName": "Aythya americana", "locId": "L298982", "locName": "Independence Grove Forest Preserve", "obsDt": "2025-12-26 14:39", "howMany": 7, "lat": 42.3104406, "lng": -87.9510555, "obsValid": true, "obsReviewed": false, "locationPrivate": false, "subId": "S290421296"}, {"speciesCode": "comgol", "comName": "Common Goldeneye", "sciName": "Bucephala clangula", "locId": "L298982", "locName": "Independence Grove Forest Preserve", "obsDt": "2025-12-26 14:39", "howMany": 15, "lat": 42.3104406, "lng": -87.9510555, "obsValid": true, "obsReviewed": false, "locationPrivate": false, "subId": "S290421296"}, {"speciesCode": "hoomer", "comName": "Hooded Merganser", "sciName": "Lophodytes cucullatus", "locId": "L298982", "locName": "Independence Grove Forest Preserve", "obsDt": "2025-12-26 14:39", "howMany": 15, "lat": 42.3104406, "lng": -87.9510555, "obsValid": true, "obsReviewed": false, "locationPrivate": false, "subId": "S290421296"}, {"speciesCode": "commer", "comName": "Common Merganser", "sciName": "Mergus merganser", "locId": "L298982", "locName": "Independence Grove Forest Preserve", "obsDt": "2025-12-26 14:39", "howMany": 3, "lat": 42.3104406, "lng": -87.9510555, "obsValid": true, "obsReviewed": false, "locationPrivate": false, "subId": "S290421296"}, {"speciesCode": "rebmer", "comName": "Red-breasted Merganser", "sciName": "Mergus serrator", "locId": "L298982", "locName": "Independence Grove Forest Preserve", "obsDt": "2025-12-26 14:39", "howMany": 4, "lat": 42.3104406, "lng": -87.9510555, "obsValid": true, "obsReviewed": false, "locationPrivate": false, "subId": "S290421296"}, {"speciesCode": "y00475", "comName": "American Coot", "sciName": "Fulica americana", "locId": "L298982", "locName": "Independence Grove Forest Preserve", "obsDt": "2025-12-26 14:39", "howMany": 1, "lat": 42.3104406, "lng": -87.9510555, "obsValid": true, "obsReviewed": false, "locationPrivate": false, "subId": "S290421296"}, {"speciesCode": "amhgul1", "comName": "American Herring Gull", "sciName": "Larus smithsonianus", "locId": "L298982", "locName": "Independence Grove Forest Preserve", "obsDt": "2025-12-26 14:39", "howMany": 5, "lat": 42.3104406, "lng": -87.9510555, "obsValid": true, "obsReviewed": false, "locationPrivate": false, "subId": "S290421296"}, {"speciesCode": "rudduc", "comName": "Ruddy Duck", "sciName": "Oxyura jamaicensis", "locId": "L190873", "locName": "North Point Marina/State Line Beach, Winthrop Harbor", "obsDt": "2025-12-26 14:31", "howMany": 4, "lat": 42.4877956, "lng": -87.8023911, "obsValid": true, "obsReviewed": false, "locationPrivate": false, "subId": "S290394741"}, {"speciesCode": "amtspa", "comName": "American Tree Sparrow", "sciName": "Spizelloides arborea", "locId": "L190873", "locName": "North Point Marina/State Line Beach, Winthrop Harbor", "obsDt": "2025-12-26 14:31", "howMany": 2, "lat": 42.4877956, "lng": -87.8023911, "obsValid": true, "obsReviewed": false, "locationPrivate": false, "subId": "S290394741"}, {"speciesCode": "amekes", "comName": "American Kestrel", "sciName": "Falco sparverius", "locId": "L11602866", "locName": "Trumpet Rd. Marsh", "obsDt": "2025-12-26 14:17", "howMany": 1, "lat": 42.4901925, "lng": -87.8950071, "obsValid": true, "obsReviewed": false, "locationPrivate": false, "subId": "S290391356"}, {"speciesCode": "shshaw", "comName": "Sharp-shinned Hawk", "sciName": "Accipiter striatus", "locId": "L4539673", "locName": "Home", "obsDt": "2025-12-26 14:16", "howMany": 1, "lat": 42.3691482, "lng": -87.8370962, "obsValid": true, "obsReviewed": false, "locationPrivate": true, "subId": "S290400246"}, {"speciesCode": "dowwoo", "comName": "Downy Woodpecker", "sciName": "Dryobates pubescens", "locId": "L4539673", "locName": "Home", "obsDt": "2025-12-26 14:16", "howMany": 1, "lat": 42.3691482, "lng": -87.8370962, "obsValid": true, "obsReviewed": false, "locationPrivate": true, "subId": "S290400246"}, {"speciesCode": "blujay", "comName": "Blue Jay", "sciName": "Cyanocitta cristata", "locId": "L4539673", "locName": "Home", "obsDt": "2025-12-26 14:16", "howMany": 2, "lat": 42.3691482, "lng": -87.8370962, "obsValid": true, "obsReviewed": false, "locationPrivate": true, "subId": "S290400246"}, {"speciesCode": "whbnut", "comName": "White-breasted Nuthatch", "sciName": "Sitta carolinensis", "locId": "L4539673", "locName": "Home", "obsDt": "2025-12-26 14:16", "howMany": 1, "lat": 42.3691482, "lng": -87.8370962, "obsValid": true, "obsReviewed": false, "locationPrivate": true, "subId": "S290400246"}, {"speciesCode": "rebnut", "comName": "Red-breasted Nuthatch", "sciName": "Sitta canadensis", "locId": "L4539673", "locName": "Home", "obsDt": "2025-12-26 14:16", "howMany": 1, "lat": 42.3691482, "lng": -87.8370962, "obsValid": true, "obsReviewed": false, "locationPrivate": true, "subId": "S290400246"}, {"speciesCode": "winwre3", "comName": "Winter Wren", "sciName": "Troglodytes hiemalis", "locId": "L124265", "locName": "Independence Grove Forest Preserve--St. Francis Woods", "obsDt": "2025-12-26 14:10", "howMany": 1, "lat": 42.3172694, "lng": -87.9553939, "obsValid": true, "obsReviewed": false, "locationPrivate": false, "subId": "S290396347"}, {"speciesCode": "sonspa", "comName": "Song Sparrow", "sciName": "Melospiza melodia", "locId": "L124265", "locName": "Independence Grove Forest Preserve--St. Francis Woods", "obsDt": "2025-12-26 14:10", "howMany": 1, "lat": 42.3172694, "lng": -87.9553939, "obsValid": true, "obsReviewed": false, "locationPrivate": false, "subId": "S290396347"}, {"speciesCode": "coohaw", "comName": "Cooper's Hawk", "sciName": "Astur cooperii", "locId": "L8611703", "locName": "S Waukegan Road", "obsDt": "2025-12-26 14:01", "howMany": 1, "lat": 42.1584668, "lng": -87.8389543, "obsValid": true, "obsReviewed": false, "locationPrivate": true, "subId": "S290394209"}, {"speciesCode": "rocpig", "comName": "Rock Pigeon", "sciName": "Columba livia", "locId": "L152675", "locName": "McDonald Woods Forest Preserve", "obsDt": "2025-12-26 13:34", "howMany": 6, "lat": 42.4200984, "lng": -88.0174828, "obsValid": true, "obsReviewed": false, "locationPrivate": false, "subId": "S290393239", "exoticCategory": "N"}, {"speciesCode": "amecro", "comName": "American Crow", "sciName": "Corvus brachyrhynchos", "locId": "L152675", "locName": "McDonald Woods Forest Preserve", "obsDt": "2025-12-26 13:34", "howMany": 1, "lat": 42.4200984, "lng": -88.0174828, "obsValid": true, "obsReviewed": false, "locationPrivate": false, "subId": "S290393239"}, {"speciesCode": "baleag", "comName": "Bald Eagle", "sciName": "Haliaeetus leucocephalus", "locId": "L56370746", "locName": "31801\u201331847 N US Highway 12, Volo US-IL 42.32657, -88.16425", "obsDt": "2025-12-26 13:31", "howMany": 1, "lat": 42.326566, "lng": -88.164249, "obsValid": true, "obsReviewed": false, "locationPrivate": true, "subId": "S290383120"}, {"speciesCode": "easblu", "comName": "Eastern Bluebird", "sciName": "Sialia sialis", "locId": "L322146", "locName": "Volo Bog State Natural Area", "obsDt": "2025-12-26 13:31", "howMany": 2, "lat": 42.3521378, "lng": -88.1863546, "obsValid": true, "obsReviewed": false, "locationPrivate": false, "subId": "S290408334"}, {"speciesCode": "amegfi", "comName": "American Goldfinch", "sciName": "Spinus tristis", "locId": "L322146", "locName": "Volo Bog State Natural Area", "obsDt": "2025-12-26 13:31", "howMany": 1, "lat": 42.3521378, "lng": -88.1863546, "obsValid": true, "obsReviewed": false, "locationPrivate": false, "subId": "S290408334"}, {"speciesCode": "ambduc", "comName": "American Black Duck", "sciName": "Anas rubripes", "locId": "L298982", "locName": "Independence Grove Forest Preserve", "obsDt": "2025-12-26 13:15", "howMany": 5, "lat": 42.3104406, "lng": -87.9510555, "obsValid": true, "obsReviewed": false, "locationPrivate": false, "subId": "S290448765"}, {"speciesCode": "norpin", "comName": "Northern Pintail", "sciName": "Anas acuta", "locId": "L298982", "locName": "Independence Grove Forest Preserve", "obsDt": "2025-12-26 13:15", "howMany": 2, "lat": 42.3104406, "lng": -87.9510555, "obsValid": true, "obsReviewed": false, "locationPrivate": false, "subId": "S290448765"}, {"speciesCode": "rinduc", "comName": "Ring-necked Duck", "sciName": "Aythya collaris", "locId": "L298982", "locName": "Independence Grove Forest Preserve", "obsDt": "2025-12-26 13:15", "howMany": 1, "lat": 42.3104406, "lng": -87.9510555, "obsValid": true, "obsReviewed": false, "locationPrivate": false, "subId": "S290448765"}, {"speciesCode": "norhar2", "comName": "Northern Harrier", "sciName": "Circus hudsonius", "locId": "L298982", "locName": "Independence Grove Forest Preserve", "obsDt": "2025-12-26 13:15", "howMany": 1, "lat": 42.3104406, "lng": -87.9510555, "obsValid": true, "obsReviewed": false, "locationPrivate": false, "subId": "S290448765"}, {"speciesCode": "belkin1", "comName": "Belted Kingfisher", "sciName": "Megaceryle alcyon", "locId": "L298982", "locName": "Independence Grove Forest Preserve", "obsDt": "2025-12-26 13:15", "howMany": 1, "lat": 42.3104406, "lng": -87.9510555, "obsValid": true, "obsReviewed": false, "locationPrivate": false, "subId": "S290448765"}, {"speciesCode": "eurgol", "comName": "European Goldfinch", "sciName": "Carduelis carduelis", "locId": "L56370465", "locName": "Intersection of Peterson Rd. and IL83", "obsDt": "2025-12-26 12:51", "howMany": 12, "lat": 42.3060783, "lng": -88.0291239, "obsValid": true, "obsReviewed": false, "locationPrivate": true, "subId": "S290382076", "exoticCategory": "N"}, {"speciesCode": "norfli", "comName": "Northern Flicker", "sciName": "Colaptes auratus", "locId": "L152616", "locName": "Chain-o-Lakes State Park", "obsDt": "2025-12-26 12:07", "howMany": 2, "lat": 42.4623, "lng": -88.1886, "obsValid": true, "obsReviewed": false, "locationPrivate": false, "subId": "S290398167"}, {"speciesCode": "cedwax", "comName": "Cedar Waxwing", "sciName": "Bombycilla cedrorum", "locId": "L152616", "locName": "Chain-o-Lakes State Park", "obsDt": "2025-12-26 12:07", "howMany": 5, "lat": 42.4623, "lng": -88.1886, "obsValid": true, "obsReviewed": false, "locationPrivate": false, "subId": "S290398167"}, {"speciesCode": "brncre", "comName": "Brown Creeper", "sciName": "Certhia americana", "locId": "L13592603", "locName": "neighborhood", "obsDt": "2025-12-26 10:49", "howMany": 1, "lat": 42.1798554, "lng": -88.0640818, "obsValid": true, "obsReviewed": false, "locationPrivate": true, "subId": "S290355366"}, {"speciesCode": "gresca", "comName": "Greater Scaup", "sciName": "Aythya marila", "locId": "L190873", "locName": "North Point Marina/State Line Beach, Winthrop Harbor", "obsDt": "2025-12-26 10:39", "howMany": 6, "lat": 42.4877956, "lng": -87.8023911, "obsValid": true, "obsReviewed": false, "locationPrivate": false, "subId": "S290365289"}, {"speciesCode": "buffle", "comName": "Bufflehead", "sciName": "Bucephala albeola", "locId": "L190873", "locName": "North Point Marina/State Line Beach, Winthrop Harbor", "obsDt": "2025-12-26 10:39", "howMany": 8, "lat": 42.4877956, "lng": -87.8023911, "obsValid": true, "obsReviewed": false, "locationPrivate": false, "subId": "S290365289"}, {"speciesCode": "gockin", "comName": "Golden-crowned Kinglet", "sciName": "Regulus satrapa", "locId": "L28462487", "locName": "home", "obsDt": "2025-12-26 09:45", "howMany": 1, "lat": 42.1624718, "lng": -87.8963547, "obsValid": true, "obsReviewed": false, "locationPrivate": true, "subId": "S290351179"}, {"speciesCode": "whtspa", "comName": "White-throated Sparrow", "sciName": "Zonotrichia albicollis", "locId": "L28462487", "locName": "home", "obsDt": "2025-12-26 09:45", "howMany": 2, "lat": 42.1624718, "lng": -87.8963547, "obsValid": true, "obsReviewed": false, "locationPrivate": true, "subId": "S290351179"}, {"speciesCode": "grbher3", "comName": "Great Blue Heron", "sciName": "Ardea herodias", "locId": "L152711", "locName": "Ryerson Conservation Area", "obsDt": "2025-12-26 09:30", "howMany": 1, "lat": 42.1795, "lng": -87.9149, "obsValid": true, "obsReviewed": false, "locationPrivate": false, "subId": "S290434120"}, {"speciesCode": "rehwoo", "comName": "Red-headed Woodpecker", "sciName": "Melanerpes erythrocephalus", "locId": "L152711", "locName": "Ryerson Conservation Area", "obsDt": "2025-12-26 09:30", "howMany": 2, "lat": 42.1795, "lng": -87.9149, "obsValid": true, "obsReviewed": false, "locationPrivate": false, "subId": "S290434120"}]