[{"speciesCode": "grhowl", "comName": "Great Horned Owl", "sciName": "Bubo virginianus", "locId": "L9605278", "locName": "Longview Meadow, Long Grove", "obsDt": "2025-12-23 22:17", "howMany": 2, "lat": 42.1955872, "lng": -87.9859486, "obsValid": true, "obsReviewed": false, "locationPrivate": false, "subId": "S289927015"}, {"speciesCode": "cangoo", "comName": "Canada Goose", "sciName": "Branta canadensis", "locId": "L12931398", "locName": "Cornerstone Pkwy.", "obsDt": "2025-12-23 16:33", "howMany": 50, "lat": 42.308359, "lng": -88.040905, "obsValid": true, "obsReviewed": false, "locationPrivate": false, "subId": "S290286275"}, {"speciesCode": "truswa", "comName": "Trumpeter Swan", "sciName": "Cygnus buccinator", "locId": "L12931398", "locName": "Cornerstone Pkwy.", "obsDt": "2025-12-23 16:33", "howMany": 8, "lat": 42.308359, "lng": -88.040905, "obsValid": true, "obsReviewed": false, "locationPrivate": false, "subId": "S290286275"}, {"speciesCode": "rethaw", "comName": "Red-tailed Hawk", "sciName": "Buteo jamaicensis", "locId": "L12931398", "locName": "Cornerstone Pkwy.", "obsDt": "2025-12-23 16:33", "howMany": 1, "lat": 42.308359, "lng": -88.040905, "obsValid": true, "obsReviewed": false, "locationPrivate": false, "subId": "S290286275"}, {"speciesCode": "rolhaw", "comName": "Rough-legged Hawk", "sciName": "Buteo lagopus", "locId": "L12931398", "locName": "Cornerstone Pkwy.", "obsDt": "2025-12-23 16:33", "howMany": 1, "lat": 42.308359, "lng": -88.040905, "obsValid": true, "obsReviewed": false, "locationPrivate": false, "subId": "S290286275"}, {"speciesCode": "mallar3", "comName": "Mallard", "sciName": "Anas platyrhynchos", "locId": "L6672783", "locName": "Waukegan Harbor", "obsDt": "2025-12-23 16:26", "howMany": 10, "lat": 42.3567807, "lng": -87.8216171, "obsValid": true, "obsReviewed": false, "locationPrivate": false, "subId": "S289912086"}, {"speciesCode": "comgol", "comName": "Common Goldeneye", "sciName": "Bucephala clangula", "locId": "L6672783", "locName": "Waukegan Harbor", "obsDt": "2025-12-23 16:26", "howMany": 1, "lat": 42.3567807, "lng": -87.8216171, "obsValid": true, "obsReviewed": false, "locationPrivate": false, "subId": "S289912086"}, {"speciesCode": "rocpig", "comName": "Rock Pigeon", "sciName": "Columba livia", "locId": "L6672783", "locName": "Waukegan Harbor", "obsDt": "2025-12-23 16:26", "howMany": 22, "lat": 42.3567807, "lng": -87.8216171, "obsValid": true, "obsReviewed": false, "locationPrivate": false, "subId": "S289912086", "exoticCategory": "N"}, {"speciesCode": "moudov", "comName": "Mourning Dove", "sciName": "Zenaida macroura", "locId": "L6672783", "locName": "Waukegan Harbor", "obsDt": "2025-12-23 16:26", "howMany": 6, "lat": 42.3567807, "lng": -87.8216171, "obsValid": true, "obsReviewed": false, "locationPrivate": false, "subId": "S289912086"}, {"speciesCode": "belkin1", "comName": "Belted Kingfisher", "sciName": "Megaceryle alcyon", "locId": "L6672783", "locName": "Waukegan Harbor", "obsDt": "2025-12-23 16:26", "howMany": 1, "lat": 42.3567807, "lng": -87.8216171, "obsValid": true, "obsReviewed": false, "locationPrivate": false, "subId": "S289912086"}, {"speciesCode": "houspa", "comName": "House Sparrow", "sciName": "Passer domesticus", "locId": "L29295957", "locName": "Supanichville", "obsDt": "2025-12-23 15:51", "howMany": 8, "lat": 42.30819, "lng": -87.99143, "obsValid": true, "obsReviewed": false, "locationPrivate": true, "subId": "S289898032", "exoticCategory": "N"}, {"speciesCode": "amegfi", "comName": "American Goldfinch", "sciName": "Spinus tristis", "locId": "L29295957", "locName": "Supanichville", "obsDt": "2025-12-23 15:51", "howMany": 11, "lat": 42.30819, "lng": -87.99143, "obsValid": true, "obsReviewed": false, "locationPrivate": true, "subId": "S289898032"}, {"speciesCode": "amtspa", "comName": "American Tree Sparrow", "sciName": "Spizelloides arborea", "locId": "L29295957", "locName": "Supanichville", "obsDt": "2025-12-23 15:51", "howMany": 4, "lat": 42.30819, "lng": -87.99143, "obsValid": true, "obsReviewed": false, "locationPrivate": true, "subId": "S289898032"}, {"speciesCode": "daejun", "comName": "Dark-eyed Junco", "sciName": "Junco hyemalis", "locId": "L29295957", "locName": "Supanichville", "obsDt": "2025-12-23 15:51", "howMany": 7, "lat": 42.30819, "lng": -87.99143, "obsValid": true, "obsReviewed": false, "locationPrivate": true, "subId": "S289898032"}, {"speciesCode": "eursta", "comName": "European Starling", "sciName": "Sturnus vulgaris", "locId": "L7340845", "locName": "Singing Hills Forest Preserve", "obsDt": "2025-12-23 15:29", "howMany": 10, "lat": 42.3082325, "lng": -88.1442976, "obsValid": true, "obsReviewed": false, "locationPrivate": false, "subId": "S290285972", "exoticCategory": "N"}, {"speciesCode": "amerob", "comName": "American Robin", "sciName": "Turdus migratorius", "locId": "L7340845", "locName": "Singing Hills Forest Preserve", "obsDt": "2025-12-23 15:29", "howMany": 5, "lat": 42.3082325, "lng": -88.1442976, "obsValid": true, "obsReviewed": false, "locationPrivate": false, "subId": "S290285972"}, {"speciesCode": "eurgol", "comName": "European Goldfinch", "sciName": "Carduelis carduelis", "locId": "L7340845", "locName": "Singing Hills Forest Preserve", "obsDt": "2025-12-23 15:29", "howMany": 14, "lat": 42.3082325, "lng": -88.1442976, "obsValid": true, "obsReviewed": false, "locationPrivate": false, "subId": "S290285972", "exoticCategory": "N"}, {"speciesCode": "rebwoo", "comName": "Red-bellied Woodpecker", "sciName": "Melanerpes carolinus", "locId": "L1882431", "locName": "Hastings Lake Forest Preserve", "obsDt": "2025-12-23 15:25", "howMany": 1, "lat": 42.4239673, "lng": -88.0378486, "obsValid": true, "obsReviewed": false, "locationPrivate": false, "subId": "S289910601"}, {"speciesCode": "winwre3", "comName": "Winter Wren", "sciName": "Troglodytes hiemalis", "locId": "L1882431", "locName": "Hastings Lake Forest Preserve", "obsDt": "2025-12-23 15:25", "howMany": 1, "lat": 42.4239673, "lng": -88.0378486, "obsValid": true, "obsReviewed": false, "locationPrivate": false, "subId": "S289910601"}, {"speciesCode": "norcar", "comName": "Northern Cardinal", "sciName": "Cardinalis cardinalis", "locId": "L1882431", "locName": "Hastings Lake Forest Preserve", "obsDt": "2025-12-23 15:25", "howMany": 2, "lat": 42.4239673, "lng": -88.0378486, "obsValid": true, "obsReviewed": false, "locationPrivate": false, "subId": "S289910601"}, {"speciesCode": "dowwoo", "comName": "Downy Woodpecker", "sciName": "Dryobates pubescens", "locId": "L25359746", "locName": "Lark Nest", "obsDt": "2025-12-23 15:15", "howMany": 1, "lat": 42.209672, "lng": -87.826414, "obsValid": true, "obsReviewed": false, "locationPrivate": true, "subId": "S289905920"}, {"speciesCode": "haiwoo", "comName": "Hairy Woodpecker", "sciName": "Leuconotopicus villosus", "locId": "L25359746", "locName": "Lark Nest", "obsDt": "2025-12-23 15:15", "howMany": 1, "lat": 42.209672, "lng": -87.826414, "obsValid": true, "obsReviewed": false, "locationPrivate": true, "subId": "S289905920"}, {"speciesCode": "amecro", "comName": "American Crow", "sciName": "Corvus brachyrhynchos", "locId": "L25359746", "locName": "Lark Nest", "obsDt": "2025-12-23 15:15", "howMany": 4, "lat": 42.209672, "lng": -87.826414, "obsValid": true, "obsReviewed": false, "locationPrivate": true, "subId": "S289905920"}, {"speciesCode": "bkcchi", "comName": "Black-capped Chickadee", "sciName": "Poecile atricapillus", "locId": "L25359746", "locName": "Lark Nest", "obsDt": "2025-12-23 15:15", "howMany": 1, "lat": 42.209672, "lng": -87.826414, "obsValid": true, "obsReviewed": false, "locationPrivate": true, "subId": "S289905920"}, {"speciesCode": "rebnut", "comName": "Red-breasted Nuthatch", "sciName": "Sitta canadensis", "locId": "L25359746", "locName": "Lark Nest", "obsDt": "2025-12-23 15:15", "howMany": 1, "lat": 42.209672, "lng": -87.826414, "obsValid": true, "obsReviewed": false, "locationPrivate": true, "subId": "S289905920"}, {"speciesCode": "grbher3", "comName": "Great Blue Heron", "sciName": "Ardea herodias", "locId": "L152711", "locName": "Ryerson Conservation Area", "obsDt": "2025-12-23 15:14", "howMany": 1, "lat": 42.1795, "lng": -87.9149, "obsValid": true, "obsReviewed": false, "locationPrivate": false, "subId": "S289903892"}, {"speciesCode": "brdowl", "comName": "Barred Owl", "sciName": "Strix varia", "locId": "L152711", "locName": "Ryerson Conservation Area", "obsDt": "2025-12-23 15:14", "howMany": 2, "lat": 42.1795, "lng": -87.9149, "obsValid": true, "obsReviewed": false, "locationPrivate": false, "subId": "S289903892"}, {"speciesCode": "rehwoo", "comName": "Red-headed Woodpecker", "sciName": "Melanerpes erythrocephalus", "locId": "L152711", "locName": "Ryerson Conservation Area", "obsDt": "2025-12-23 15:14", "howMany": 2, "lat": 42.1795, "lng": -87.9149, "obsValid": true, "obsReviewed": false, "locationPrivate": false, "subId": "S289903892"}, {"speciesCode": "pilwoo", "comName": "Pileated Woodpecker", "sciName": "Dryocopus pileatus", "locId": "L152711", "locName": "Ryerson Conservation Area", "obsDt": "2025-12-23 15:14", "howMany": 1, "lat": 42.1795, "lng": -87.9149, "obsValid": true, "obsReviewed": false, "locationPrivate": false, "subId": "S289903892"}, {"speciesCode": "whbnut", "comName": "White-breasted Nuthatch", "sciName": "Sitta carolinensis", "locId": "L152711", "locName": "Ryerson Conservation Area", "obsDt": "2025-12-23 15:14", "howMany": 2, "lat": 42.1795, "lng": -87.9149, "obsValid": true, "obsReviewed": false, "locationPrivate": false, "subId": "S289903892"}, {"speciesCode": "brncre", "comName": "Brown Creeper", "sciName": "Certhia americana", "locId": "L152711", "locName": "Ryerson Conservation Area", "obsDt": "2025-12-23 15:14", "howMany": 1, "lat": 42.1795, "lng": -87.9149, "obsValid": true, "obsReviewed": false, "locationPrivate": false, "subId": "S289903892"}, {"speciesCode": "easblu", "comName": "Eastern Bluebird", "sciName": "Sialia sialis", "locId": "L152711", "locName": "Ryerson Conservation Area", "obsDt": "2025-12-23 15:14", "howMany": 1, "lat": 42.1795, "lng": -87.9149, "obsValid": true, "obsReviewed": false, "locationPrivate": false, "subId": "S289903892"}, {"speciesCode": "ambduc", "comName": "American Black Duck", "sciName": "Anas rubripes", "locId": "L416893", "locName": "Daniel Wright Woods Forest Preserve", "obsDt": "2025-12-23 15:07", "howMany": 1, "lat": 42.2185384, "lng": -87.9255581, "obsValid": true, "obsReviewed": false, "locationPrivate": false, "subId": "S289928617"}, {"speciesCode": "baleag", "comName": "Bald Eagle", "sciName": "Haliaeetus leucocephalus", "locId": "L416893", "locName": "Daniel Wright Woods Forest Preserve", "obsDt": "2025-12-23 15:07", "howMany": 1, "lat": 42.2185384, "lng": -87.9255581, "obsValid": true, "obsReviewed": false, "locationPrivate": false, "subId": "S289928617"}, {"speciesCode": "amekes", "comName": "American Kestrel", "sciName": "Falco sparverius", "locId": "L416893", "locName": "Daniel Wright Woods Forest Preserve", "obsDt": "2025-12-23 15:07", "howMany": 1, "lat": 42.2185384, "lng": -87.9255581, "obsValid": true, "obsReviewed": false, "locationPrivate": false, "subId": "S289928617"}, {"speciesCode": "amhgul1", "comName": "American Herring Gull", "sciName": "Larus smithsonianus", "locId": "L55033311", "locName": "Northwestern Medicine Emergency Center, Grayslake, IL", "obsDt": "2025-12-23 14:57", "howMany": 1, "lat": 42.3374519, "lng": -88.0112278, "obsValid": true, "obsReviewed": false, "locationPrivate": true, "subId": "S289915568"}, {"speciesCode": "redhea", "comName": "Redhead", "sciName": "Aythya americana", "locId": "L190873", "locName": "North Point Marina/State Line Beach, Winthrop Harbor", "obsDt": "2025-12-23 14:45", "howMany": 2, "lat": 42.4877956, "lng": -87.8023911, "obsValid": true, "obsReviewed": false, "locationPrivate": false, "subId": "S289930010"}, {"speciesCode": "buffle", "comName": "Bufflehead", "sciName": "Bucephala albeola", "locId": "L190873", "locName": "North Point Marina/State Line Beach, Winthrop Harbor", "obsDt": "2025-12-23 14:45", "howMany": 4, "lat": 42.4877956, "lng": -87.8023911, "obsValid": true, "obsReviewed": false, "locationPrivate": false, "subId": "S289930010"}, {"speciesCode": "rudduc", "comName": "Ruddy Duck", "sciName": "Oxyura jamaicensis", "locId": "L190873", "locName": "North Point Marina/State Line Beach, Winthrop Harbor", "obsDt": "2025-12-23 14:45", "howMany": 2, "lat": 42.4877956, "lng": -87.8023911, "obsValid": true, "obsReviewed": false, "locationPrivate": false, "subId": "S289930010"}, {"speciesCode": "easowl1", "comName": "Eastern Screech-Owl", "sciName": "Megascops asio", "locId": "L1882431", "locName": "Hastings Lake Forest Preserve", "obsDt": "2025-12-23 14:35", "howMany": 1, "lat": 42.4239673, "lng": -88.0378486, "obsValid": true, "obsReviewed": false, "locationPrivate": false, "subId": "S290285860"}, {"speciesCode": "hoomer", "comName": "Hooded Merganser", "sciName": "Lophodytes cucullatus", "locId": "L298982", "locName": "Independence Grove Forest Preserve", "obsDt": "2025-12-23 14:30", "howMany": 15, "lat": 42.3104406, "lng": -87.9510555, "obsValid": true, "obsReviewed": false, "locationPrivate": false, "subId": "S290171487"}, {"speciesCode": "commer", "comName": "Common Merganser", "sciName": "Mergus merganser", "locId": "L15343142", "locName": "Riverside Park, Libertyville", "obsDt": "2025-12-23 14:30", "howMany": 2, "lat": 42.2751097, "lng": -87.9395631, "obsValid": true, "obsReviewed": false, "locationPrivate": false, "subId": "S289912219"}, {"speciesCode": "rebmer", "comName": "Red-breasted Merganser", "sciName": "Mergus serrator", "locId": "L298982", "locName": "Independence Grove Forest Preserve", "obsDt": "2025-12-23 14:30", "howMany": 2, "lat": 42.3104406, "lng": -87.9510555, "obsValid": true, "obsReviewed": false, "locationPrivate": false, "subId": "S290171487"}, {"speciesCode": "coohaw", "comName": "Cooper's Hawk", "sciName": "Astur cooperii", "locId": "L15343142", "locName": "Riverside Park, Libertyville", "obsDt": "2025-12-23 14:30", "howMany": 1, "lat": 42.2751097, "lng": -87.9395631, "obsValid": true, "obsReviewed": false, "locationPrivate": false, "subId": "S289912219"}, {"speciesCode": "blujay", "comName": "Blue Jay", "sciName": "Cyanocitta cristata", "locId": "L15343142", "locName": "Riverside Park, Libertyville", "obsDt": "2025-12-23 14:30", "howMany": 1, "lat": 42.2751097, "lng": -87.9395631, "obsValid": true, "obsReviewed": false, "locationPrivate": false, "subId": "S289912219"}, {"speciesCode": "gresca", "comName": "Greater Scaup", "sciName": "Aythya marila", "locId": "L152655", "locName": "Illinois Beach SP--South Unit", "obsDt": "2025-12-23 14:25", "howMany": 230, "lat": 42.4203, "lng": -87.8078, "obsValid": true, "obsReviewed": false, "locationPrivate": false, "subId": "S289891254"}, {"speciesCode": "ribgul", "comName": "Ring-billed Gull", "sciName": "Larus delawarensis", "locId": "L152655", "locName": "Illinois Beach SP--South Unit", "obsDt": "2025-12-23 14:25", "lat": 42.4203, "lng": -87.8078, "obsValid": true, "obsReviewed": false, "locationPrivate": false, "subId": "S289891254"}, {"speciesCode": "y00478", "comName": "Iceland Gull", "sciName": "Larus glaucoides", "locId": "L152655", "locName": "Illinois Beach SP--South Unit", "obsDt": "2025-12-23 14:25", "howMany": 1, "lat": 42.4203, "lng": -87.8078, "obsValid": true, "obsReviewed": false, "locationPrivate": false, "subId": "S289891254"}, {"speciesCode": "canvas", "comName": "Canvasback", "sciName": "Aythya valisineria", "locId": "L165244", "locName": "Waukegan Lakefront (Lake Co.)", "obsDt": "2025-12-23 14:00", "howMany": 1, "lat": 42.3600661, "lng": -87.8244066, "obsValid": true, "obsReviewed": false, "locationPrivate": false, "subId": "S289886734"}, {"speciesCode": "lbbgul", "comName": "Lesser Black-backed Gull", "sciName": "Larus fuscus", "locId": "L190873", "locName": "North Point Marina/State Line Beach, Winthrop Harbor", "obsDt": "2025-12-23 13:49", "howMany": 1, "lat": 42.4877956, "lng": -87.8023911, "obsValid": true, "obsReviewed": false, "locationPrivate": false, "subId": "S289912032"}, {"speciesCode": "yerwar", "comName": "Yellow-rumped Warbler", "sciName": "Setophaga coronata", "locId": "L190873", "locName": "North Point Marina/State Line Beach, Winthrop Harbor", "obsDt": "2025-12-23 13:49", "howMany": 3, "lat": 42.4877956, "lng": -87.8023911, "obsValid": true, "obsReviewed": false, "locationPrivate": false, "subId": "S289912032"}, {"speciesCode": "houfin", "comName": "House Finch", "sciName": "Haemorhous mexicanus", "locId": "L3493393", "locName": "Fox River Forest Preserve", "obsDt": "2025-12-23 13:45", "howMany": 3, "lat": 42.2404768, "lng": -88.1872022, "obsValid": true, "obsReviewed": false, "locationPrivate": false, "subId": "S291449102", "exoticCategory": "N"}, {"speciesCode": "mutswa", "comName": "Mute Swan", "sciName": "Cygnus olor", "locId": "L31411102", "locName": "Fishing Pier", "obsDt": "2025-12-23 13:43", "howMany": 17, "lat": 42.267285, "lng": -88.140812, "obsValid": true, "obsReviewed": false, "locationPrivate": true, "subId": "S289881375", "exoticCategory": "N"}, {"speciesCode": "foxspa", "comName": "Fox Sparrow", "sciName": "Passerella iliaca", "locId": "L15343142", "locName": "Riverside Park, Libertyville", "obsDt": "2025-12-23 13:41", "howMany": 1, "lat": 42.2751097, "lng": -87.9395631, "obsValid": true, "obsReviewed": false, "locationPrivate": false, "subId": "S289893235"}, {"speciesCode": "sonspa", "comName": "Song Sparrow", "sciName": "Melospiza melodia", "locId": "L15343142", "locName": "Riverside Park, Libertyville", "obsDt": "2025-12-23 13:41", "howMany": 1, "lat": 42.2751097, "lng": -87.9395631, "obsValid": true, "obsReviewed": false, "locationPrivate": false, "subId": "S289893235"}, {"speciesCode": "norfli", "comName": "Northern Flicker", "sciName": "Colaptes auratus", "locId": "L1882431", "locName": "Hastings Lake Forest Preserve", "obsDt": "2025-12-23 13:21", "howMany": 1, "lat": 42.4239673, "lng": -88.0378486, "obsValid": true, "obsReviewed": false, "locationPrivate": false, "subId": "S289884687"}, {"speciesCode": "whtspa", "comName": "White-throated Sparrow", "sciName": "Zonotrichia albicollis", "locId": "L1882431", "locName": "Hastings Lake Forest Preserve", "obsDt": "2025-12-23 13:21", "howMany": 1, "lat": 42.4239673, "lng": -88.0378486, "obsValid": true, "obsReviewed": false, "locationPrivate": false, "subId": "S289884687"}, {"speciesCode": "lessca", "comName": "Lesser Scaup", "sciName": "Aythya affinis", "locId": "L3382056", "locName": "North Point Marina--south end", "obsDt": "2025-12-23 12:39", "howMany": 2, "lat": 42.4812735, "lng": -87.8006985, "obsValid": true, "obsReviewed": false, "locationPrivate": false, "subId": "S290285799"}, {"speciesCode": "y00475", "comName": "American Coot", "sciName": "Fulica americana", "locId": "L3382056", "locName": "North Point Marina--south end", "obsDt": "2025-12-23 12:39", "howMany": 3, "lat": 42.4812735, "lng": -87.8006985, "obsValid": true, "obsReviewed": false, "locationPrivate": false, "subId": "S290285799"}, {"speciesCode": "merlin", "comName": "Merlin", "sciName": "Falco columbarius", "locId": "L152655", "locName": "Illinois Beach SP--South Unit", "obsDt": "2025-12-23 11:59", "howMany": 1, "lat": 42.4203, "lng": -87.8078, "obsValid": true, "obsReviewed": false, "locationPrivate": false, "subId": "S289911056"}, {"speciesCode": "whcspa", "comName": "White-crowned Sparrow", "sciName": "Zonotrichia leucophrys", "locId": "L301859", "locName": "Middlefork Savanna Forest Preserve", "obsDt": "2025-12-23 09:52", "howMany": 2, "lat": 42.2587939, "lng": -87.8854868, "obsValid": true, "obsReviewed": false, "locationPrivate": false, "subId": "S290025416"}, {"speciesCode": "horlar", "comName": "Horned Lark", "sciName": "Eremophila alpestris", "locId": "L3382056", "locName": "North Point Marina--south end", "obsDt": "2025-12-23 09:20", "howMany": 1, "lat": 42.4812735, "lng": -87.8006985, "obsValid": true, "obsReviewed": false, "locationPrivate": false, "subId": "S289847782"}, {"speciesCode": "pinsis", "comName": "Pine Siskin", "sciName": "Spinus pinus", "locId": "L37668683", "locName": "Kruger Rd.", "obsDt": "2025-12-23 09:12", "howMany": 31, "lat": 42.2263799, "lng": -88.0645807, "obsValid": true, "obsReviewed": false, "locationPrivate": false, "subId": "S289838557"}, {"speciesCode": "rewbla", "comName": "Red-winged Blackbird", "sciName": "Agelaius phoeniceus", "locId": "L37668683", "locName": "Kruger Rd.", "obsDt": "2025-12-23 09:12", "howMany": 1, "lat": 42.2263799, "lng": -88.0645807, "obsValid": true, "obsReviewed": false, "locationPrivate": false, "subId": "S289838557"}, {"speciesCode": "horgre", "comName": "Horned Grebe", "sciName": "Podiceps auritus", "locId": "L152655", "locName": "Illinois Beach SP--South Unit", "obsDt": "2025-12-23 08:45", "howMany": 2, "lat": 42.4203, "lng": -87.8078, "obsValid": true, "obsReviewed": false, "locationPrivate": false, "subId": "S289841617"}, {"speciesCode": "retloo", "comName": "Red-throated Loon", "sciName": "Gavia stellata", "locId": "L152655", "locName": "Illinois Beach SP--South Unit", "obsDt": "2025-12-23 08:45", "howMany": 1, "lat": 42.4203, "lng": -87.8078, "obsValid": true, "obsReviewed": false, "locationPrivate": false, "subId": "S289841617"}, {"speciesCode": "purfin", "comName": "Purple Finch", "sciName": "Haemorhous purpureus", "locId": "L16704299", "locName": ".Home", "obsDt": "2025-12-23 07:44", "howMany": 1, "lat": 42.2753311, "lng": -88.1269233, "obsValid": true, "obsReviewed": false, "locationPrivate": true, "subId": "S289824238"}, {"speciesCode": "cedwax", "comName": "Cedar Waxwing", "sciName": "Bombycilla cedrorum", "locId": "L190873", "locName": "North Point Marina/State Line Beach, Winthrop Harbor", "obsDt": "2025-12-23 07:25", "howMany": 10, "lat": 42.4877956, "lng": -87.8023911, "obsValid": true, "obsReviewed": false, "locationPrivate": false, "subId": "S289831435"}]