[{"speciesCode": "grhowl", "comName": "Great Horned Owl", "sciName": "Bubo virginianus", "locId": "L9289778", "locName": "My backyard in the Forest Preserve", "obsDt": "2025-12-05 22:10", "howMany": 1, "lat": 41.6169393, "lng": -87.7902529, "obsValid": true, "obsReviewed": false, "locationPrivate": true, "subId": "S287443901"}, {"speciesCode": "amerob", "comName": "American Robin", "sciName": "Turdus migratorius", "locId": "L9289778", "locName": "My backyard in the Forest Preserve", "obsDt": "2025-12-05 22:10", "howMany": 1, "lat": 41.6169393, "lng": -87.7902529, "obsValid": true, "obsReviewed": false, "locationPrivate": true, "subId": "S287443901"}, {"speciesCode": "perfal", "comName": "Peregrine Falcon", "sciName": "Falco peregrinus", "locId": "L4570140", "locName": "US-IL-Chicago-Lake Point Tower park (restricted area)", "obsDt": "2025-12-05 21:47", "howMany": 1, "lat": 41.8916437, "lng": -87.6128983, "obsValid": true, "obsReviewed": false, "locationPrivate": true, "subId": "S287442777"}, {"speciesCode": "coohaw", "comName": "Cooper's Hawk", "sciName": "Astur cooperii", "locId": "L13506609", "locName": "1024 Mulford St, Evanston US-IL 42.02316, -87.68700", "obsDt": "2025-12-05 19:51", "howMany": 1, "lat": 42.023163, "lng": -87.687004, "obsValid": true, "obsReviewed": false, "locationPrivate": true, "subId": "S287437655"}, {"speciesCode": "cangoo", "comName": "Canada Goose", "sciName": "Branta canadensis", "locId": "L246977", "locName": "Brookfield Zoo", "obsDt": "2025-12-05 16:43", "howMany": 6, "lat": 41.8325432, "lng": -87.8334618, "obsValid": true, "obsReviewed": false, "locationPrivate": false, "subId": "S287605562"}, {"speciesCode": "mallar3", "comName": "Mallard", "sciName": "Anas platyrhynchos", "locId": "L161180", "locName": "Montrose Point Bird Sanctuary, Lincoln Park", "obsDt": "2025-12-05 16:17", "howMany": 4, "lat": 41.9633833, "lng": -87.6344204, "obsValid": true, "obsReviewed": false, "locationPrivate": false, "subId": "S287430968"}, {"speciesCode": "comgol", "comName": "Common Goldeneye", "sciName": "Bucephala clangula", "locId": "L161180", "locName": "Montrose Point Bird Sanctuary, Lincoln Park", "obsDt": "2025-12-05 16:17", "howMany": 1, "lat": 41.9633833, "lng": -87.6344204, "obsValid": true, "obsReviewed": false, "locationPrivate": false, "subId": "S287430968"}, {"speciesCode": "rebmer", "comName": "Red-breasted Merganser", "sciName": "Mergus serrator", "locId": "L161180", "locName": "Montrose Point Bird Sanctuary, Lincoln Park", "obsDt": "2025-12-05 16:17", "howMany": 4, "lat": 41.9633833, "lng": -87.6344204, "obsValid": true, "obsReviewed": false, "locationPrivate": false, "subId": "S287430968"}, {"speciesCode": "rocpig", "comName": "Rock Pigeon", "sciName": "Columba livia", "locId": "L161180", "locName": "Montrose Point Bird Sanctuary, Lincoln Park", "obsDt": "2025-12-05 16:17", "howMany": 4, "lat": 41.9633833, "lng": -87.6344204, "obsValid": true, "obsReviewed": false, "locationPrivate": false, "subId": "S287430968", "exoticCategory": "N"}, {"speciesCode": "moudov", "comName": "Mourning Dove", "sciName": "Zenaida macroura", "locId": "L161180", "locName": "Montrose Point Bird Sanctuary, Lincoln Park", "obsDt": "2025-12-05 16:17", "howMany": 1, "lat": 41.9633833, "lng": -87.6344204, "obsValid": true, "obsReviewed": false, "locationPrivate": false, "subId": "S287430968"}, {"speciesCode": "ribgul", "comName": "Ring-billed Gull", "sciName": "Larus delawarensis", "locId": "L161180", "locName": "Montrose Point Bird Sanctuary, Lincoln Park", "obsDt": "2025-12-05 16:17", "howMany": 20, "lat": 41.9633833, "lng": -87.6344204, "obsValid": true, "obsReviewed": false, "locationPrivate": false, "subId": "S287430968"}, {"speciesCode": "amhgul1", "comName": "American Herring Gull", "sciName": "Larus smithsonianus", "locId": "L161180", "locName": "Montrose Point Bird Sanctuary, Lincoln Park", "obsDt": "2025-12-05 16:17", "howMany": 1, "lat": 41.9633833, "lng": -87.6344204, "obsValid": true, "obsReviewed": false, "locationPrivate": false, "subId": "S287430968"}, {"speciesCode": "eursta", "comName": "European Starling", "sciName": "Sturnus vulgaris", "locId": "L161180", "locName": "Montrose Point Bird Sanctuary, Lincoln Park", "obsDt": "2025-12-05 16:17", "howMany": 4, "lat": 41.9633833, "lng": -87.6344204, "obsValid": true, "obsReviewed": false, "locationPrivate": false, "subId": "S287430968", "exoticCategory": "N"}, {"speciesCode": "houspa", "comName": "House Sparrow", "sciName": "Passer domesticus", "locId": "L161180", "locName": "Montrose Point Bird Sanctuary, Lincoln Park", "obsDt": "2025-12-05 16:17", "howMany": 15, "lat": 41.9633833, "lng": -87.6344204, "obsValid": true, "obsReviewed": false, "locationPrivate": false, "subId": "S287430968", "exoticCategory": "N"}, {"speciesCode": "laplon", "comName": "Lapland Longspur", "sciName": "Calcarius lapponicus", "locId": "L161180", "locName": "Montrose Point Bird Sanctuary, Lincoln Park", "obsDt": "2025-12-05 16:17", "howMany": 20, "lat": 41.9633833, "lng": -87.6344204, "obsValid": true, "obsReviewed": false, "locationPrivate": false, "subId": "S287430968"}, {"speciesCode": "amtspa", "comName": "American Tree Sparrow", "sciName": "Spizelloides arborea", "locId": "L161180", "locName": "Montrose Point Bird Sanctuary, Lincoln Park", "obsDt": "2025-12-05 16:17", "howMany": 3, "lat": 41.9633833, "lng": -87.6344204, "obsValid": true, "obsReviewed": false, "locationPrivate": false, "subId": "S287430968"}, {"speciesCode": "daejun", "comName": "Dark-eyed Junco", "sciName": "Junco hyemalis", "locId": "L161180", "locName": "Montrose Point Bird Sanctuary, Lincoln Park", "obsDt": "2025-12-05 16:17", "howMany": 1, "lat": 41.9633833, "lng": -87.6344204, "obsValid": true, "obsReviewed": false, "locationPrivate": false, "subId": "S287430968"}, {"speciesCode": "norfli", "comName": "Northern Flicker", "sciName": "Colaptes auratus", "locId": "L339164", "locName": "Humboldt Park", "obsDt": "2025-12-05 16:10", "howMany": 1, "lat": 41.9063221, "lng": -87.7019614, "obsValid": true, "obsReviewed": false, "locationPrivate": false, "subId": "S287422198"}, {"speciesCode": "bkcchi", "comName": "Black-capped Chickadee", "sciName": "Poecile atricapillus", "locId": "L656262", "locName": "Stotz yard", "obsDt": "2025-12-05 16:10", "howMany": 1, "lat": 41.8437129, "lng": -87.8940502, "obsValid": true, "obsReviewed": false, "locationPrivate": true, "subId": "S287425043"}, {"speciesCode": "norcar", "comName": "Northern Cardinal", "sciName": "Cardinalis cardinalis", "locId": "L656262", "locName": "Stotz yard", "obsDt": "2025-12-05 16:10", "howMany": 3, "lat": 41.8437129, "lng": -87.8940502, "obsValid": true, "obsReviewed": false, "locationPrivate": true, "subId": "S287425043"}, {"speciesCode": "amepip", "comName": "American Pipit", "sciName": "Anthus rubescens", "locId": "L55737028", "locName": "Northwestern University, Evanston US-IL 42.05110, -87.67328", "obsDt": "2025-12-05 15:56", "howMany": 1, "lat": 42.051098, "lng": -87.673282, "obsValid": true, "obsReviewed": false, "locationPrivate": true, "subId": "S287420962"}, {"speciesCode": "norhar2", "comName": "Northern Harrier", "sciName": "Circus hudsonius", "locId": "L55738057", "locName": "28W40 Golf Rd, Hoffman Estates US-IL 42.04699, -88.16504", "obsDt": "2025-12-05 15:51", "howMany": 1, "lat": 42.046987, "lng": -88.165039, "obsValid": true, "obsReviewed": false, "locationPrivate": true, "subId": "S287425929"}, {"speciesCode": "rethaw", "comName": "Red-tailed Hawk", "sciName": "Buteo jamaicensis", "locId": "L55752181", "locName": "Illinois 58, Elgin, Illinois, US (42.047, -88.165)", "obsDt": "2025-12-05 15:50", "howMany": 1, "lat": 42.0474388, "lng": -88.1647664, "obsValid": true, "obsReviewed": false, "locationPrivate": true, "subId": "S287489145"}, {"speciesCode": "sonspa", "comName": "Song Sparrow", "sciName": "Melospiza melodia", "locId": "L55752181", "locName": "Illinois 58, Elgin, Illinois, US (42.047, -88.165)", "obsDt": "2025-12-05 15:50", "howMany": 4, "lat": 42.0474388, "lng": -88.1647664, "obsValid": true, "obsReviewed": false, "locationPrivate": true, "subId": "S287489145"}, {"speciesCode": "baleag", "comName": "Bald Eagle", "sciName": "Haliaeetus leucocephalus", "locId": "L33946599", "locName": "Hambone Lake 135th Street, Orland Park, Illinois, US (41.646, -87.798)", "obsDt": "2025-12-05 15:49", "howMany": 1, "lat": 41.6462524, "lng": -87.7984158, "obsValid": true, "obsReviewed": false, "locationPrivate": true, "subId": "S287419984"}, {"speciesCode": "dowwoo", "comName": "Downy Woodpecker", "sciName": "Dryobates pubescens", "locId": "L26601783", "locName": "422 Sunset Ridge Rd (private)", "obsDt": "2025-12-05 15:45", "howMany": 1, "lat": 42.1033893, "lng": -87.7909892, "obsValid": true, "obsReviewed": false, "locationPrivate": true, "subId": "S287440879"}, {"speciesCode": "haiwoo", "comName": "Hairy Woodpecker", "sciName": "Leuconotopicus villosus", "locId": "L26601783", "locName": "422 Sunset Ridge Rd (private)", "obsDt": "2025-12-05 15:45", "howMany": 1, "lat": 42.1033893, "lng": -87.7909892, "obsValid": true, "obsReviewed": false, "locationPrivate": true, "subId": "S287440879"}, {"speciesCode": "houfin", "comName": "House Finch", "sciName": "Haemorhous mexicanus", "locId": "L26601783", "locName": "422 Sunset Ridge Rd (private)", "obsDt": "2025-12-05 15:45", "howMany": 2, "lat": 42.1033893, "lng": -87.7909892, "obsValid": true, "obsReviewed": false, "locationPrivate": true, "subId": "S287440879", "exoticCategory": "N"}, {"speciesCode": "amegfi", "comName": "American Goldfinch", "sciName": "Spinus tristis", "locId": "L26601783", "locName": "422 Sunset Ridge Rd (private)", "obsDt": "2025-12-05 15:45", "howMany": 2, "lat": 42.1033893, "lng": -87.7909892, "obsValid": true, "obsReviewed": false, "locationPrivate": true, "subId": "S287440879"}, {"speciesCode": "whtspa", "comName": "White-throated Sparrow", "sciName": "Zonotrichia albicollis", "locId": "L26601783", "locName": "422 Sunset Ridge Rd (private)", "obsDt": "2025-12-05 15:45", "howMany": 2, "lat": 42.1033893, "lng": -87.7909892, "obsValid": true, "obsReviewed": false, "locationPrivate": true, "subId": "S287440879"}, {"speciesCode": "blujay", "comName": "Blue Jay", "sciName": "Cyanocitta cristata", "locId": "L2187841", "locName": "Centennial Park, Orland Park", "obsDt": "2025-12-05 15:42", "howMany": 2, "lat": 41.6050863, "lng": -87.8657341, "obsValid": true, "obsReviewed": false, "locationPrivate": false, "subId": "S287433094"}, {"speciesCode": "rebwoo", "comName": "Red-bellied Woodpecker", "sciName": "Melanerpes carolinus", "locId": "L343390", "locName": "Caldwell Preserves (Bunker Hill/Yates Flatwoods/Caldwell Woods)", "obsDt": "2025-12-05 15:40", "howMany": 2, "lat": 42.00125, "lng": -87.7851391, "obsValid": true, "obsReviewed": false, "locationPrivate": false, "subId": "S287437840"}, {"speciesCode": "redhea", "comName": "Redhead", "sciName": "Aythya americana", "locId": "L161180", "locName": "Montrose Point Bird Sanctuary, Lincoln Park", "obsDt": "2025-12-05 15:37", "howMany": 1, "lat": 41.9633833, "lng": -87.6344204, "obsValid": true, "obsReviewed": false, "locationPrivate": false, "subId": "S287444937"}, {"speciesCode": "lotduc", "comName": "Long-tailed Duck", "sciName": "Clangula hyemalis", "locId": "L161180", "locName": "Montrose Point Bird Sanctuary, Lincoln Park", "obsDt": "2025-12-05 15:37", "howMany": 1, "lat": 41.9633833, "lng": -87.6344204, "obsValid": true, "obsReviewed": false, "locationPrivate": false, "subId": "S287444937"}, {"speciesCode": "hoomer", "comName": "Hooded Merganser", "sciName": "Lophodytes cucullatus", "locId": "L161180", "locName": "Montrose Point Bird Sanctuary, Lincoln Park", "obsDt": "2025-12-05 15:37", "howMany": 3, "lat": 41.9633833, "lng": -87.6344204, "obsValid": true, "obsReviewed": false, "locationPrivate": false, "subId": "S287444937"}, {"speciesCode": "commer", "comName": "Common Merganser", "sciName": "Mergus merganser", "locId": "L161180", "locName": "Montrose Point Bird Sanctuary, Lincoln Park", "obsDt": "2025-12-05 15:37", "howMany": 1, "lat": 41.9633833, "lng": -87.6344204, "obsValid": true, "obsReviewed": false, "locationPrivate": false, "subId": "S287444937"}, {"speciesCode": "horgre", "comName": "Horned Grebe", "sciName": "Podiceps auritus", "locId": "L161180", "locName": "Montrose Point Bird Sanctuary, Lincoln Park", "obsDt": "2025-12-05 15:37", "howMany": 1, "lat": 41.9633833, "lng": -87.6344204, "obsValid": true, "obsReviewed": false, "locationPrivate": false, "subId": "S287444937"}, {"speciesCode": "doccor", "comName": "Double-crested Cormorant", "sciName": "Nannopterum auritum", "locId": "L161180", "locName": "Montrose Point Bird Sanctuary, Lincoln Park", "obsDt": "2025-12-05 15:37", "howMany": 3, "lat": 41.9633833, "lng": -87.6344204, "obsValid": true, "obsReviewed": false, "locationPrivate": false, "subId": "S287444937"}, {"speciesCode": "rinduc", "comName": "Ring-necked Duck", "sciName": "Aythya collaris", "locId": "L152692", "locName": "Northwestern University (Main Campus and Lakefill)", "obsDt": "2025-12-05 15:30", "howMany": 1, "lat": 42.0569, "lng": -87.6711, "obsValid": true, "obsReviewed": false, "locationPrivate": false, "subId": "S287539317"}, {"speciesCode": "lessca", "comName": "Lesser Scaup", "sciName": "Aythya affinis", "locId": "L152692", "locName": "Northwestern University (Main Campus and Lakefill)", "obsDt": "2025-12-05 15:30", "howMany": 2, "lat": 42.0569, "lng": -87.6711, "obsValid": true, "obsReviewed": false, "locationPrivate": false, "subId": "S287539317"}, {"speciesCode": "eucdov", "comName": "Eurasian Collared-Dove", "sciName": "Streptopelia decaocto", "locId": "L1270961", "locName": "Des Plaines River area, River Grove, IL", "obsDt": "2025-12-05 15:30", "howMany": 12, "lat": 41.9292298, "lng": -87.8438902, "obsValid": true, "obsReviewed": false, "locationPrivate": true, "subId": "S287421497", "exoticCategory": "N"}, {"speciesCode": "comloo", "comName": "Common Loon", "sciName": "Gavia immer", "locId": "L108497", "locName": "Axehead Lake/Chippewa Woods", "obsDt": "2025-12-05 15:19", "howMany": 1, "lat": 42.007636, "lng": -87.8646934, "obsValid": true, "obsReviewed": false, "locationPrivate": false, "subId": "S287420707"}, {"speciesCode": "wilsni1", "comName": "Wilson's Snipe", "sciName": "Gallinago delicata", "locId": "L152603", "locName": "Bartel Grassland", "obsDt": "2025-12-05 14:45", "howMany": 1, "lat": 41.5356, "lng": -87.7555, "obsValid": true, "obsReviewed": true, "locationPrivate": false, "subId": "S287415954"}, {"speciesCode": "gresca", "comName": "Greater Scaup", "sciName": "Aythya marila", "locId": "L152692", "locName": "Northwestern University (Main Campus and Lakefill)", "obsDt": "2025-12-05 14:41", "howMany": 2, "lat": 42.0569, "lng": -87.6711, "obsValid": true, "obsReviewed": false, "locationPrivate": false, "subId": "S287414286"}, {"speciesCode": "amecro", "comName": "American Crow", "sciName": "Corvus brachyrhynchos", "locId": "L152692", "locName": "Northwestern University (Main Campus and Lakefill)", "obsDt": "2025-12-05 14:41", "howMany": 1, "lat": 42.0569, "lng": -87.6711, "obsValid": true, "obsReviewed": false, "locationPrivate": false, "subId": "S287414286"}, {"speciesCode": "canvas", "comName": "Canvasback", "sciName": "Aythya valisineria", "locId": "L3934103", "locName": "Park No. 566", "obsDt": "2025-12-05 14:36", "howMany": 9, "lat": 41.7487879, "lng": -87.5365198, "obsValid": true, "obsReviewed": false, "locationPrivate": false, "subId": "S287430648"}, {"speciesCode": "buffle", "comName": "Bufflehead", "sciName": "Bucephala albeola", "locId": "L3934103", "locName": "Park No. 566", "obsDt": "2025-12-05 14:36", "howMany": 15, "lat": 41.7487879, "lng": -87.5365198, "obsValid": true, "obsReviewed": false, "locationPrivate": false, "subId": "S287430648"}, {"speciesCode": "bnhcow", "comName": "Brown-headed Cowbird", "sciName": "Molothrus ater", "locId": "L161180", "locName": "Montrose Point Bird Sanctuary, Lincoln Park", "obsDt": "2025-12-05 14:29", "howMany": 1, "lat": 41.9633833, "lng": -87.6344204, "obsValid": true, "obsReviewed": false, "locationPrivate": false, "subId": "S287427335"}, {"speciesCode": "pilwoo", "comName": "Pileated Woodpecker", "sciName": "Dryocopus pileatus", "locId": "L152713", "locName": "Sand Ridge Nature Center", "obsDt": "2025-12-05 14:11", "howMany": 1, "lat": 41.6051, "lng": -87.5619, "obsValid": true, "obsReviewed": false, "locationPrivate": false, "subId": "S287445457"}, {"speciesCode": "whbnut", "comName": "White-breasted Nuthatch", "sciName": "Sitta carolinensis", "locId": "L152713", "locName": "Sand Ridge Nature Center", "obsDt": "2025-12-05 14:11", "howMany": 6, "lat": 41.6051, "lng": -87.5619, "obsValid": true, "obsReviewed": false, "locationPrivate": false, "subId": "S287445457"}, {"speciesCode": "rebnut", "comName": "Red-breasted Nuthatch", "sciName": "Sitta canadensis", "locId": "L152713", "locName": "Sand Ridge Nature Center", "obsDt": "2025-12-05 14:11", "howMany": 1, "lat": 41.6051, "lng": -87.5619, "obsValid": true, "obsReviewed": false, "locationPrivate": false, "subId": "S287445457"}, {"speciesCode": "y00475", "comName": "American Coot", "sciName": "Fulica americana", "locId": "L1803035", "locName": "Jackson Park--Inner/Outer Harbors", "obsDt": "2025-12-05 14:05", "howMany": 3, "lat": 41.7759989, "lng": -87.575183, "obsValid": true, "obsReviewed": false, "locationPrivate": false, "subId": "S287430244"}, {"speciesCode": "reshaw", "comName": "Red-shouldered Hawk", "sciName": "Buteo lineatus", "locId": "L152605", "locName": "Lake Calumet area--Big Marsh/Park #564", "obsDt": "2025-12-05 14:05", "howMany": 1, "lat": 41.6882326, "lng": -87.5733733, "obsValid": true, "obsReviewed": false, "locationPrivate": false, "subId": "S287408319"}, {"speciesCode": "foxspa", "comName": "Fox Sparrow", "sciName": "Passerella iliaca", "locId": "L586117", "locName": "Home, Evanston", "obsDt": "2025-12-05 13:55", "howMany": 2, "lat": 42.0216136, "lng": -87.6973289, "obsValid": true, "obsReviewed": false, "locationPrivate": true, "subId": "S287413672"}, {"speciesCode": "mutswa", "comName": "Mute Swan", "sciName": "Cygnus olor", "locId": "L3934103", "locName": "Park No. 566", "obsDt": "2025-12-05 13:54", "howMany": 6, "lat": 41.7487879, "lng": -87.5365198, "obsValid": true, "obsReviewed": false, "locationPrivate": false, "subId": "S287755443", "exoticCategory": "N"}, {"speciesCode": "amekes", "comName": "American Kestrel", "sciName": "Falco sparverius", "locId": "L3934103", "locName": "Park No. 566", "obsDt": "2025-12-05 13:54", "howMany": 1, "lat": 41.7487879, "lng": -87.5365198, "obsValid": true, "obsReviewed": false, "locationPrivate": false, "subId": "S287755443"}, {"speciesCode": "swaspa", "comName": "Swamp Sparrow", "sciName": "Melospiza georgiana", "locId": "L161180", "locName": "Montrose Point Bird Sanctuary, Lincoln Park", "obsDt": "2025-12-05 13:19", "howMany": 1, "lat": 41.9633833, "lng": -87.6344204, "obsValid": true, "obsReviewed": false, "locationPrivate": false, "subId": "S287410165"}, {"speciesCode": "orcwar", "comName": "Orange-crowned Warbler", "sciName": "Leiothlypis celata", "locId": "L161180", "locName": "Montrose Point Bird Sanctuary, Lincoln Park", "obsDt": "2025-12-05 13:19", "howMany": 1, "lat": 41.9633833, "lng": -87.6344204, "obsValid": true, "obsReviewed": true, "locationPrivate": false, "subId": "S287410165"}, {"speciesCode": "sancra", "comName": "Sandhill Crane", "sciName": "Antigone canadensis", "locId": "L55732794", "locName": "5177\u20135199 N Kolmar Ave, Chicago US-IL 41.97529, -87.74185", "obsDt": "2025-12-05 12:55", "howMany": 10, "lat": 41.975294, "lng": -87.741853, "obsValid": true, "obsReviewed": false, "locationPrivate": true, "subId": "S287401054"}, {"speciesCode": "truswa", "comName": "Trumpeter Swan", "sciName": "Cygnus buccinator", "locId": "L289205", "locName": "Lemont Quarries (Cook Co.)", "obsDt": "2025-12-05 12:54", "howMany": 11, "lat": 41.6822668, "lng": -87.9812559, "obsValid": true, "obsReviewed": false, "locationPrivate": false, "subId": "S288101805"}, {"speciesCode": "wooduc", "comName": "Wood Duck", "sciName": "Aix sponsa", "locId": "L289205", "locName": "Lemont Quarries (Cook Co.)", "obsDt": "2025-12-05 12:54", "howMany": 1, "lat": 41.6822668, "lng": -87.9812559, "obsValid": true, "obsReviewed": false, "locationPrivate": false, "subId": "S288101805"}, {"speciesCode": "norsho", "comName": "Northern Shoveler", "sciName": "Spatula clypeata", "locId": "L289205", "locName": "Lemont Quarries (Cook Co.)", "obsDt": "2025-12-05 12:54", "howMany": 28, "lat": 41.6822668, "lng": -87.9812559, "obsValid": true, "obsReviewed": false, "locationPrivate": false, "subId": "S288101805"}, {"speciesCode": "gadwal", "comName": "Gadwall", "sciName": "Mareca strepera", "locId": "L289205", "locName": "Lemont Quarries (Cook Co.)", "obsDt": "2025-12-05 12:54", "howMany": 32, "lat": 41.6822668, "lng": -87.9812559, "obsValid": true, "obsReviewed": false, "locationPrivate": false, "subId": "S288101805"}, {"speciesCode": "amewig", "comName": "American Wigeon", "sciName": "Mareca americana", "locId": "L289205", "locName": "Lemont Quarries (Cook Co.)", "obsDt": "2025-12-05 12:54", "howMany": 1, "lat": 41.6822668, "lng": -87.9812559, "obsValid": true, "obsReviewed": false, "locationPrivate": false, "subId": "S288101805"}, {"speciesCode": "gnwtea", "comName": "Green-winged Teal", "sciName": "Anas crecca", "locId": "L289205", "locName": "Lemont Quarries (Cook Co.)", "obsDt": "2025-12-05 12:54", "howMany": 2, "lat": 41.6822668, "lng": -87.9812559, "obsValid": true, "obsReviewed": false, "locationPrivate": false, "subId": "S288101805"}, {"speciesCode": "cedwax", "comName": "Cedar Waxwing", "sciName": "Bombycilla cedrorum", "locId": "L289205", "locName": "Lemont Quarries (Cook Co.)", "obsDt": "2025-12-05 12:54", "howMany": 30, "lat": 41.6822668, "lng": -87.9812559, "obsValid": true, "obsReviewed": false, "locationPrivate": false, "subId": "S288101805"}, {"speciesCode": "grbher3", "comName": "Great Blue Heron", "sciName": "Ardea herodias", "locId": "L11354545", "locName": "240 Maplewood Rd, Riverside US-IL 41.83422, -87.82527", "obsDt": "2025-12-05 12:40", "howMany": 3, "lat": 41.834219, "lng": -87.825271, "obsValid": true, "obsReviewed": false, "locationPrivate": true, "subId": "S287401181"}, {"speciesCode": "snoowl1", "comName": "Snowy Owl", "sciName": "Bubo scandiacus", "locId": "L382827", "locName": "Lincoln Park--North Ave. Beach", "obsDt": "2025-12-05 12:40", "howMany": 1, "lat": 41.913216, "lng": -87.6212025, "obsValid": true, "obsReviewed": false, "locationPrivate": false, "subId": "S291014364"}, {"speciesCode": "pinsis", "comName": "Pine Siskin", "sciName": "Spinus pinus", "locId": "L152692", "locName": "Northwestern University (Main Campus and Lakefill)", "obsDt": "2025-12-05 12:17", "howMany": 10, "lat": 42.0569, "lng": -87.6711, "obsValid": true, "obsReviewed": false, "locationPrivate": false, "subId": "S287396829"}, {"speciesCode": "brncre", "comName": "Brown Creeper", "sciName": "Certhia americana", "locId": "L152623", "locName": "Crabtree Nature Center", "obsDt": "2025-12-05 12:15", "howMany": 1, "lat": 42.114, "lng": -88.161, "obsValid": true, "obsReviewed": false, "locationPrivate": false, "subId": "S287427459"}, {"speciesCode": "easblu", "comName": "Eastern Bluebird", "sciName": "Sialia sialis", "locId": "L152623", "locName": "Crabtree Nature Center", "obsDt": "2025-12-05 12:15", "howMany": 1, "lat": 42.114, "lng": -88.161, "obsValid": true, "obsReviewed": false, "locationPrivate": false, "subId": "S287427459"}, {"speciesCode": "belkin1", "comName": "Belted Kingfisher", "sciName": "Megaceryle alcyon", "locId": "L6980773", "locName": "Legion Park", "obsDt": "2025-12-05 12:10", "howMany": 1, "lat": 41.9842495, "lng": -87.7065825, "obsValid": true, "obsReviewed": false, "locationPrivate": false, "subId": "S287399540"}, {"speciesCode": "monpar", "comName": "Monk Parakeet", "sciName": "Myiopsitta monachus", "locId": "L55748200", "locName": "7918 Nordica Ave, Burbank US-IL (41.7473,-87.7963)", "obsDt": "2025-12-05 11:50", "howMany": 2, "lat": 41.747274, "lng": -87.79633, "obsValid": true, "obsReviewed": false, "locationPrivate": true, "subId": "S287468497", "exoticCategory": "N"}, {"speciesCode": "ambduc", "comName": "American Black Duck", "sciName": "Anas rubripes", "locId": "L161180", "locName": "Montrose Point Bird Sanctuary, Lincoln Park", "obsDt": "2025-12-05 11:09", "howMany": 1, "lat": 41.9633833, "lng": -87.6344204, "obsValid": true, "obsReviewed": false, "locationPrivate": false, "subId": "S287399862"}, {"speciesCode": "herthr", "comName": "Hermit Thrush", "sciName": "Catharus guttatus", "locId": "L4911771", "locName": "Grant Park--Maggie Daley Park", "obsDt": "2025-12-05 09:42", "howMany": 1, "lat": 41.882639, "lng": -87.618954, "obsValid": true, "obsReviewed": false, "locationPrivate": false, "subId": "S287390032"}, {"speciesCode": "yerwar", "comName": "Yellow-rumped Warbler", "sciName": "Setophaga coronata", "locId": "L4911771", "locName": "Grant Park--Maggie Daley Park", "obsDt": "2025-12-05 09:42", "howMany": 1, "lat": 41.882639, "lng": -87.618954, "obsValid": true, "obsReviewed": false, "locationPrivate": false, "subId": "S287390032"}, {"speciesCode": "horlar", "comName": "Horned Lark", "sciName": "Eremophila alpestris", "locId": "L161180", "locName": "Montrose Point Bird Sanctuary, Lincoln Park", "obsDt": "2025-12-05 09:33", "howMany": 1, "lat": 41.9633833, "lng": -87.6344204, "obsValid": true, "obsReviewed": false, "locationPrivate": false, "subId": "S287391596"}, {"speciesCode": "carwre", "comName": "Carolina Wren", "sciName": "Thryothorus ludovicianus", "locId": "L630820", "locName": "South Oak Park", "obsDt": "2025-12-05 09:28", "howMany": 1, "lat": 41.8688258, "lng": -87.7890015, "obsValid": true, "obsReviewed": false, "locationPrivate": true, "subId": "S287431116"}, {"speciesCode": "snobun", "comName": "Snow Bunting", "sciName": "Plectrophenax nivalis", "locId": "L813972", "locName": "Montrose Dunes, Lincoln Park", "obsDt": "2025-12-05 09:22", "howMany": 4, "lat": 41.9660701, "lng": -87.633369, "obsValid": true, "obsReviewed": false, "locationPrivate": false, "subId": "S287381130"}, {"speciesCode": "bongul", "comName": "Bonaparte's Gull", "sciName": "Chroicocephalus philadelphia", "locId": "L161180", "locName": "Montrose Point Bird Sanctuary, Lincoln Park", "obsDt": "2025-12-05 08:52", "howMany": 1, "lat": 41.9633833, "lng": -87.6344204, "obsValid": true, "obsReviewed": false, "locationPrivate": false, "subId": "S287374351"}, {"speciesCode": "rewbla", "comName": "Red-winged Blackbird", "sciName": "Agelaius phoeniceus", "locId": "L5220425", "locName": "Normandy Pl, Evanston, IL", "obsDt": "2025-12-05 08:05", "howMany": 1, "lat": 42.0582826, "lng": -87.7189073, "obsValid": true, "obsReviewed": false, "locationPrivate": true, "subId": "S287729516"}]