[{"speciesCode": "norhar2", "comName": "Northern Harrier", "sciName": "Circus hudsonius", "locId": "L28873045", "locName": "500\u2013550 Wilco Blvd, Romeoville US-IL 41.59668, -88.09367", "obsDt": "2025-12-20 15:34", "howMany": 2, "lat": 41.596684, "lng": -88.093668, "obsValid": true, "obsReviewed": false, "locationPrivate": true, "subId": "S289410288"}, {"speciesCode": "mallar3", "comName": "Mallard", "sciName": "Anas platyrhynchos", "locId": "L152617", "locName": "Channahon State Park", "obsDt": "2025-12-20 15:24", "howMany": 8, "lat": 41.4233127, "lng": -88.2281822, "obsValid": true, "obsReviewed": false, "locationPrivate": false, "subId": "S289406418"}, {"speciesCode": "herthr", "comName": "Hermit Thrush", "sciName": "Catharus guttatus", "locId": "L152617", "locName": "Channahon State Park", "obsDt": "2025-12-20 15:24", "howMany": 1, "lat": 41.4233127, "lng": -88.2281822, "obsValid": true, "obsReviewed": false, "locationPrivate": false, "subId": "S289406418"}, {"speciesCode": "daejun", "comName": "Dark-eyed Junco", "sciName": "Junco hyemalis", "locId": "L152617", "locName": "Channahon State Park", "obsDt": "2025-12-20 15:24", "howMany": 5, "lat": 41.4233127, "lng": -88.2281822, "obsValid": true, "obsReviewed": false, "locationPrivate": false, "subId": "S289406418"}, {"speciesCode": "cangoo", "comName": "Canada Goose", "sciName": "Branta canadensis", "locId": "L1064362", "locName": "McKinley Woods--Moose Island", "obsDt": "2025-12-20 14:58", "howMany": 7, "lat": 41.4124473, "lng": -88.2196999, "obsValid": true, "obsReviewed": false, "locationPrivate": false, "subId": "S289410600"}, {"speciesCode": "moudov", "comName": "Mourning Dove", "sciName": "Zenaida macroura", "locId": "L1064362", "locName": "McKinley Woods--Moose Island", "obsDt": "2025-12-20 14:58", "howMany": 9, "lat": 41.4124473, "lng": -88.2196999, "obsValid": true, "obsReviewed": false, "locationPrivate": false, "subId": "S289410600"}, {"speciesCode": "amhgul1", "comName": "American Herring Gull", "sciName": "Larus smithsonianus", "locId": "L1064362", "locName": "McKinley Woods--Moose Island", "obsDt": "2025-12-20 14:58", "howMany": 4, "lat": 41.4124473, "lng": -88.2196999, "obsValid": true, "obsReviewed": false, "locationPrivate": false, "subId": "S289410600"}, {"speciesCode": "rebwoo", "comName": "Red-bellied Woodpecker", "sciName": "Melanerpes carolinus", "locId": "L1064362", "locName": "McKinley Woods--Moose Island", "obsDt": "2025-12-20 14:58", "howMany": 2, "lat": 41.4124473, "lng": -88.2196999, "obsValid": true, "obsReviewed": false, "locationPrivate": false, "subId": "S289410600"}, {"speciesCode": "dowwoo", "comName": "Downy Woodpecker", "sciName": "Dryobates pubescens", "locId": "L1064362", "locName": "McKinley Woods--Moose Island", "obsDt": "2025-12-20 14:58", "howMany": 2, "lat": 41.4124473, "lng": -88.2196999, "obsValid": true, "obsReviewed": false, "locationPrivate": false, "subId": "S289410600"}, {"speciesCode": "haiwoo", "comName": "Hairy Woodpecker", "sciName": "Leuconotopicus villosus", "locId": "L1064362", "locName": "McKinley Woods--Moose Island", "obsDt": "2025-12-20 14:58", "howMany": 2, "lat": 41.4124473, "lng": -88.2196999, "obsValid": true, "obsReviewed": false, "locationPrivate": false, "subId": "S289410600"}, {"speciesCode": "norfli", "comName": "Northern Flicker", "sciName": "Colaptes auratus", "locId": "L1064362", "locName": "McKinley Woods--Moose Island", "obsDt": "2025-12-20 14:58", "howMany": 1, "lat": 41.4124473, "lng": -88.2196999, "obsValid": true, "obsReviewed": false, "locationPrivate": false, "subId": "S289410600"}, {"speciesCode": "blujay", "comName": "Blue Jay", "sciName": "Cyanocitta cristata", "locId": "L1064362", "locName": "McKinley Woods--Moose Island", "obsDt": "2025-12-20 14:58", "howMany": 7, "lat": 41.4124473, "lng": -88.2196999, "obsValid": true, "obsReviewed": false, "locationPrivate": false, "subId": "S289410600"}, {"speciesCode": "amecro", "comName": "American Crow", "sciName": "Corvus brachyrhynchos", "locId": "L1064362", "locName": "McKinley Woods--Moose Island", "obsDt": "2025-12-20 14:58", "howMany": 1, "lat": 41.4124473, "lng": -88.2196999, "obsValid": true, "obsReviewed": false, "locationPrivate": false, "subId": "S289410600"}, {"speciesCode": "bkcchi", "comName": "Black-capped Chickadee", "sciName": "Poecile atricapillus", "locId": "L1064362", "locName": "McKinley Woods--Moose Island", "obsDt": "2025-12-20 14:58", "howMany": 1, "lat": 41.4124473, "lng": -88.2196999, "obsValid": true, "obsReviewed": false, "locationPrivate": false, "subId": "S289410600"}, {"speciesCode": "tuftit", "comName": "Tufted Titmouse", "sciName": "Baeolophus bicolor", "locId": "L1064362", "locName": "McKinley Woods--Moose Island", "obsDt": "2025-12-20 14:58", "howMany": 1, "lat": 41.4124473, "lng": -88.2196999, "obsValid": true, "obsReviewed": false, "locationPrivate": false, "subId": "S289410600"}, {"speciesCode": "whbnut", "comName": "White-breasted Nuthatch", "sciName": "Sitta carolinensis", "locId": "L1064362", "locName": "McKinley Woods--Moose Island", "obsDt": "2025-12-20 14:58", "howMany": 3, "lat": 41.4124473, "lng": -88.2196999, "obsValid": true, "obsReviewed": false, "locationPrivate": false, "subId": "S289410600"}, {"speciesCode": "eursta", "comName": "European Starling", "sciName": "Sturnus vulgaris", "locId": "L1064362", "locName": "McKinley Woods--Moose Island", "obsDt": "2025-12-20 14:58", "howMany": 16, "lat": 41.4124473, "lng": -88.2196999, "obsValid": true, "obsReviewed": false, "locationPrivate": false, "subId": "S289410600", "exoticCategory": "N"}, {"speciesCode": "amerob", "comName": "American Robin", "sciName": "Turdus migratorius", "locId": "L1064362", "locName": "McKinley Woods--Moose Island", "obsDt": "2025-12-20 14:58", "howMany": 400, "lat": 41.4124473, "lng": -88.2196999, "obsValid": true, "obsReviewed": false, "locationPrivate": false, "subId": "S289410600"}, {"speciesCode": "cedwax", "comName": "Cedar Waxwing", "sciName": "Bombycilla cedrorum", "locId": "L1064362", "locName": "McKinley Woods--Moose Island", "obsDt": "2025-12-20 14:58", "howMany": 2, "lat": 41.4124473, "lng": -88.2196999, "obsValid": true, "obsReviewed": false, "locationPrivate": false, "subId": "S289410600"}, {"speciesCode": "houspa", "comName": "House Sparrow", "sciName": "Passer domesticus", "locId": "L1064362", "locName": "McKinley Woods--Moose Island", "obsDt": "2025-12-20 14:58", "howMany": 1, "lat": 41.4124473, "lng": -88.2196999, "obsValid": true, "obsReviewed": false, "locationPrivate": false, "subId": "S289410600", "exoticCategory": "N"}, {"speciesCode": "houfin", "comName": "House Finch", "sciName": "Haemorhous mexicanus", "locId": "L1064362", "locName": "McKinley Woods--Moose Island", "obsDt": "2025-12-20 14:58", "howMany": 1, "lat": 41.4124473, "lng": -88.2196999, "obsValid": true, "obsReviewed": false, "locationPrivate": false, "subId": "S289410600", "exoticCategory": "N"}, {"speciesCode": "purfin", "comName": "Purple Finch", "sciName": "Haemorhous purpureus", "locId": "L1064362", "locName": "McKinley Woods--Moose Island", "obsDt": "2025-12-20 14:58", "howMany": 1, "lat": 41.4124473, "lng": -88.2196999, "obsValid": true, "obsReviewed": false, "locationPrivate": false, "subId": "S289410600"}, {"speciesCode": "amegfi", "comName": "American Goldfinch", "sciName": "Spinus tristis", "locId": "L1064362", "locName": "McKinley Woods--Moose Island", "obsDt": "2025-12-20 14:58", "howMany": 1, "lat": 41.4124473, "lng": -88.2196999, "obsValid": true, "obsReviewed": false, "locationPrivate": false, "subId": "S289410600"}, {"speciesCode": "amtspa", "comName": "American Tree Sparrow", "sciName": "Spizelloides arborea", "locId": "L1064362", "locName": "McKinley Woods--Moose Island", "obsDt": "2025-12-20 14:58", "howMany": 2, "lat": 41.4124473, "lng": -88.2196999, "obsValid": true, "obsReviewed": false, "locationPrivate": false, "subId": "S289410600"}, {"speciesCode": "foxspa", "comName": "Fox Sparrow", "sciName": "Passerella iliaca", "locId": "L1064362", "locName": "McKinley Woods--Moose Island", "obsDt": "2025-12-20 14:58", "howMany": 1, "lat": 41.4124473, "lng": -88.2196999, "obsValid": true, "obsReviewed": false, "locationPrivate": false, "subId": "S289410600"}, {"speciesCode": "whtspa", "comName": "White-throated Sparrow", "sciName": "Zonotrichia albicollis", "locId": "L1064362", "locName": "McKinley Woods--Moose Island", "obsDt": "2025-12-20 14:58", "howMany": 2, "lat": 41.4124473, "lng": -88.2196999, "obsValid": true, "obsReviewed": false, "locationPrivate": false, "subId": "S289410600"}, {"speciesCode": "rusbla", "comName": "Rusty Blackbird", "sciName": "Euphagus carolinus", "locId": "L1064362", "locName": "McKinley Woods--Moose Island", "obsDt": "2025-12-20 14:58", "howMany": 2, "lat": 41.4124473, "lng": -88.2196999, "obsValid": true, "obsReviewed": false, "locationPrivate": false, "subId": "S289410600"}, {"speciesCode": "norcar", "comName": "Northern Cardinal", "sciName": "Cardinalis cardinalis", "locId": "L1064362", "locName": "McKinley Woods--Moose Island", "obsDt": "2025-12-20 14:58", "howMany": 1, "lat": 41.4124473, "lng": -88.2196999, "obsValid": true, "obsReviewed": false, "locationPrivate": false, "subId": "S289410600"}, {"speciesCode": "mutswa", "comName": "Mute Swan", "sciName": "Cygnus olor", "locId": "L504332", "locName": "Des Plaines SFWA--Widewaters", "obsDt": "2025-12-20 14:43", "howMany": 14, "lat": 41.4254809, "lng": -88.2043362, "obsValid": true, "obsReviewed": false, "locationPrivate": false, "subId": "S289398371", "exoticCategory": "N"}, {"speciesCode": "gadwal", "comName": "Gadwall", "sciName": "Mareca strepera", "locId": "L504332", "locName": "Des Plaines SFWA--Widewaters", "obsDt": "2025-12-20 14:43", "howMany": 43, "lat": 41.4254809, "lng": -88.2043362, "obsValid": true, "obsReviewed": false, "locationPrivate": false, "subId": "S289398371"}, {"speciesCode": "comgol", "comName": "Common Goldeneye", "sciName": "Bucephala clangula", "locId": "L504332", "locName": "Des Plaines SFWA--Widewaters", "obsDt": "2025-12-20 14:43", "howMany": 3, "lat": 41.4254809, "lng": -88.2043362, "obsValid": true, "obsReviewed": false, "locationPrivate": false, "subId": "S289398371"}, {"speciesCode": "hoomer", "comName": "Hooded Merganser", "sciName": "Lophodytes cucullatus", "locId": "L504332", "locName": "Des Plaines SFWA--Widewaters", "obsDt": "2025-12-20 14:43", "howMany": 1, "lat": 41.4254809, "lng": -88.2043362, "obsValid": true, "obsReviewed": false, "locationPrivate": false, "subId": "S289398371"}, {"speciesCode": "baleag", "comName": "Bald Eagle", "sciName": "Haliaeetus leucocephalus", "locId": "L504332", "locName": "Des Plaines SFWA--Widewaters", "obsDt": "2025-12-20 14:43", "howMany": 1, "lat": 41.4254809, "lng": -88.2043362, "obsValid": true, "obsReviewed": false, "locationPrivate": false, "subId": "S289398371"}, {"speciesCode": "rethaw", "comName": "Red-tailed Hawk", "sciName": "Buteo jamaicensis", "locId": "L504332", "locName": "Des Plaines SFWA--Widewaters", "obsDt": "2025-12-20 14:43", "howMany": 1, "lat": 41.4254809, "lng": -88.2043362, "obsValid": true, "obsReviewed": false, "locationPrivate": false, "subId": "S289398371"}, {"speciesCode": "sonspa", "comName": "Song Sparrow", "sciName": "Melospiza melodia", "locId": "L504332", "locName": "Des Plaines SFWA--Widewaters", "obsDt": "2025-12-20 14:43", "howMany": 2, "lat": 41.4254809, "lng": -88.2043362, "obsValid": true, "obsReviewed": false, "locationPrivate": false, "subId": "S289398371"}, {"speciesCode": "easmea", "comName": "Eastern Meadowlark", "sciName": "Sturnella magna", "locId": "L1819244", "locName": "Prairie Bluff Preserve", "obsDt": "2025-12-20 14:16", "howMany": 3, "lat": 41.5893846, "lng": -88.1023693, "obsValid": true, "obsReviewed": false, "locationPrivate": false, "subId": "S289434679"}, {"speciesCode": "shshaw", "comName": "Sharp-shinned Hawk", "sciName": "Accipiter striatus", "locId": "L27145848", "locName": "Sauk Trail Reservoir Preserve", "obsDt": "2025-12-20 13:41", "howMany": 1, "lat": 41.4862168, "lng": -87.7999859, "obsValid": true, "obsReviewed": false, "locationPrivate": false, "subId": "S289452283"}, {"speciesCode": "carwre", "comName": "Carolina Wren", "sciName": "Thryothorus ludovicianus", "locId": "L27145848", "locName": "Sauk Trail Reservoir Preserve", "obsDt": "2025-12-20 13:41", "howMany": 1, "lat": 41.4862168, "lng": -87.7999859, "obsValid": true, "obsReviewed": false, "locationPrivate": false, "subId": "S289452283"}, {"speciesCode": "snogoo", "comName": "Snow Goose", "sciName": "Anser caerulescens", "locId": "L801422", "locName": "Rock Run Rookery Preserve", "obsDt": "2025-12-20 13:26", "howMany": 1, "lat": 41.4689912, "lng": -88.1701026, "obsValid": true, "obsReviewed": false, "locationPrivate": false, "subId": "S289393724"}, {"speciesCode": "tunswa", "comName": "Tundra Swan", "sciName": "Cygnus columbianus", "locId": "L801422", "locName": "Rock Run Rookery Preserve", "obsDt": "2025-12-20 13:26", "howMany": 1, "lat": 41.4689912, "lng": -88.1701026, "obsValid": true, "obsReviewed": false, "locationPrivate": false, "subId": "S289393724"}, {"speciesCode": "wooduc", "comName": "Wood Duck", "sciName": "Aix sponsa", "locId": "L801422", "locName": "Rock Run Rookery Preserve", "obsDt": "2025-12-20 13:26", "howMany": 1, "lat": 41.4689912, "lng": -88.1701026, "obsValid": true, "obsReviewed": false, "locationPrivate": false, "subId": "S289393724"}, {"speciesCode": "redhea", "comName": "Redhead", "sciName": "Aythya americana", "locId": "L801422", "locName": "Rock Run Rookery Preserve", "obsDt": "2025-12-20 13:26", "howMany": 68, "lat": 41.4689912, "lng": -88.1701026, "obsValid": true, "obsReviewed": true, "locationPrivate": false, "subId": "S289393724"}, {"speciesCode": "rinduc", "comName": "Ring-necked Duck", "sciName": "Aythya collaris", "locId": "L801422", "locName": "Rock Run Rookery Preserve", "obsDt": "2025-12-20 13:26", "howMany": 35, "lat": 41.4689912, "lng": -88.1701026, "obsValid": true, "obsReviewed": false, "locationPrivate": false, "subId": "S289393724"}, {"speciesCode": "commer", "comName": "Common Merganser", "sciName": "Mergus merganser", "locId": "L801422", "locName": "Rock Run Rookery Preserve", "obsDt": "2025-12-20 13:26", "lat": 41.4689912, "lng": -88.1701026, "obsValid": true, "obsReviewed": false, "locationPrivate": false, "subId": "S289393724"}, {"speciesCode": "rebmer", "comName": "Red-breasted Merganser", "sciName": "Mergus serrator", "locId": "L801422", "locName": "Rock Run Rookery Preserve", "obsDt": "2025-12-20 13:26", "howMany": 1, "lat": 41.4689912, "lng": -88.1701026, "obsValid": true, "obsReviewed": false, "locationPrivate": false, "subId": "S289393724"}, {"speciesCode": "y00475", "comName": "American Coot", "sciName": "Fulica americana", "locId": "L801422", "locName": "Rock Run Rookery Preserve", "obsDt": "2025-12-20 13:26", "howMany": 2, "lat": 41.4689912, "lng": -88.1701026, "obsValid": true, "obsReviewed": false, "locationPrivate": false, "subId": "S289393724"}, {"speciesCode": "ribgul", "comName": "Ring-billed Gull", "sciName": "Larus delawarensis", "locId": "L801422", "locName": "Rock Run Rookery Preserve", "obsDt": "2025-12-20 13:26", "howMany": 290, "lat": 41.4689912, "lng": -88.1701026, "obsValid": true, "obsReviewed": false, "locationPrivate": false, "subId": "S289393724"}, {"speciesCode": "doccor", "comName": "Double-crested Cormorant", "sciName": "Nannopterum auritum", "locId": "L801422", "locName": "Rock Run Rookery Preserve", "obsDt": "2025-12-20 13:26", "howMany": 1, "lat": 41.4689912, "lng": -88.1701026, "obsValid": true, "obsReviewed": false, "locationPrivate": false, "subId": "S289393724"}, {"speciesCode": "grbher3", "comName": "Great Blue Heron", "sciName": "Ardea herodias", "locId": "L801422", "locName": "Rock Run Rookery Preserve", "obsDt": "2025-12-20 13:26", "howMany": 16, "lat": 41.4689912, "lng": -88.1701026, "obsValid": true, "obsReviewed": false, "locationPrivate": false, "subId": "S289393724"}, {"speciesCode": "belkin1", "comName": "Belted Kingfisher", "sciName": "Megaceryle alcyon", "locId": "L801422", "locName": "Rock Run Rookery Preserve", "obsDt": "2025-12-20 13:26", "howMany": 1, "lat": 41.4689912, "lng": -88.1701026, "obsValid": true, "obsReviewed": false, "locationPrivate": false, "subId": "S289393724"}, {"speciesCode": "amekes", "comName": "American Kestrel", "sciName": "Falco sparverius", "locId": "L56161418", "locName": "US6 & Houbolt Rd", "obsDt": "2025-12-20 13:25", "howMany": 1, "lat": 41.48222, "lng": -88.1591953, "obsValid": true, "obsReviewed": false, "locationPrivate": true, "subId": "S289446410"}, {"speciesCode": "rehwoo", "comName": "Red-headed Woodpecker", "sciName": "Melanerpes erythrocephalus", "locId": "L152679", "locName": "McKinley Woods Forest Preserve", "obsDt": "2025-12-20 13:17", "howMany": 8, "lat": 41.384, "lng": -88.2395, "obsValid": true, "obsReviewed": false, "locationPrivate": false, "subId": "S289401504"}, {"speciesCode": "brncre", "comName": "Brown Creeper", "sciName": "Certhia americana", "locId": "L152679", "locName": "McKinley Woods Forest Preserve", "obsDt": "2025-12-20 13:17", "howMany": 2, "lat": 41.384, "lng": -88.2395, "obsValid": true, "obsReviewed": false, "locationPrivate": false, "subId": "S289401504"}, {"speciesCode": "easblu", "comName": "Eastern Bluebird", "sciName": "Sialia sialis", "locId": "L152679", "locName": "McKinley Woods Forest Preserve", "obsDt": "2025-12-20 13:17", "howMany": 5, "lat": 41.384, "lng": -88.2395, "obsValid": true, "obsReviewed": false, "locationPrivate": false, "subId": "S289401504"}, {"speciesCode": "gwfgoo", "comName": "Greater White-fronted Goose", "sciName": "Anser albifrons", "locId": "L28302981", "locName": "766 Commerce Center Dr, University Park US-IL 41.44509, -87.73944", "obsDt": "2025-12-20 12:31", "howMany": 5, "lat": 41.44509, "lng": -87.739444, "obsValid": true, "obsReviewed": false, "locationPrivate": true, "subId": "S289368486"}, {"speciesCode": "rolhaw", "comName": "Rough-legged Hawk", "sciName": "Buteo lagopus", "locId": "L8378838", "locName": "26660\u201327098 S Ridgeland Ave, Monee US-IL (41.4014,-87.7667)", "obsDt": "2025-12-20 12:31", "howMany": 1, "lat": 41.401352, "lng": -87.766744, "obsValid": true, "obsReviewed": false, "locationPrivate": true, "subId": "S289368744"}, {"speciesCode": "ambduc", "comName": "American Black Duck", "sciName": "Anas rubripes", "locId": "L2633894", "locName": "Old 9th Street Bridge (Lockport)", "obsDt": "2025-12-20 12:29", "howMany": 7, "lat": 41.5916437, "lng": -88.0667818, "obsValid": true, "obsReviewed": false, "locationPrivate": false, "subId": "S289370998"}, {"speciesCode": "yebsap", "comName": "Yellow-bellied Sapsucker", "sciName": "Sphyrapicus varius", "locId": "L9892644", "locName": "Arroyo Trails", "obsDt": "2025-12-20 12:21", "howMany": 1, "lat": 41.424045, "lng": -88.23605, "obsValid": true, "obsReviewed": false, "locationPrivate": false, "subId": "S289375670"}, {"speciesCode": "winwre3", "comName": "Winter Wren", "sciName": "Troglodytes hiemalis", "locId": "L9892644", "locName": "Arroyo Trails", "obsDt": "2025-12-20 12:21", "howMany": 1, "lat": 41.424045, "lng": -88.23605, "obsValid": true, "obsReviewed": false, "locationPrivate": false, "subId": "S289375670"}, {"speciesCode": "yerwar", "comName": "Yellow-rumped Warbler", "sciName": "Setophaga coronata", "locId": "L9892644", "locName": "Arroyo Trails", "obsDt": "2025-12-20 12:21", "howMany": 1, "lat": 41.424045, "lng": -88.23605, "obsValid": true, "obsReviewed": false, "locationPrivate": false, "subId": "S289375670"}, {"speciesCode": "whcspa", "comName": "White-crowned Sparrow", "sciName": "Zonotrichia leucophrys", "locId": "L504332", "locName": "Des Plaines SFWA--Widewaters", "obsDt": "2025-12-20 11:52", "howMany": 2, "lat": 41.4254809, "lng": -88.2043362, "obsValid": true, "obsReviewed": false, "locationPrivate": false, "subId": "S289362050"}, {"speciesCode": "rocpig", "comName": "Rock Pigeon", "sciName": "Columba livia", "locId": "L38942789", "locName": "7803\u20137999 W Eagle Lake Rd, Peotone US-IL 41.36833, -87.80493", "obsDt": "2025-12-20 11:49", "howMany": 4, "lat": 41.368329, "lng": -87.804934, "obsValid": true, "obsReviewed": false, "locationPrivate": true, "subId": "S289362150", "exoticCategory": "N"}, {"speciesCode": "brdowl", "comName": "Barred Owl", "sciName": "Strix varia", "locId": "L1341150", "locName": "CBC Charrington @ Old Plank Trail", "obsDt": "2025-12-20 11:40", "howMany": 1, "lat": 41.4989288, "lng": -87.8390607, "obsValid": true, "obsReviewed": false, "locationPrivate": true, "subId": "S289452102"}, {"speciesCode": "rebnut", "comName": "Red-breasted Nuthatch", "sciName": "Sitta canadensis", "locId": "L1341150", "locName": "CBC Charrington @ Old Plank Trail", "obsDt": "2025-12-20 11:40", "howMany": 2, "lat": 41.4989288, "lng": -87.8390607, "obsValid": true, "obsReviewed": false, "locationPrivate": true, "subId": "S289452102"}, {"speciesCode": "pinsis", "comName": "Pine Siskin", "sciName": "Spinus pinus", "locId": "L1341150", "locName": "CBC Charrington @ Old Plank Trail", "obsDt": "2025-12-20 11:40", "howMany": 6, "lat": 41.4989288, "lng": -87.8390607, "obsValid": true, "obsReviewed": false, "locationPrivate": true, "subId": "S289452102"}, {"speciesCode": "swaspa", "comName": "Swamp Sparrow", "sciName": "Melospiza georgiana", "locId": "L1341150", "locName": "CBC Charrington @ Old Plank Trail", "obsDt": "2025-12-20 11:40", "howMany": 1, "lat": 41.4989288, "lng": -87.8390607, "obsValid": true, "obsReviewed": false, "locationPrivate": true, "subId": "S289452102"}, {"speciesCode": "rewbla", "comName": "Red-winged Blackbird", "sciName": "Agelaius phoeniceus", "locId": "L1341150", "locName": "CBC Charrington @ Old Plank Trail", "obsDt": "2025-12-20 11:40", "howMany": 1, "lat": 41.4989288, "lng": -87.8390607, "obsValid": true, "obsReviewed": false, "locationPrivate": true, "subId": "S289452102"}, {"speciesCode": "comgra", "comName": "Common Grackle", "sciName": "Quiscalus quiscula", "locId": "L1341150", "locName": "CBC Charrington @ Old Plank Trail", "obsDt": "2025-12-20 11:40", "howMany": 1, "lat": 41.4989288, "lng": -87.8390607, "obsValid": true, "obsReviewed": false, "locationPrivate": true, "subId": "S289452102"}, {"speciesCode": "cacgoo1", "comName": "Cackling Goose", "sciName": "Branta hutchinsii", "locId": "L252503", "locName": "Whalon Lake Forest Preserve", "obsDt": "2025-12-20 11:36", "howMany": 12, "lat": 41.7159803, "lng": -88.0946875, "obsValid": true, "obsReviewed": false, "locationPrivate": false, "subId": "S289370007"}, {"speciesCode": "perfal", "comName": "Peregrine Falcon", "sciName": "Falco peregrinus", "locId": "L21822994", "locName": "Manhattan-Monee Rd - 88th Ave to Center Rd", "obsDt": "2025-12-20 11:23", "howMany": 1, "lat": 41.4254987, "lng": -87.8350192, "obsValid": true, "obsReviewed": false, "locationPrivate": true, "subId": "S289356285"}, {"speciesCode": "reshaw", "comName": "Red-shouldered Hawk", "sciName": "Buteo lineatus", "locId": "L902227", "locName": "Rock Run Preserve", "obsDt": "2025-12-20 10:35", "howMany": 1, "lat": 41.5400643, "lng": -88.1706905, "obsValid": true, "obsReviewed": false, "locationPrivate": false, "subId": "S289356803"}, {"speciesCode": "coohaw", "comName": "Cooper's Hawk", "sciName": "Astur cooperii", "locId": "L28310346", "locName": "Van Horn Woods East, Plainfield US-IL 41.56991, -88.18216", "obsDt": "2025-12-20 10:33", "howMany": 1, "lat": 41.569913, "lng": -88.18216, "obsValid": true, "obsReviewed": false, "locationPrivate": true, "subId": "S289374218"}, {"speciesCode": "pilwoo", "comName": "Pileated Woodpecker", "sciName": "Dryocopus pileatus", "locId": "L152698", "locName": "Pilcher Park, Joliet", "obsDt": "2025-12-20 09:45", "howMany": 1, "lat": 41.5322, "lng": -88.0212, "obsValid": true, "obsReviewed": false, "locationPrivate": false, "subId": "S289391221"}, {"speciesCode": "amewig", "comName": "American Wigeon", "sciName": "Mareca americana", "locId": "L56134758", "locName": "212 North Water Street, Wilmington, Illinois, US (41.309, -88.148)", "obsDt": "2025-12-20 09:23", "howMany": 3, "lat": 41.3089908, "lng": -88.147904, "obsValid": true, "obsReviewed": false, "locationPrivate": true, "subId": "S289327534"}, {"speciesCode": "buffle", "comName": "Bufflehead", "sciName": "Bucephala albeola", "locId": "L56134758", "locName": "212 North Water Street, Wilmington, Illinois, US (41.309, -88.148)", "obsDt": "2025-12-20 09:23", "howMany": 20, "lat": 41.3089908, "lng": -88.147904, "obsValid": true, "obsReviewed": false, "locationPrivate": true, "subId": "S289327534"}, {"speciesCode": "lessca", "comName": "Lesser Scaup", "sciName": "Aythya affinis", "locId": "L801422", "locName": "Rock Run Rookery Preserve", "obsDt": "2025-12-20 09:19", "howMany": 6, "lat": 41.4689912, "lng": -88.1701026, "obsValid": true, "obsReviewed": false, "locationPrivate": false, "subId": "S289351737"}, {"speciesCode": "greegr", "comName": "Great Egret", "sciName": "Ardea alba", "locId": "L4555848", "locName": "Hammel Woods", "obsDt": "2025-12-20 08:58", "howMany": 1, "lat": 41.527967, "lng": -88.19659, "obsValid": true, "obsReviewed": false, "locationPrivate": false, "subId": "S289371333"}, {"speciesCode": "wiltur", "comName": "Wild Turkey", "sciName": "Meleagris gallopavo", "locId": "L16724348", "locName": "Hadley Valley Preserve--Gougar Rd. Access", "obsDt": "2025-12-20 08:34", "howMany": 4, "lat": 41.5535541, "lng": -88.0084813, "obsValid": true, "obsReviewed": false, "locationPrivate": false, "subId": "S289336485"}, {"speciesCode": "bnhcow", "comName": "Brown-headed Cowbird", "sciName": "Molothrus ater", "locId": "L56146307", "locName": "8005 Stanley Trail S, Frankfort US-IL 41.47182, -87.80989", "obsDt": "2025-12-20 08:26", "howMany": 4, "lat": 41.471821, "lng": -87.809891, "obsValid": true, "obsReviewed": false, "locationPrivate": true, "subId": "S289376575"}, {"speciesCode": "glagul", "comName": "Glaucous Gull", "sciName": "Larus hyperboreus", "locId": "L801422", "locName": "Rock Run Rookery Preserve", "obsDt": "2025-12-20 08:20", "howMany": 1, "lat": 41.4689912, "lng": -88.1701026, "obsValid": true, "obsReviewed": false, "locationPrivate": false, "subId": "S289336528"}, {"speciesCode": "lbbgul", "comName": "Lesser Black-backed Gull", "sciName": "Larus fuscus", "locId": "L801422", "locName": "Rock Run Rookery Preserve", "obsDt": "2025-12-20 08:20", "howMany": 1, "lat": 41.4689912, "lng": -88.1701026, "obsValid": true, "obsReviewed": false, "locationPrivate": false, "subId": "S289336528"}, {"speciesCode": "grhowl", "comName": "Great Horned Owl", "sciName": "Bubo virginianus", "locId": "L657034", "locName": "Monee Reservoir", "obsDt": "2025-12-20 08:01", "howMany": 1, "lat": 41.3940026, "lng": -87.7629089, "obsValid": true, "obsReviewed": false, "locationPrivate": false, "subId": "S289349945"}, {"speciesCode": "truswa", "comName": "Trumpeter Swan", "sciName": "Cygnus buccinator", "locId": "L3567071", "locName": "Rock Run Preserve--Black Rd. Access", "obsDt": "2025-12-20 07:31", "howMany": 4, "lat": 41.538182, "lng": -88.1734908, "obsValid": true, "obsReviewed": false, "locationPrivate": false, "subId": "S289357692"}, {"speciesCode": "sheowl", "comName": "Short-eared Owl", "sciName": "Asio flammeus", "locId": "L1819244", "locName": "Prairie Bluff Preserve", "obsDt": "2025-12-20 06:47", "howMany": 1, "lat": 41.5893846, "lng": -88.1023693, "obsValid": true, "obsReviewed": false, "locationPrivate": false, "subId": "S289308107"}, {"speciesCode": "easowl1", "comName": "Eastern Screech-Owl", "sciName": "Megascops asio", "locId": "L1341046", "locName": "Pine Lake, University Park", "obsDt": "2025-12-20 06:14", "howMany": 1, "lat": 41.4435245, "lng": -87.70684, "obsValid": true, "obsReviewed": false, "locationPrivate": true, "subId": "S289451706"}]