[{"speciesCode": "cangoo", "comName": "Canada Goose", "sciName": "Branta canadensis", "locId": "L22555665", "locName": "Bluegrass Prairie Park East, Oswego", "obsDt": "2025-12-24 16:30", "howMany": 42, "lat": 41.7013513, "lng": -88.2967061, "obsValid": true, "obsReviewed": false, "locationPrivate": false, "subId": "S292585933"}, {"speciesCode": "mallar3", "comName": "Mallard", "sciName": "Anas platyrhynchos", "locId": "L22555665", "locName": "Bluegrass Prairie Park East, Oswego", "obsDt": "2025-12-24 16:30", "howMany": 28, "lat": 41.7013513, "lng": -88.2967061, "obsValid": true, "obsReviewed": false, "locationPrivate": false, "subId": "S292585933"}, {"speciesCode": "moudov", "comName": "Mourning Dove", "sciName": "Zenaida macroura", "locId": "L22555665", "locName": "Bluegrass Prairie Park East, Oswego", "obsDt": "2025-12-24 16:30", "howMany": 6, "lat": 41.7013513, "lng": -88.2967061, "obsValid": true, "obsReviewed": false, "locationPrivate": false, "subId": "S292585933"}, {"speciesCode": "rethaw", "comName": "Red-tailed Hawk", "sciName": "Buteo jamaicensis", "locId": "L22555665", "locName": "Bluegrass Prairie Park East, Oswego", "obsDt": "2025-12-24 16:30", "howMany": 1, "lat": 41.7013513, "lng": -88.2967061, "obsValid": true, "obsReviewed": false, "locationPrivate": false, "subId": "S292585933"}, {"speciesCode": "houspa", "comName": "House Sparrow", "sciName": "Passer domesticus", "locId": "L22555665", "locName": "Bluegrass Prairie Park East, Oswego", "obsDt": "2025-12-24 16:30", "howMany": 4, "lat": 41.7013513, "lng": -88.2967061, "obsValid": true, "obsReviewed": false, "locationPrivate": false, "subId": "S292585933", "exoticCategory": "N"}, {"speciesCode": "amtspa", "comName": "American Tree Sparrow", "sciName": "Spizelloides arborea", "locId": "L22555665", "locName": "Bluegrass Prairie Park East, Oswego", "obsDt": "2025-12-24 16:30", "howMany": 1, "lat": 41.7013513, "lng": -88.2967061, "obsValid": true, "obsReviewed": false, "locationPrivate": false, "subId": "S292585933"}, {"speciesCode": "daejun", "comName": "Dark-eyed Junco", "sciName": "Junco hyemalis", "locId": "L22555665", "locName": "Bluegrass Prairie Park East, Oswego", "obsDt": "2025-12-24 16:30", "howMany": 5, "lat": 41.7013513, "lng": -88.2967061, "obsValid": true, "obsReviewed": false, "locationPrivate": false, "subId": "S292585933"}, {"speciesCode": "truswa", "comName": "Trumpeter Swan", "sciName": "Cygnus buccinator", "locId": "L56292994", "locName": "16210\u201316364 N Ridge Rd, Minooka US-IL 41.48787, -88.27239", "obsDt": "2025-12-24 15:02", "howMany": 4, "lat": 41.487872, "lng": -88.272394, "obsValid": true, "obsReviewed": true, "locationPrivate": true, "subId": "S290045163"}, {"speciesCode": "bkcchi", "comName": "Black-capped Chickadee", "sciName": "Poecile atricapillus", "locId": "L55841261", "locName": "BlackBerry Knolls", "obsDt": "2025-12-24 14:15", "howMany": 1, "lat": 41.709843, "lng": -88.386382, "obsValid": true, "obsReviewed": false, "locationPrivate": true, "subId": "S290037861"}, {"speciesCode": "amerob", "comName": "American Robin", "sciName": "Turdus migratorius", "locId": "L55841261", "locName": "BlackBerry Knolls", "obsDt": "2025-12-24 14:15", "howMany": 8, "lat": 41.709843, "lng": -88.386382, "obsValid": true, "obsReviewed": false, "locationPrivate": true, "subId": "S290037861"}, {"speciesCode": "houfin", "comName": "House Finch", "sciName": "Haemorhous mexicanus", "locId": "L55841261", "locName": "BlackBerry Knolls", "obsDt": "2025-12-24 14:15", "howMany": 1, "lat": 41.709843, "lng": -88.386382, "obsValid": true, "obsReviewed": false, "locationPrivate": true, "subId": "S290037861", "exoticCategory": "N"}, {"speciesCode": "amhgul1", "comName": "American Herring Gull", "sciName": "Larus smithsonianus", "locId": "L2999743", "locName": "Bluegrass Prairie Park West, Oswego", "obsDt": "2025-12-24 12:36", "howMany": 31, "lat": 41.6979617, "lng": -88.3047631, "obsValid": true, "obsReviewed": true, "locationPrivate": false, "subId": "S290047286"}, {"speciesCode": "grbher3", "comName": "Great Blue Heron", "sciName": "Ardea herodias", "locId": "L2999743", "locName": "Bluegrass Prairie Park West, Oswego", "obsDt": "2025-12-24 12:36", "howMany": 3, "lat": 41.6979617, "lng": -88.3047631, "obsValid": true, "obsReviewed": false, "locationPrivate": false, "subId": "S290047286"}, {"speciesCode": "amecro", "comName": "American Crow", "sciName": "Corvus brachyrhynchos", "locId": "L2999743", "locName": "Bluegrass Prairie Park West, Oswego", "obsDt": "2025-12-24 12:36", "howMany": 3, "lat": 41.6979617, "lng": -88.3047631, "obsValid": true, "obsReviewed": false, "locationPrivate": false, "subId": "S290047286"}, {"speciesCode": "whcspa", "comName": "White-crowned Sparrow", "sciName": "Zonotrichia leucophrys", "locId": "L2999743", "locName": "Bluegrass Prairie Park West, Oswego", "obsDt": "2025-12-24 12:36", "howMany": 2, "lat": 41.6979617, "lng": -88.3047631, "obsValid": true, "obsReviewed": false, "locationPrivate": false, "subId": "S290047286"}, {"speciesCode": "norpin", "comName": "Northern Pintail", "sciName": "Anas acuta", "locId": "L2686633", "locName": "US Highway 34 Fox River", "obsDt": "2025-12-24 11:35", "howMany": 1, "lat": 41.6849385, "lng": -88.3572972, "obsValid": true, "obsReviewed": false, "locationPrivate": true, "subId": "S290107367"}, {"speciesCode": "commer", "comName": "Common Merganser", "sciName": "Mergus merganser", "locId": "L2686633", "locName": "US Highway 34 Fox River", "obsDt": "2025-12-24 11:35", "howMany": 1, "lat": 41.6849385, "lng": -88.3572972, "obsValid": true, "obsReviewed": false, "locationPrivate": true, "subId": "S290107367"}, {"speciesCode": "rebwoo", "comName": "Red-bellied Woodpecker", "sciName": "Melanerpes carolinus", "locId": "L2686633", "locName": "US Highway 34 Fox River", "obsDt": "2025-12-24 11:35", "howMany": 1, "lat": 41.6849385, "lng": -88.3572972, "obsValid": true, "obsReviewed": false, "locationPrivate": true, "subId": "S290107367"}, {"speciesCode": "merlin", "comName": "Merlin", "sciName": "Falco columbarius", "locId": "L2686633", "locName": "US Highway 34 Fox River", "obsDt": "2025-12-24 11:35", "howMany": 1, "lat": 41.6849385, "lng": -88.3572972, "obsValid": true, "obsReviewed": false, "locationPrivate": true, "subId": "S290107367"}, {"speciesCode": "gockin", "comName": "Golden-crowned Kinglet", "sciName": "Regulus satrapa", "locId": "L2686633", "locName": "US Highway 34 Fox River", "obsDt": "2025-12-24 11:35", "howMany": 1, "lat": 41.6849385, "lng": -88.3572972, "obsValid": true, "obsReviewed": false, "locationPrivate": true, "subId": "S290107367"}, {"speciesCode": "whbnut", "comName": "White-breasted Nuthatch", "sciName": "Sitta carolinensis", "locId": "L2686633", "locName": "US Highway 34 Fox River", "obsDt": "2025-12-24 11:35", "howMany": 1, "lat": 41.6849385, "lng": -88.3572972, "obsValid": true, "obsReviewed": false, "locationPrivate": true, "subId": "S290107367"}, {"speciesCode": "amegfi", "comName": "American Goldfinch", "sciName": "Spinus tristis", "locId": "L2686633", "locName": "US Highway 34 Fox River", "obsDt": "2025-12-24 11:35", "howMany": 3, "lat": 41.6849385, "lng": -88.3572972, "obsValid": true, "obsReviewed": false, "locationPrivate": true, "subId": "S290107367"}, {"speciesCode": "rewbla", "comName": "Red-winged Blackbird", "sciName": "Agelaius phoeniceus", "locId": "L2686633", "locName": "US Highway 34 Fox River", "obsDt": "2025-12-24 11:35", "howMany": 5, "lat": 41.6849385, "lng": -88.3572972, "obsValid": true, "obsReviewed": false, "locationPrivate": true, "subId": "S290107367"}, {"speciesCode": "norcar", "comName": "Northern Cardinal", "sciName": "Cardinalis cardinalis", "locId": "L2686633", "locName": "US Highway 34 Fox River", "obsDt": "2025-12-24 11:35", "howMany": 1, "lat": 41.6849385, "lng": -88.3572972, "obsValid": true, "obsReviewed": false, "locationPrivate": true, "subId": "S290107367"}, {"speciesCode": "gwfgoo", "comName": "Greater White-fronted Goose", "sciName": "Anser albifrons", "locId": "L11023785", "locName": "Kendall Dynegy Energy Cooling Pond (restricted access)", "obsDt": "2025-12-24 10:58", "howMany": 10, "lat": 41.4827323, "lng": -88.2567486, "obsValid": true, "obsReviewed": false, "locationPrivate": false, "subId": "S290044388"}, {"speciesCode": "cacgoo1", "comName": "Cackling Goose", "sciName": "Branta hutchinsii", "locId": "L11023785", "locName": "Kendall Dynegy Energy Cooling Pond (restricted access)", "obsDt": "2025-12-24 10:58", "howMany": 1, "lat": 41.4827323, "lng": -88.2567486, "obsValid": true, "obsReviewed": false, "locationPrivate": false, "subId": "S290044388"}, {"speciesCode": "comgol", "comName": "Common Goldeneye", "sciName": "Bucephala clangula", "locId": "L11023785", "locName": "Kendall Dynegy Energy Cooling Pond (restricted access)", "obsDt": "2025-12-24 10:58", "lat": 41.4827323, "lng": -88.2567486, "obsValid": true, "obsReviewed": false, "locationPrivate": false, "subId": "S290044388"}, {"speciesCode": "ribgul", "comName": "Ring-billed Gull", "sciName": "Larus delawarensis", "locId": "L11023785", "locName": "Kendall Dynegy Energy Cooling Pond (restricted access)", "obsDt": "2025-12-24 10:58", "howMany": 1, "lat": 41.4827323, "lng": -88.2567486, "obsValid": true, "obsReviewed": false, "locationPrivate": false, "subId": "S290044388"}, {"speciesCode": "snogoo", "comName": "Snow Goose", "sciName": "Anser caerulescens", "locId": "L7059914", "locName": "Mundsinger Woods", "obsDt": "2025-12-24 10:40", "howMany": 2, "lat": 41.6860213, "lng": -88.3778912, "obsValid": true, "obsReviewed": false, "locationPrivate": false, "subId": "S290026318"}, {"speciesCode": "coohaw", "comName": "Cooper's Hawk", "sciName": "Astur cooperii", "locId": "L7059914", "locName": "Mundsinger Woods", "obsDt": "2025-12-24 10:40", "howMany": 1, "lat": 41.6860213, "lng": -88.3778912, "obsValid": true, "obsReviewed": false, "locationPrivate": false, "subId": "S290026318"}, {"speciesCode": "dowwoo", "comName": "Downy Woodpecker", "sciName": "Dryobates pubescens", "locId": "L7059914", "locName": "Mundsinger Woods", "obsDt": "2025-12-24 10:40", "howMany": 1, "lat": 41.6860213, "lng": -88.3778912, "obsValid": true, "obsReviewed": false, "locationPrivate": false, "subId": "S290026318"}, {"speciesCode": "brncre", "comName": "Brown Creeper", "sciName": "Certhia americana", "locId": "L7059914", "locName": "Mundsinger Woods", "obsDt": "2025-12-24 10:40", "howMany": 1, "lat": 41.6860213, "lng": -88.3778912, "obsValid": true, "obsReviewed": false, "locationPrivate": false, "subId": "S290026318"}, {"speciesCode": "eursta", "comName": "European Starling", "sciName": "Sturnus vulgaris", "locId": "L7059914", "locName": "Mundsinger Woods", "obsDt": "2025-12-24 10:40", "howMany": 9, "lat": 41.6860213, "lng": -88.3778912, "obsValid": true, "obsReviewed": false, "locationPrivate": false, "subId": "S290026318", "exoticCategory": "N"}, {"speciesCode": "pinsis", "comName": "Pine Siskin", "sciName": "Spinus pinus", "locId": "L7059914", "locName": "Mundsinger Woods", "obsDt": "2025-12-24 10:40", "howMany": 2, "lat": 41.6860213, "lng": -88.3778912, "obsValid": true, "obsReviewed": false, "locationPrivate": false, "subId": "S290026318"}, {"speciesCode": "sonspa", "comName": "Song Sparrow", "sciName": "Melospiza melodia", "locId": "L7059914", "locName": "Mundsinger Woods", "obsDt": "2025-12-24 10:40", "howMany": 1, "lat": 41.6860213, "lng": -88.3778912, "obsValid": true, "obsReviewed": false, "locationPrivate": false, "subId": "S290026318"}, {"speciesCode": "belkin1", "comName": "Belted Kingfisher", "sciName": "Megaceryle alcyon", "locId": "L2529208", "locName": "Violet Patch Park, Oswego", "obsDt": "2025-12-24 09:29", "howMany": 2, "lat": 41.7014755, "lng": -88.3495023, "obsValid": true, "obsReviewed": false, "locationPrivate": false, "subId": "S290329709"}, {"speciesCode": "norfli", "comName": "Northern Flicker", "sciName": "Colaptes auratus", "locId": "L2529208", "locName": "Violet Patch Park, Oswego", "obsDt": "2025-12-24 09:29", "howMany": 1, "lat": 41.7014755, "lng": -88.3495023, "obsValid": true, "obsReviewed": false, "locationPrivate": false, "subId": "S290329709"}, {"speciesCode": "blujay", "comName": "Blue Jay", "sciName": "Cyanocitta cristata", "locId": "L2529208", "locName": "Violet Patch Park, Oswego", "obsDt": "2025-12-24 09:29", "howMany": 2, "lat": 41.7014755, "lng": -88.3495023, "obsValid": true, "obsReviewed": false, "locationPrivate": false, "subId": "S290329709"}, {"speciesCode": "whtspa", "comName": "White-throated Sparrow", "sciName": "Zonotrichia albicollis", "locId": "L2529208", "locName": "Violet Patch Park, Oswego", "obsDt": "2025-12-24 09:29", "howMany": 3, "lat": 41.7014755, "lng": -88.3495023, "obsValid": true, "obsReviewed": false, "locationPrivate": false, "subId": "S290329709"}, {"speciesCode": "eucdov", "comName": "Eurasian Collared-Dove", "sciName": "Streptopelia decaocto", "locId": "L10754350", "locName": "Lisbon Center/Townhouse Newark, IL", "obsDt": "2025-12-24 08:04", "howMany": 1, "lat": 41.5212003, "lng": -88.5647195, "obsValid": true, "obsReviewed": false, "locationPrivate": true, "subId": "S289990504", "exoticCategory": "N"}, {"speciesCode": "bnhcow", "comName": "Brown-headed Cowbird", "sciName": "Molothrus ater", "locId": "L10754350", "locName": "Lisbon Center/Townhouse Newark, IL", "obsDt": "2025-12-24 08:04", "howMany": 1, "lat": 41.5212003, "lng": -88.5647195, "obsValid": true, "obsReviewed": false, "locationPrivate": true, "subId": "S289990504"}]