[{"speciesCode": "dowwoo", "comName": "Downy Woodpecker", "sciName": "Dryobates pubescens", "locId": "L26715141", "locName": "Oak Manor Drive, Marengo", "obsDt": "2025-12-28 15:10", "howMany": 1, "lat": 42.2435821, "lng": -88.6105178, "obsValid": true, "obsReviewed": false, "locationPrivate": true, "subId": "S290887086"}, {"speciesCode": "amecro", "comName": "American Crow", "sciName": "Corvus brachyrhynchos", "locId": "L26715141", "locName": "Oak Manor Drive, Marengo", "obsDt": "2025-12-28 15:10", "howMany": 1, "lat": 42.2435821, "lng": -88.6105178, "obsValid": true, "obsReviewed": false, "locationPrivate": true, "subId": "S290887086"}, {"speciesCode": "houspa", "comName": "House Sparrow", "sciName": "Passer domesticus", "locId": "L26715141", "locName": "Oak Manor Drive, Marengo", "obsDt": "2025-12-28 15:10", "howMany": 6, "lat": 42.2435821, "lng": -88.6105178, "obsValid": true, "obsReviewed": false, "locationPrivate": true, "subId": "S290887086", "exoticCategory": "N"}, {"speciesCode": "daejun", "comName": "Dark-eyed Junco", "sciName": "Junco hyemalis", "locId": "L26715141", "locName": "Oak Manor Drive, Marengo", "obsDt": "2025-12-28 15:10", "howMany": 1, "lat": 42.2435821, "lng": -88.6105178, "obsValid": true, "obsReviewed": false, "locationPrivate": true, "subId": "S290887086"}, {"speciesCode": "rebwoo", "comName": "Red-bellied Woodpecker", "sciName": "Melanerpes carolinus", "locId": "L8105335", "locName": "11701 Banford Road, Woodstock, Illinois", "obsDt": "2025-12-28 14:35", "howMany": 1, "lat": 42.334623, "lng": -88.4269916, "obsValid": true, "obsReviewed": false, "locationPrivate": true, "subId": "S290906586"}, {"speciesCode": "haiwoo", "comName": "Hairy Woodpecker", "sciName": "Leuconotopicus villosus", "locId": "L8105335", "locName": "11701 Banford Road, Woodstock, Illinois", "obsDt": "2025-12-28 14:35", "howMany": 1, "lat": 42.334623, "lng": -88.4269916, "obsValid": true, "obsReviewed": false, "locationPrivate": true, "subId": "S290906586"}, {"speciesCode": "bkcchi", "comName": "Black-capped Chickadee", "sciName": "Poecile atricapillus", "locId": "L8105335", "locName": "11701 Banford Road, Woodstock, Illinois", "obsDt": "2025-12-28 14:35", "howMany": 2, "lat": 42.334623, "lng": -88.4269916, "obsValid": true, "obsReviewed": false, "locationPrivate": true, "subId": "S290906586"}, {"speciesCode": "whbnut", "comName": "White-breasted Nuthatch", "sciName": "Sitta carolinensis", "locId": "L8105335", "locName": "11701 Banford Road, Woodstock, Illinois", "obsDt": "2025-12-28 14:35", "howMany": 1, "lat": 42.334623, "lng": -88.4269916, "obsValid": true, "obsReviewed": false, "locationPrivate": true, "subId": "S290906586"}, {"speciesCode": "rebnut", "comName": "Red-breasted Nuthatch", "sciName": "Sitta canadensis", "locId": "L8105335", "locName": "11701 Banford Road, Woodstock, Illinois", "obsDt": "2025-12-28 14:35", "howMany": 1, "lat": 42.334623, "lng": -88.4269916, "obsValid": true, "obsReviewed": false, "locationPrivate": true, "subId": "S290906586"}, {"speciesCode": "houfin", "comName": "House Finch", "sciName": "Haemorhous mexicanus", "locId": "L8105335", "locName": "11701 Banford Road, Woodstock, Illinois", "obsDt": "2025-12-28 14:35", "howMany": 6, "lat": 42.334623, "lng": -88.4269916, "obsValid": true, "obsReviewed": false, "locationPrivate": true, "subId": "S290906586", "exoticCategory": "N"}, {"speciesCode": "amegfi", "comName": "American Goldfinch", "sciName": "Spinus tristis", "locId": "L8105335", "locName": "11701 Banford Road, Woodstock, Illinois", "obsDt": "2025-12-28 14:35", "howMany": 2, "lat": 42.334623, "lng": -88.4269916, "obsValid": true, "obsReviewed": false, "locationPrivate": true, "subId": "S290906586"}, {"speciesCode": "norcar", "comName": "Northern Cardinal", "sciName": "Cardinalis cardinalis", "locId": "L8105335", "locName": "11701 Banford Road, Woodstock, Illinois", "obsDt": "2025-12-28 14:35", "howMany": 4, "lat": 42.334623, "lng": -88.4269916, "obsValid": true, "obsReviewed": false, "locationPrivate": true, "subId": "S290906586"}, {"speciesCode": "amekes", "comName": "American Kestrel", "sciName": "Falco sparverius", "locId": "L56370225", "locName": "5981 Illinois 47, Woodstock, Illinois, US (42.256, -88.433)", "obsDt": "2025-12-28 13:18", "howMany": 1, "lat": 42.2556916, "lng": -88.4327897, "obsValid": true, "obsReviewed": false, "locationPrivate": true, "subId": "S290842752"}, {"speciesCode": "moudov", "comName": "Mourning Dove", "sciName": "Zenaida macroura", "locId": "L56480589", "locName": "801 North Avenue, Crystal Lake, Illinois, US (42.206, -88.422)", "obsDt": "2025-12-28 13:13", "howMany": 100, "lat": 42.2056795, "lng": -88.422467, "obsValid": true, "obsReviewed": false, "locationPrivate": true, "subId": "S290841424"}, {"speciesCode": "cangoo", "comName": "Canada Goose", "sciName": "Branta canadensis", "locId": "L56479133", "locName": "7701\u20138261 IL-47, Huntley US-IL 42.21864, -88.42249", "obsDt": "2025-12-28 12:49", "howMany": 10, "lat": 42.218641, "lng": -88.422495, "obsValid": true, "obsReviewed": false, "locationPrivate": true, "subId": "S290834963"}, {"speciesCode": "eursta", "comName": "European Starling", "sciName": "Sturnus vulgaris", "locId": "L4409819", "locName": "After IL23, I90", "obsDt": "2025-12-28 12:15", "howMany": 25, "lat": 42.1750449, "lng": -88.6137056, "obsValid": true, "obsReviewed": false, "locationPrivate": true, "subId": "S290909691", "exoticCategory": "N"}, {"speciesCode": "coohaw", "comName": "Cooper's Hawk", "sciName": "Astur cooperii", "locId": "L8063927", "locName": "My Yard", "obsDt": "2025-12-28 11:30", "howMany": 1, "lat": 42.241294, "lng": -88.3270124, "obsValid": true, "obsReviewed": false, "locationPrivate": true, "subId": "S290973817"}, {"speciesCode": "blujay", "comName": "Blue Jay", "sciName": "Cyanocitta cristata", "locId": "L22473080", "locName": "Cabindol Yard", "obsDt": "2025-12-28 10:15", "howMany": 1, "lat": 42.1688989, "lng": -88.3402372, "obsValid": true, "obsReviewed": false, "locationPrivate": true, "subId": "S290917493"}, {"speciesCode": "mallar3", "comName": "Mallard", "sciName": "Anas platyrhynchos", "locId": "L160856", "locName": "Lippold Park, Crystal Lake", "obsDt": "2025-12-28 10:08", "howMany": 18, "lat": 42.24293, "lng": -88.3637, "obsValid": true, "obsReviewed": false, "locationPrivate": false, "subId": "S290804116"}, {"speciesCode": "amtspa", "comName": "American Tree Sparrow", "sciName": "Spizelloides arborea", "locId": "L160856", "locName": "Lippold Park, Crystal Lake", "obsDt": "2025-12-28 10:08", "howMany": 15, "lat": 42.24293, "lng": -88.3637, "obsValid": true, "obsReviewed": false, "locationPrivate": false, "subId": "S290804116"}]