[{"speciesCode": "cangoo", "comName": "Canada Goose", "sciName": "Branta canadensis", "locId": "L152667", "locName": "Les Arends Forest Preserve", "obsDt": "2025-12-08 16:05", "howMany": 110, "lat": 41.8237, "lng": -88.3228, "obsValid": true, "obsReviewed": false, "locationPrivate": false, "subId": "S287858066"}, {"speciesCode": "mallar3", "comName": "Mallard", "sciName": "Anas platyrhynchos", "locId": "L152667", "locName": "Les Arends Forest Preserve", "obsDt": "2025-12-08 16:05", "howMany": 21, "lat": 41.8237, "lng": -88.3228, "obsValid": true, "obsReviewed": false, "locationPrivate": false, "subId": "S287858066"}, {"speciesCode": "sancra", "comName": "Sandhill Crane", "sciName": "Antigone canadensis", "locId": "L152667", "locName": "Les Arends Forest Preserve", "obsDt": "2025-12-08 16:05", "howMany": 2, "lat": 41.8237, "lng": -88.3228, "obsValid": true, "obsReviewed": false, "locationPrivate": false, "subId": "S287858066"}, {"speciesCode": "grbher3", "comName": "Great Blue Heron", "sciName": "Ardea herodias", "locId": "L152667", "locName": "Les Arends Forest Preserve", "obsDt": "2025-12-08 16:05", "howMany": 1, "lat": 41.8237, "lng": -88.3228, "obsValid": true, "obsReviewed": false, "locationPrivate": false, "subId": "S287858066"}, {"speciesCode": "belkin1", "comName": "Belted Kingfisher", "sciName": "Megaceryle alcyon", "locId": "L152667", "locName": "Les Arends Forest Preserve", "obsDt": "2025-12-08 16:05", "howMany": 1, "lat": 41.8237, "lng": -88.3228, "obsValid": true, "obsReviewed": false, "locationPrivate": false, "subId": "S287858066"}, {"speciesCode": "rebwoo", "comName": "Red-bellied Woodpecker", "sciName": "Melanerpes carolinus", "locId": "L152667", "locName": "Les Arends Forest Preserve", "obsDt": "2025-12-08 16:05", "howMany": 2, "lat": 41.8237, "lng": -88.3228, "obsValid": true, "obsReviewed": false, "locationPrivate": false, "subId": "S287858066"}, {"speciesCode": "dowwoo", "comName": "Downy Woodpecker", "sciName": "Dryobates pubescens", "locId": "L152667", "locName": "Les Arends Forest Preserve", "obsDt": "2025-12-08 16:05", "howMany": 1, "lat": 41.8237, "lng": -88.3228, "obsValid": true, "obsReviewed": false, "locationPrivate": false, "subId": "S287858066"}, {"speciesCode": "haiwoo", "comName": "Hairy Woodpecker", "sciName": "Leuconotopicus villosus", "locId": "L152667", "locName": "Les Arends Forest Preserve", "obsDt": "2025-12-08 16:05", "howMany": 2, "lat": 41.8237, "lng": -88.3228, "obsValid": true, "obsReviewed": false, "locationPrivate": false, "subId": "S287858066"}, {"speciesCode": "gockin", "comName": "Golden-crowned Kinglet", "sciName": "Regulus satrapa", "locId": "L152667", "locName": "Les Arends Forest Preserve", "obsDt": "2025-12-08 16:05", "howMany": 5, "lat": 41.8237, "lng": -88.3228, "obsValid": true, "obsReviewed": false, "locationPrivate": false, "subId": "S287858066"}, {"speciesCode": "brncre", "comName": "Brown Creeper", "sciName": "Certhia americana", "locId": "L152667", "locName": "Les Arends Forest Preserve", "obsDt": "2025-12-08 16:05", "howMany": 2, "lat": 41.8237, "lng": -88.3228, "obsValid": true, "obsReviewed": false, "locationPrivate": false, "subId": "S287858066"}, {"speciesCode": "amerob", "comName": "American Robin", "sciName": "Turdus migratorius", "locId": "L152667", "locName": "Les Arends Forest Preserve", "obsDt": "2025-12-08 16:05", "howMany": 2, "lat": 41.8237, "lng": -88.3228, "obsValid": true, "obsReviewed": false, "locationPrivate": false, "subId": "S287858066"}, {"speciesCode": "whtspa", "comName": "White-throated Sparrow", "sciName": "Zonotrichia albicollis", "locId": "L152667", "locName": "Les Arends Forest Preserve", "obsDt": "2025-12-08 16:05", "howMany": 1, "lat": 41.8237, "lng": -88.3228, "obsValid": true, "obsReviewed": false, "locationPrivate": false, "subId": "S287858066"}, {"speciesCode": "moudov", "comName": "Mourning Dove", "sciName": "Zenaida macroura", "locId": "L301414", "locName": "Red Oak Nature Center", "obsDt": "2025-12-08 15:43", "howMany": 9, "lat": 41.82235, "lng": -88.3202612, "obsValid": true, "obsReviewed": false, "locationPrivate": false, "subId": "S287853966"}, {"speciesCode": "whbnut", "comName": "White-breasted Nuthatch", "sciName": "Sitta carolinensis", "locId": "L301414", "locName": "Red Oak Nature Center", "obsDt": "2025-12-08 15:43", "howMany": 1, "lat": 41.82235, "lng": -88.3202612, "obsValid": true, "obsReviewed": false, "locationPrivate": false, "subId": "S287853966"}, {"speciesCode": "daejun", "comName": "Dark-eyed Junco", "sciName": "Junco hyemalis", "locId": "L301414", "locName": "Red Oak Nature Center", "obsDt": "2025-12-08 15:43", "howMany": 10, "lat": 41.82235, "lng": -88.3202612, "obsValid": true, "obsReviewed": false, "locationPrivate": false, "subId": "S287853966"}, {"speciesCode": "norcar", "comName": "Northern Cardinal", "sciName": "Cardinalis cardinalis", "locId": "L301414", "locName": "Red Oak Nature Center", "obsDt": "2025-12-08 15:43", "howMany": 3, "lat": 41.82235, "lng": -88.3202612, "obsValid": true, "obsReviewed": false, "locationPrivate": false, "subId": "S287853966"}, {"speciesCode": "bkcchi", "comName": "Black-capped Chickadee", "sciName": "Poecile atricapillus", "locId": "L323527", "locName": "Aurora West Forest Preserve", "obsDt": "2025-12-08 15:27", "howMany": 2, "lat": 41.7827, "lng": -88.3949, "obsValid": true, "obsReviewed": false, "locationPrivate": false, "subId": "S287982880"}, {"speciesCode": "amtspa", "comName": "American Tree Sparrow", "sciName": "Spizelloides arborea", "locId": "L323527", "locName": "Aurora West Forest Preserve", "obsDt": "2025-12-08 15:27", "howMany": 3, "lat": 41.7827, "lng": -88.3949, "obsValid": true, "obsReviewed": false, "locationPrivate": false, "subId": "S287982880"}, {"speciesCode": "norfli", "comName": "Northern Flicker", "sciName": "Colaptes auratus", "locId": "L1171097", "locName": "Campton Forest Preserve", "obsDt": "2025-12-08 15:19", "howMany": 1, "lat": 41.9303792, "lng": -88.4138918, "obsValid": true, "obsReviewed": false, "locationPrivate": false, "subId": "S287983346"}, {"speciesCode": "ribgul", "comName": "Ring-billed Gull", "sciName": "Larus delawarensis", "locId": "L1071543", "locName": "Glenwood Park Forest Preserve", "obsDt": "2025-12-08 15:18", "howMany": 5, "lat": 41.8331827, "lng": -88.3077621, "obsValid": true, "obsReviewed": false, "locationPrivate": false, "subId": "S287851882"}, {"speciesCode": "amhgul1", "comName": "American Herring Gull", "sciName": "Larus smithsonianus", "locId": "L1071543", "locName": "Glenwood Park Forest Preserve", "obsDt": "2025-12-08 15:18", "howMany": 1, "lat": 41.8331827, "lng": -88.3077621, "obsValid": true, "obsReviewed": false, "locationPrivate": false, "subId": "S287851882"}, {"speciesCode": "baleag", "comName": "Bald Eagle", "sciName": "Haliaeetus leucocephalus", "locId": "L1071543", "locName": "Glenwood Park Forest Preserve", "obsDt": "2025-12-08 15:18", "howMany": 3, "lat": 41.8331827, "lng": -88.3077621, "obsValid": true, "obsReviewed": false, "locationPrivate": false, "subId": "S287851882"}, {"speciesCode": "eursta", "comName": "European Starling", "sciName": "Sturnus vulgaris", "locId": "L1071543", "locName": "Glenwood Park Forest Preserve", "obsDt": "2025-12-08 15:18", "howMany": 1, "lat": 41.8331827, "lng": -88.3077621, "obsValid": true, "obsReviewed": false, "locationPrivate": false, "subId": "S287851882", "exoticCategory": "N"}, {"speciesCode": "sonspa", "comName": "Song Sparrow", "sciName": "Melospiza melodia", "locId": "L1071543", "locName": "Glenwood Park Forest Preserve", "obsDt": "2025-12-08 15:18", "howMany": 1, "lat": 41.8331827, "lng": -88.3077621, "obsValid": true, "obsReviewed": false, "locationPrivate": false, "subId": "S287851882"}, {"speciesCode": "rethaw", "comName": "Red-tailed Hawk", "sciName": "Buteo jamaicensis", "locId": "L46236679", "locName": "Teckawitha Woods, St Charles, IL", "obsDt": "2025-12-08 14:48", "howMany": 1, "lat": 41.9686775, "lng": -88.2982941, "obsValid": true, "obsReviewed": false, "locationPrivate": true, "subId": "S287851411"}, {"speciesCode": "yebsap", "comName": "Yellow-bellied Sapsucker", "sciName": "Sphyrapicus varius", "locId": "L46236679", "locName": "Teckawitha Woods, St Charles, IL", "obsDt": "2025-12-08 14:48", "howMany": 1, "lat": 41.9686775, "lng": -88.2982941, "obsValid": true, "obsReviewed": false, "locationPrivate": true, "subId": "S287851411"}, {"speciesCode": "blujay", "comName": "Blue Jay", "sciName": "Cyanocitta cristata", "locId": "L1168090", "locName": "Oakhurst Forest Preserve", "obsDt": "2025-12-08 13:10", "howMany": 2, "lat": 41.7515285, "lng": -88.2706833, "obsValid": true, "obsReviewed": false, "locationPrivate": false, "subId": "S287844529"}, {"speciesCode": "houspa", "comName": "House Sparrow", "sciName": "Passer domesticus", "locId": "L1168090", "locName": "Oakhurst Forest Preserve", "obsDt": "2025-12-08 13:10", "howMany": 8, "lat": 41.7515285, "lng": -88.2706833, "obsValid": true, "obsReviewed": false, "locationPrivate": false, "subId": "S287844529", "exoticCategory": "N"}, {"speciesCode": "houfin", "comName": "House Finch", "sciName": "Haemorhous mexicanus", "locId": "L1168090", "locName": "Oakhurst Forest Preserve", "obsDt": "2025-12-08 13:10", "howMany": 4, "lat": 41.7515285, "lng": -88.2706833, "obsValid": true, "obsReviewed": false, "locationPrivate": false, "subId": "S287844529", "exoticCategory": "N"}, {"speciesCode": "comgol", "comName": "Common Goldeneye", "sciName": "Bucephala clangula", "locId": "L17077703", "locName": "Carpentersville Dam", "obsDt": "2025-12-08 13:00", "howMany": 2, "lat": 42.1148346, "lng": -88.2909066, "obsValid": true, "obsReviewed": false, "locationPrivate": true, "subId": "S287858112"}, {"speciesCode": "foxspa", "comName": "Fox Sparrow", "sciName": "Passerella iliaca", "locId": "L38173490", "locName": "MA Center Chicago (restricted access)", "obsDt": "2025-12-08 11:23", "howMany": 1, "lat": 41.876628, "lng": -88.424004, "obsValid": true, "obsReviewed": false, "locationPrivate": false, "subId": "S287871642"}, {"speciesCode": "coohaw", "comName": "Cooper's Hawk", "sciName": "Astur cooperii", "locId": "L38173490", "locName": "MA Center Chicago (restricted access)", "obsDt": "2025-12-08 08:00", "howMany": 1, "lat": 41.876628, "lng": -88.424004, "obsValid": true, "obsReviewed": false, "locationPrivate": false, "subId": "S287871709"}, {"speciesCode": "eutspa", "comName": "Eurasian Tree Sparrow", "sciName": "Passer montanus", "locId": "L38173490", "locName": "MA Center Chicago (restricted access)", "obsDt": "2025-12-08 08:00", "howMany": 1, "lat": 41.876628, "lng": -88.424004, "obsValid": true, "obsReviewed": true, "locationPrivate": false, "subId": "S287871709", "exoticCategory": "N"}, {"speciesCode": "whcspa", "comName": "White-crowned Sparrow", "sciName": "Zonotrichia leucophrys", "locId": "L38173490", "locName": "MA Center Chicago (restricted access)", "obsDt": "2025-12-08 08:00", "howMany": 7, "lat": 41.876628, "lng": -88.424004, "obsValid": true, "obsReviewed": false, "locationPrivate": false, "subId": "S287871709"}, {"speciesCode": "rewbla", "comName": "Red-winged Blackbird", "sciName": "Agelaius phoeniceus", "locId": "L38173490", "locName": "MA Center Chicago (restricted access)", "obsDt": "2025-12-08 08:00", "howMany": 2, "lat": 41.876628, "lng": -88.424004, "obsValid": true, "obsReviewed": false, "locationPrivate": false, "subId": "S287871709"}, {"speciesCode": "rusbla", "comName": "Rusty Blackbird", "sciName": "Euphagus carolinus", "locId": "L38173490", "locName": "MA Center Chicago (restricted access)", "obsDt": "2025-12-08 08:00", "howMany": 1, "lat": 41.876628, "lng": -88.424004, "obsValid": true, "obsReviewed": false, "locationPrivate": false, "subId": "S287871709"}, {"speciesCode": "comgra", "comName": "Common Grackle", "sciName": "Quiscalus quiscula", "locId": "L38173490", "locName": "MA Center Chicago (restricted access)", "obsDt": "2025-12-08 08:00", "howMany": 10, "lat": 41.876628, "lng": -88.424004, "obsValid": true, "obsReviewed": false, "locationPrivate": false, "subId": "S287871709"}, {"speciesCode": "merlin", "comName": "Merlin", "sciName": "Falco columbarius", "locId": "L152613", "locName": "Burnidge Forest Preserve", "obsDt": "2025-12-08 07:42", "howMany": 1, "lat": 42.07, "lng": -88.3647, "obsValid": true, "obsReviewed": false, "locationPrivate": false, "subId": "S287801471"}, {"speciesCode": "amecro", "comName": "American Crow", "sciName": "Corvus brachyrhynchos", "locId": "L152613", "locName": "Burnidge Forest Preserve", "obsDt": "2025-12-08 07:42", "howMany": 1, "lat": 42.07, "lng": -88.3647, "obsValid": true, "obsReviewed": false, "locationPrivate": false, "subId": "S287801471"}, {"speciesCode": "rebnut", "comName": "Red-breasted Nuthatch", "sciName": "Sitta canadensis", "locId": "L2622025", "locName": "backyard", "obsDt": "2025-12-08 07:20", "howMany": 1, "lat": 41.892374, "lng": -88.287026, "obsValid": true, "obsReviewed": false, "locationPrivate": true, "subId": "S287815083"}, {"speciesCode": "amegfi", "comName": "American Goldfinch", "sciName": "Spinus tristis", "locId": "L2622025", "locName": "backyard", "obsDt": "2025-12-08 07:20", "howMany": 4, "lat": 41.892374, "lng": -88.287026, "obsValid": true, "obsReviewed": false, "locationPrivate": true, "subId": "S287815083"}]