[{"speciesCode": "cangoo", "comName": "Canada Goose", "sciName": "Branta canadensis", "locId": "L28333339", "locName": "Dove field 1 parking", "obsDt": "2025-12-21 15:38", "howMany": 233, "lat": 39.5964433, "lng": -89.5305299, "obsValid": true, "obsReviewed": false, "locationPrivate": true, "subId": "S289721651"}, {"speciesCode": "rebwoo", "comName": "Red-bellied Woodpecker", "sciName": "Melanerpes carolinus", "locId": "L28333339", "locName": "Dove field 1 parking", "obsDt": "2025-12-21 15:38", "howMany": 1, "lat": 39.5964433, "lng": -89.5305299, "obsValid": true, "obsReviewed": false, "locationPrivate": true, "subId": "S289721651"}, {"speciesCode": "dowwoo", "comName": "Downy Woodpecker", "sciName": "Dryobates pubescens", "locId": "L28333339", "locName": "Dove field 1 parking", "obsDt": "2025-12-21 15:38", "howMany": 3, "lat": 39.5964433, "lng": -89.5305299, "obsValid": true, "obsReviewed": false, "locationPrivate": true, "subId": "S289721651"}, {"speciesCode": "haiwoo", "comName": "Hairy Woodpecker", "sciName": "Leuconotopicus villosus", "locId": "L28333339", "locName": "Dove field 1 parking", "obsDt": "2025-12-21 15:38", "howMany": 2, "lat": 39.5964433, "lng": -89.5305299, "obsValid": true, "obsReviewed": false, "locationPrivate": true, "subId": "S289721651"}, {"speciesCode": "norfli", "comName": "Northern Flicker", "sciName": "Colaptes auratus", "locId": "L28333339", "locName": "Dove field 1 parking", "obsDt": "2025-12-21 15:38", "howMany": 2, "lat": 39.5964433, "lng": -89.5305299, "obsValid": true, "obsReviewed": false, "locationPrivate": true, "subId": "S289721651"}, {"speciesCode": "bkcchi", "comName": "Black-capped Chickadee", "sciName": "Poecile atricapillus", "locId": "L28333339", "locName": "Dove field 1 parking", "obsDt": "2025-12-21 15:38", "howMany": 2, "lat": 39.5964433, "lng": -89.5305299, "obsValid": true, "obsReviewed": false, "locationPrivate": true, "subId": "S289721651"}, {"speciesCode": "tuftit", "comName": "Tufted Titmouse", "sciName": "Baeolophus bicolor", "locId": "L28333339", "locName": "Dove field 1 parking", "obsDt": "2025-12-21 15:38", "howMany": 1, "lat": 39.5964433, "lng": -89.5305299, "obsValid": true, "obsReviewed": false, "locationPrivate": true, "subId": "S289721651"}, {"speciesCode": "eursta", "comName": "European Starling", "sciName": "Sturnus vulgaris", "locId": "L28333339", "locName": "Dove field 1 parking", "obsDt": "2025-12-21 15:38", "howMany": 2, "lat": 39.5964433, "lng": -89.5305299, "obsValid": true, "obsReviewed": false, "locationPrivate": true, "subId": "S289721651", "exoticCategory": "N"}, {"speciesCode": "snogoo", "comName": "Snow Goose", "sciName": "Anser caerulescens", "locId": "L3480129", "locName": "Sangchris Lake SP--Strawkas Point", "obsDt": "2025-12-21 14:51", "howMany": 3, "lat": 39.598199, "lng": -89.47451, "obsValid": true, "obsReviewed": false, "locationPrivate": false, "subId": "S289719092"}, {"speciesCode": "gwfgoo", "comName": "Greater White-fronted Goose", "sciName": "Anser albifrons", "locId": "L3480129", "locName": "Sangchris Lake SP--Strawkas Point", "obsDt": "2025-12-21 14:51", "howMany": 450, "lat": 39.598199, "lng": -89.47451, "obsValid": true, "obsReviewed": false, "locationPrivate": false, "subId": "S289719092"}, {"speciesCode": "grbher3", "comName": "Great Blue Heron", "sciName": "Ardea herodias", "locId": "L3480129", "locName": "Sangchris Lake SP--Strawkas Point", "obsDt": "2025-12-21 14:51", "howMany": 1, "lat": 39.598199, "lng": -89.47451, "obsValid": true, "obsReviewed": false, "locationPrivate": false, "subId": "S289719092"}, {"speciesCode": "sonspa", "comName": "Song Sparrow", "sciName": "Melospiza melodia", "locId": "L3480129", "locName": "Sangchris Lake SP--Strawkas Point", "obsDt": "2025-12-21 14:51", "howMany": 2, "lat": 39.598199, "lng": -89.47451, "obsValid": true, "obsReviewed": false, "locationPrivate": false, "subId": "S289719092"}, {"speciesCode": "rocpig", "comName": "Rock Pigeon", "sciName": "Columba livia", "locId": "L10319042", "locName": "Zenobia", "obsDt": "2025-12-21 13:34", "howMany": 14, "lat": 39.5385045, "lng": -89.5333318, "obsValid": true, "obsReviewed": false, "locationPrivate": true, "subId": "S289583831", "exoticCategory": "N"}, {"speciesCode": "moudov", "comName": "Mourning Dove", "sciName": "Zenaida macroura", "locId": "L10319042", "locName": "Zenobia", "obsDt": "2025-12-21 13:34", "howMany": 2, "lat": 39.5385045, "lng": -89.5333318, "obsValid": true, "obsReviewed": false, "locationPrivate": true, "subId": "S289583831"}, {"speciesCode": "rethaw", "comName": "Red-tailed Hawk", "sciName": "Buteo jamaicensis", "locId": "L10319042", "locName": "Zenobia", "obsDt": "2025-12-21 13:34", "howMany": 2, "lat": 39.5385045, "lng": -89.5333318, "obsValid": true, "obsReviewed": false, "locationPrivate": true, "subId": "S289583831"}, {"speciesCode": "rolhaw", "comName": "Rough-legged Hawk", "sciName": "Buteo lagopus", "locId": "L10319042", "locName": "Zenobia", "obsDt": "2025-12-21 13:34", "howMany": 1, "lat": 39.5385045, "lng": -89.5333318, "obsValid": true, "obsReviewed": false, "locationPrivate": true, "subId": "S289583831"}, {"speciesCode": "amekes", "comName": "American Kestrel", "sciName": "Falco sparverius", "locId": "L10319042", "locName": "Zenobia", "obsDt": "2025-12-21 13:34", "howMany": 3, "lat": 39.5385045, "lng": -89.5333318, "obsValid": true, "obsReviewed": false, "locationPrivate": true, "subId": "S289583831"}, {"speciesCode": "amecro", "comName": "American Crow", "sciName": "Corvus brachyrhynchos", "locId": "L10319042", "locName": "Zenobia", "obsDt": "2025-12-21 13:34", "howMany": 5, "lat": 39.5385045, "lng": -89.5333318, "obsValid": true, "obsReviewed": false, "locationPrivate": true, "subId": "S289583831"}, {"speciesCode": "amtspa", "comName": "American Tree Sparrow", "sciName": "Spizelloides arborea", "locId": "L10319042", "locName": "Zenobia", "obsDt": "2025-12-21 13:34", "howMany": 1, "lat": 39.5385045, "lng": -89.5333318, "obsValid": true, "obsReviewed": false, "locationPrivate": true, "subId": "S289583831"}, {"speciesCode": "whtspa", "comName": "White-throated Sparrow", "sciName": "Zonotrichia albicollis", "locId": "L10319042", "locName": "Zenobia", "obsDt": "2025-12-21 13:34", "howMany": 1, "lat": 39.5385045, "lng": -89.5333318, "obsValid": true, "obsReviewed": false, "locationPrivate": true, "subId": "S289583831"}, {"speciesCode": "ribgul", "comName": "Ring-billed Gull", "sciName": "Larus delawarensis", "locId": "L3583343", "locName": "Sangchris Lake SP--West Boat Dock", "obsDt": "2025-12-21 11:25", "howMany": 200, "lat": 39.6094574, "lng": -89.4963026, "obsValid": true, "obsReviewed": false, "locationPrivate": false, "subId": "S289566058"}, {"speciesCode": "belkin1", "comName": "Belted Kingfisher", "sciName": "Megaceryle alcyon", "locId": "L3583343", "locName": "Sangchris Lake SP--West Boat Dock", "obsDt": "2025-12-21 11:25", "howMany": 1, "lat": 39.6094574, "lng": -89.4963026, "obsValid": true, "obsReviewed": false, "locationPrivate": false, "subId": "S289566058"}, {"speciesCode": "daejun", "comName": "Dark-eyed Junco", "sciName": "Junco hyemalis", "locId": "L3583343", "locName": "Sangchris Lake SP--West Boat Dock", "obsDt": "2025-12-21 11:25", "howMany": 2, "lat": 39.6094574, "lng": -89.4963026, "obsValid": true, "obsReviewed": false, "locationPrivate": false, "subId": "S289566058"}, {"speciesCode": "norcar", "comName": "Northern Cardinal", "sciName": "Cardinalis cardinalis", "locId": "L3583343", "locName": "Sangchris Lake SP--West Boat Dock", "obsDt": "2025-12-21 11:25", "howMany": 2, "lat": 39.6094574, "lng": -89.4963026, "obsValid": true, "obsReviewed": false, "locationPrivate": false, "subId": "S289566058"}, {"speciesCode": "turvul", "comName": "Turkey Vulture", "sciName": "Cathartes aura", "locId": "L13245567", "locName": "Sangchris Lake SP--Maple Flats", "obsDt": "2025-12-21 11:23", "howMany": 1, "lat": 39.6252794, "lng": -89.4516142, "obsValid": true, "obsReviewed": false, "locationPrivate": false, "subId": "S289895658"}, {"speciesCode": "reshaw", "comName": "Red-shouldered Hawk", "sciName": "Buteo lineatus", "locId": "L13245567", "locName": "Sangchris Lake SP--Maple Flats", "obsDt": "2025-12-21 11:23", "howMany": 1, "lat": 39.6252794, "lng": -89.4516142, "obsValid": true, "obsReviewed": false, "locationPrivate": false, "subId": "S289895658"}, {"speciesCode": "blujay", "comName": "Blue Jay", "sciName": "Cyanocitta cristata", "locId": "L13245567", "locName": "Sangchris Lake SP--Maple Flats", "obsDt": "2025-12-21 11:23", "howMany": 6, "lat": 39.6252794, "lng": -89.4516142, "obsValid": true, "obsReviewed": false, "locationPrivate": false, "subId": "S289895658"}, {"speciesCode": "amegfi", "comName": "American Goldfinch", "sciName": "Spinus tristis", "locId": "L13245567", "locName": "Sangchris Lake SP--Maple Flats", "obsDt": "2025-12-21 11:23", "howMany": 6, "lat": 39.6252794, "lng": -89.4516142, "obsValid": true, "obsReviewed": false, "locationPrivate": false, "subId": "S289895658"}, {"speciesCode": "mallar3", "comName": "Mallard", "sciName": "Anas platyrhynchos", "locId": "L13245567", "locName": "Sangchris Lake SP--Maple Flats", "obsDt": "2025-12-21 10:47", "howMany": 6, "lat": 39.6252794, "lng": -89.4516142, "obsValid": true, "obsReviewed": false, "locationPrivate": false, "subId": "S289585352"}, {"speciesCode": "winwre3", "comName": "Winter Wren", "sciName": "Troglodytes hiemalis", "locId": "L13245567", "locName": "Sangchris Lake SP--Maple Flats", "obsDt": "2025-12-21 10:47", "howMany": 1, "lat": 39.6252794, "lng": -89.4516142, "obsValid": true, "obsReviewed": false, "locationPrivate": false, "subId": "S289585352"}, {"speciesCode": "amerob", "comName": "American Robin", "sciName": "Turdus migratorius", "locId": "L13245567", "locName": "Sangchris Lake SP--Maple Flats", "obsDt": "2025-12-21 10:47", "howMany": 4, "lat": 39.6252794, "lng": -89.4516142, "obsValid": true, "obsReviewed": false, "locationPrivate": false, "subId": "S289585352"}, {"speciesCode": "yebsap", "comName": "Yellow-bellied Sapsucker", "sciName": "Sphyrapicus varius", "locId": "L7488008", "locName": "Sangchris Lake SP--Access Area 3", "obsDt": "2025-12-21 09:42", "howMany": 1, "lat": 39.6484599, "lng": -89.468177, "obsValid": true, "obsReviewed": false, "locationPrivate": false, "subId": "S289548734"}, {"speciesCode": "whbnut", "comName": "White-breasted Nuthatch", "sciName": "Sitta carolinensis", "locId": "L7488008", "locName": "Sangchris Lake SP--Access Area 3", "obsDt": "2025-12-21 09:42", "howMany": 1, "lat": 39.6484599, "lng": -89.468177, "obsValid": true, "obsReviewed": false, "locationPrivate": false, "subId": "S289548734"}, {"speciesCode": "rehwoo", "comName": "Red-headed Woodpecker", "sciName": "Melanerpes erythrocephalus", "locId": "L7488008", "locName": "Sangchris Lake SP--Access Area 3", "obsDt": "2025-12-21 09:38", "howMany": 2, "lat": 39.6484599, "lng": -89.468177, "obsValid": true, "obsReviewed": false, "locationPrivate": false, "subId": "S289678679"}, {"speciesCode": "ruckin", "comName": "Ruby-crowned Kinglet", "sciName": "Corthylio calendula", "locId": "L3484620", "locName": "Sangchris Lake SP--Pheasant Run Access Area", "obsDt": "2025-12-21 09:11", "howMany": 2, "lat": 39.633311, "lng": -89.452569, "obsValid": true, "obsReviewed": false, "locationPrivate": false, "subId": "S289584300"}, {"speciesCode": "easblu", "comName": "Eastern Bluebird", "sciName": "Sialia sialis", "locId": "L3484620", "locName": "Sangchris Lake SP--Pheasant Run Access Area", "obsDt": "2025-12-21 09:11", "howMany": 1, "lat": 39.633311, "lng": -89.452569, "obsValid": true, "obsReviewed": false, "locationPrivate": false, "subId": "S289584300"}, {"speciesCode": "lessca", "comName": "Lesser Scaup", "sciName": "Aythya affinis", "locId": "L3480126", "locName": "Sangchris Lake SP--Hickory Point Campground", "obsDt": "2025-12-21 08:19", "howMany": 6, "lat": 39.6415204, "lng": -89.4597602, "obsValid": true, "obsReviewed": false, "locationPrivate": false, "subId": "S289584047"}, {"speciesCode": "comgol", "comName": "Common Goldeneye", "sciName": "Bucephala clangula", "locId": "L3480126", "locName": "Sangchris Lake SP--Hickory Point Campground", "obsDt": "2025-12-21 08:19", "howMany": 7, "lat": 39.6415204, "lng": -89.4597602, "obsValid": true, "obsReviewed": false, "locationPrivate": false, "subId": "S289584047"}, {"speciesCode": "brncre", "comName": "Brown Creeper", "sciName": "Certhia americana", "locId": "L3480126", "locName": "Sangchris Lake SP--Hickory Point Campground", "obsDt": "2025-12-21 08:19", "howMany": 1, "lat": 39.6415204, "lng": -89.4597602, "obsValid": true, "obsReviewed": false, "locationPrivate": false, "subId": "S289584047"}, {"speciesCode": "houspa", "comName": "House Sparrow", "sciName": "Passer domesticus", "locId": "L10779752", "locName": "Kitchell Park", "obsDt": "2025-12-21 07:00", "howMany": 2, "lat": 39.3776992, "lng": -89.0793575, "obsValid": true, "obsReviewed": false, "locationPrivate": false, "subId": "S289507799", "exoticCategory": "N"}, {"speciesCode": "houfin", "comName": "House Finch", "sciName": "Haemorhous mexicanus", "locId": "L10779752", "locName": "Kitchell Park", "obsDt": "2025-12-21 07:00", "howMany": 2, "lat": 39.3776992, "lng": -89.0793575, "obsValid": true, "obsReviewed": false, "locationPrivate": false, "subId": "S289507799", "exoticCategory": "N"}]