[{"speciesCode": "mallar3", "comName": "Mallard", "sciName": "Anas platyrhynchos", "locId": "L152717", "locName": "Songbird Slough Forest Preserve", "obsDt": "2025-12-27 15:45", "howMany": 1, "lat": 41.9578, "lng": -88.0105, "obsValid": true, "obsReviewed": false, "locationPrivate": false, "subId": "S290688937"}, {"speciesCode": "moudov", "comName": "Mourning Dove", "sciName": "Zenaida macroura", "locId": "L152717", "locName": "Songbird Slough Forest Preserve", "obsDt": "2025-12-27 15:45", "howMany": 1, "lat": 41.9578, "lng": -88.0105, "obsValid": true, "obsReviewed": false, "locationPrivate": false, "subId": "S290688937"}, {"speciesCode": "coohaw", "comName": "Cooper's Hawk", "sciName": "Astur cooperii", "locId": "L152717", "locName": "Songbird Slough Forest Preserve", "obsDt": "2025-12-27 15:45", "howMany": 1, "lat": 41.9578, "lng": -88.0105, "obsValid": true, "obsReviewed": false, "locationPrivate": false, "subId": "S290688937"}, {"speciesCode": "amekes", "comName": "American Kestrel", "sciName": "Falco sparverius", "locId": "L152717", "locName": "Songbird Slough Forest Preserve", "obsDt": "2025-12-27 15:45", "howMany": 1, "lat": 41.9578, "lng": -88.0105, "obsValid": true, "obsReviewed": false, "locationPrivate": false, "subId": "S290688937"}, {"speciesCode": "amerob", "comName": "American Robin", "sciName": "Turdus migratorius", "locId": "L152717", "locName": "Songbird Slough Forest Preserve", "obsDt": "2025-12-27 15:45", "howMany": 2, "lat": 41.9578, "lng": -88.0105, "obsValid": true, "obsReviewed": false, "locationPrivate": false, "subId": "S290688937"}, {"speciesCode": "rebwoo", "comName": "Red-bellied Woodpecker", "sciName": "Melanerpes carolinus", "locId": "L131061", "locName": "Fullersburg Woods Forest Preserve", "obsDt": "2025-12-27 15:21", "howMany": 3, "lat": 41.8260667, "lng": -87.9323167, "obsValid": true, "obsReviewed": false, "locationPrivate": false, "subId": "S290674487"}, {"speciesCode": "dowwoo", "comName": "Downy Woodpecker", "sciName": "Dryobates pubescens", "locId": "L131061", "locName": "Fullersburg Woods Forest Preserve", "obsDt": "2025-12-27 15:21", "howMany": 4, "lat": 41.8260667, "lng": -87.9323167, "obsValid": true, "obsReviewed": false, "locationPrivate": false, "subId": "S290674487"}, {"speciesCode": "haiwoo", "comName": "Hairy Woodpecker", "sciName": "Leuconotopicus villosus", "locId": "L131061", "locName": "Fullersburg Woods Forest Preserve", "obsDt": "2025-12-27 15:21", "howMany": 1, "lat": 41.8260667, "lng": -87.9323167, "obsValid": true, "obsReviewed": false, "locationPrivate": false, "subId": "S290674487"}, {"speciesCode": "bkcchi", "comName": "Black-capped Chickadee", "sciName": "Poecile atricapillus", "locId": "L131061", "locName": "Fullersburg Woods Forest Preserve", "obsDt": "2025-12-27 15:21", "lat": 41.8260667, "lng": -87.9323167, "obsValid": true, "obsReviewed": false, "locationPrivate": false, "subId": "S290674487"}, {"speciesCode": "whbnut", "comName": "White-breasted Nuthatch", "sciName": "Sitta carolinensis", "locId": "L131061", "locName": "Fullersburg Woods Forest Preserve", "obsDt": "2025-12-27 15:21", "howMany": 2, "lat": 41.8260667, "lng": -87.9323167, "obsValid": true, "obsReviewed": false, "locationPrivate": false, "subId": "S290674487"}, {"speciesCode": "daejun", "comName": "Dark-eyed Junco", "sciName": "Junco hyemalis", "locId": "L131061", "locName": "Fullersburg Woods Forest Preserve", "obsDt": "2025-12-27 15:21", "lat": 41.8260667, "lng": -87.9323167, "obsValid": true, "obsReviewed": false, "locationPrivate": false, "subId": "S290674487"}, {"speciesCode": "sonspa", "comName": "Song Sparrow", "sciName": "Melospiza melodia", "locId": "L131061", "locName": "Fullersburg Woods Forest Preserve", "obsDt": "2025-12-27 15:21", "howMany": 2, "lat": 41.8260667, "lng": -87.9323167, "obsValid": true, "obsReviewed": false, "locationPrivate": false, "subId": "S290674487"}, {"speciesCode": "cangoo", "comName": "Canada Goose", "sciName": "Branta canadensis", "locId": "L152678", "locName": "Blackwell Forest Preserve--McKee Marsh", "obsDt": "2025-12-27 15:14", "howMany": 269, "lat": 41.8476917, "lng": -88.1935859, "obsValid": true, "obsReviewed": false, "locationPrivate": false, "subId": "S290686586"}, {"speciesCode": "grhowl", "comName": "Great Horned Owl", "sciName": "Bubo virginianus", "locId": "L152678", "locName": "Blackwell Forest Preserve--McKee Marsh", "obsDt": "2025-12-27 15:14", "howMany": 2, "lat": 41.8476917, "lng": -88.1935859, "obsValid": true, "obsReviewed": false, "locationPrivate": false, "subId": "S290686586"}, {"speciesCode": "eursta", "comName": "European Starling", "sciName": "Sturnus vulgaris", "locId": "L152678", "locName": "Blackwell Forest Preserve--McKee Marsh", "obsDt": "2025-12-27 15:14", "howMany": 47, "lat": 41.8476917, "lng": -88.1935859, "obsValid": true, "obsReviewed": false, "locationPrivate": false, "subId": "S290686586", "exoticCategory": "N"}, {"speciesCode": "amtspa", "comName": "American Tree Sparrow", "sciName": "Spizelloides arborea", "locId": "L152678", "locName": "Blackwell Forest Preserve--McKee Marsh", "obsDt": "2025-12-27 15:14", "howMany": 11, "lat": 41.8476917, "lng": -88.1935859, "obsValid": true, "obsReviewed": false, "locationPrivate": false, "subId": "S290686586"}, {"speciesCode": "whtspa", "comName": "White-throated Sparrow", "sciName": "Zonotrichia albicollis", "locId": "L152678", "locName": "Blackwell Forest Preserve--McKee Marsh", "obsDt": "2025-12-27 15:14", "howMany": 2, "lat": 41.8476917, "lng": -88.1935859, "obsValid": true, "obsReviewed": false, "locationPrivate": false, "subId": "S290686586"}, {"speciesCode": "snogoo", "comName": "Snow Goose", "sciName": "Anser caerulescens", "locId": "L2717205", "locName": "Centennial Trail--West of Route 83 (DuPage Co.)", "obsDt": "2025-12-27 15:00", "howMany": 1, "lat": 41.6877722, "lng": -87.9814202, "obsValid": true, "obsReviewed": false, "locationPrivate": false, "subId": "S291890576"}, {"speciesCode": "rethaw", "comName": "Red-tailed Hawk", "sciName": "Buteo jamaicensis", "locId": "L36678541", "locName": "Ronald Reagan Memorial Tollway, Downers Grove US-IL 41.80993, -88.07244", "obsDt": "2025-12-27 14:57", "howMany": 1, "lat": 41.809931, "lng": -88.072443, "obsValid": true, "obsReviewed": false, "locationPrivate": true, "subId": "S290618822"}, {"speciesCode": "houspa", "comName": "House Sparrow", "sciName": "Passer domesticus", "locId": "L131061", "locName": "Fullersburg Woods Forest Preserve", "obsDt": "2025-12-27 14:49", "lat": 41.8260667, "lng": -87.9323167, "obsValid": true, "obsReviewed": false, "locationPrivate": false, "subId": "S290674102", "exoticCategory": "N"}, {"speciesCode": "brncre", "comName": "Brown Creeper", "sciName": "Certhia americana", "locId": "L131061", "locName": "Fullersburg Woods Forest Preserve", "obsDt": "2025-12-27 14:30", "howMany": 1, "lat": 41.8260667, "lng": -87.9323167, "obsValid": true, "obsReviewed": false, "locationPrivate": false, "subId": "S290627668"}, {"speciesCode": "norcar", "comName": "Northern Cardinal", "sciName": "Cardinalis cardinalis", "locId": "L131061", "locName": "Fullersburg Woods Forest Preserve", "obsDt": "2025-12-27 14:30", "howMany": 1, "lat": 41.8260667, "lng": -87.9323167, "obsValid": true, "obsReviewed": false, "locationPrivate": false, "subId": "S290627668"}, {"speciesCode": "rocpig", "comName": "Rock Pigeon", "sciName": "Columba livia", "locId": "L5545010", "locName": "Before Lake St., I355", "obsDt": "2025-12-27 14:27", "howMany": 2, "lat": 41.9472664, "lng": -88.0375242, "obsValid": true, "obsReviewed": false, "locationPrivate": true, "subId": "S290659822", "exoticCategory": "N"}, {"speciesCode": "blujay", "comName": "Blue Jay", "sciName": "Cyanocitta cristata", "locId": "L655123", "locName": "Morton Arboretum Area 6", "obsDt": "2025-12-27 14:14", "howMany": 2, "lat": 41.8120992, "lng": -88.0591026, "obsValid": true, "obsReviewed": false, "locationPrivate": true, "subId": "S290612336"}, {"speciesCode": "comgol", "comName": "Common Goldeneye", "sciName": "Bucephala clangula", "locId": "L679066", "locName": "West Branch Forest Preserve", "obsDt": "2025-12-27 13:46", "howMany": 2, "lat": 41.9326501, "lng": -88.1819773, "obsValid": true, "obsReviewed": false, "locationPrivate": false, "subId": "S290686645"}, {"speciesCode": "ribgul", "comName": "Ring-billed Gull", "sciName": "Larus delawarensis", "locId": "L679066", "locName": "West Branch Forest Preserve", "obsDt": "2025-12-27 13:46", "howMany": 1, "lat": 41.9326501, "lng": -88.1819773, "obsValid": true, "obsReviewed": false, "locationPrivate": false, "subId": "S290686645"}, {"speciesCode": "amecro", "comName": "American Crow", "sciName": "Corvus brachyrhynchos", "locId": "L679066", "locName": "West Branch Forest Preserve", "obsDt": "2025-12-27 13:46", "howMany": 2, "lat": 41.9326501, "lng": -88.1819773, "obsValid": true, "obsReviewed": false, "locationPrivate": false, "subId": "S290686645"}, {"speciesCode": "baleag", "comName": "Bald Eagle", "sciName": "Haliaeetus leucocephalus", "locId": "L144492", "locName": "McDowell Grove Forest Preserve", "obsDt": "2025-12-27 13:17", "howMany": 1, "lat": 41.793499, "lng": -88.1837006, "obsValid": true, "obsReviewed": false, "locationPrivate": false, "subId": "S290640180"}, {"speciesCode": "belkin1", "comName": "Belted Kingfisher", "sciName": "Megaceryle alcyon", "locId": "L144492", "locName": "McDowell Grove Forest Preserve", "obsDt": "2025-12-27 13:17", "howMany": 2, "lat": 41.793499, "lng": -88.1837006, "obsValid": true, "obsReviewed": false, "locationPrivate": false, "subId": "S290640180"}, {"speciesCode": "norfli", "comName": "Northern Flicker", "sciName": "Colaptes auratus", "locId": "L144492", "locName": "McDowell Grove Forest Preserve", "obsDt": "2025-12-27 13:17", "howMany": 1, "lat": 41.793499, "lng": -88.1837006, "obsValid": true, "obsReviewed": false, "locationPrivate": false, "subId": "S290640180"}, {"speciesCode": "gockin", "comName": "Golden-crowned Kinglet", "sciName": "Regulus satrapa", "locId": "L144492", "locName": "McDowell Grove Forest Preserve", "obsDt": "2025-12-27 13:17", "howMany": 2, "lat": 41.793499, "lng": -88.1837006, "obsValid": true, "obsReviewed": false, "locationPrivate": false, "subId": "S290640180"}, {"speciesCode": "houfin", "comName": "House Finch", "sciName": "Haemorhous mexicanus", "locId": "L144492", "locName": "McDowell Grove Forest Preserve", "obsDt": "2025-12-27 13:17", "howMany": 2, "lat": 41.793499, "lng": -88.1837006, "obsValid": true, "obsReviewed": false, "locationPrivate": false, "subId": "S290640180", "exoticCategory": "N"}, {"speciesCode": "comgra", "comName": "Common Grackle", "sciName": "Quiscalus quiscula", "locId": "L144492", "locName": "McDowell Grove Forest Preserve", "obsDt": "2025-12-27 13:17", "howMany": 1, "lat": 41.793499, "lng": -88.1837006, "obsValid": true, "obsReviewed": false, "locationPrivate": false, "subId": "S290640180"}, {"speciesCode": "monpar", "comName": "Monk Parakeet", "sciName": "Myiopsitta monachus", "locId": "L210197", "locName": "Churchill Woods Forest Preserve--North/Prairie", "obsDt": "2025-12-27 13:14", "howMany": 4, "lat": 41.8911, "lng": -88.0436, "obsValid": true, "obsReviewed": false, "locationPrivate": false, "subId": "S290647940", "exoticCategory": "N"}, {"speciesCode": "ambduc", "comName": "American Black Duck", "sciName": "Anas rubripes", "locId": "L2717205", "locName": "Centennial Trail--West of Route 83 (DuPage Co.)", "obsDt": "2025-12-27 13:00", "howMany": 1, "lat": 41.6877722, "lng": -87.9814202, "obsValid": true, "obsReviewed": false, "locationPrivate": false, "subId": "S290604642"}, {"speciesCode": "hoomer", "comName": "Hooded Merganser", "sciName": "Lophodytes cucullatus", "locId": "L2717205", "locName": "Centennial Trail--West of Route 83 (DuPage Co.)", "obsDt": "2025-12-27 13:00", "howMany": 1, "lat": 41.6877722, "lng": -87.9814202, "obsValid": true, "obsReviewed": false, "locationPrivate": false, "subId": "S290604642"}, {"speciesCode": "commer", "comName": "Common Merganser", "sciName": "Mergus merganser", "locId": "L2717205", "locName": "Centennial Trail--West of Route 83 (DuPage Co.)", "obsDt": "2025-12-27 13:00", "howMany": 6, "lat": 41.6877722, "lng": -87.9814202, "obsValid": true, "obsReviewed": false, "locationPrivate": false, "subId": "S290604642"}, {"speciesCode": "grbher3", "comName": "Great Blue Heron", "sciName": "Ardea herodias", "locId": "L2717205", "locName": "Centennial Trail--West of Route 83 (DuPage Co.)", "obsDt": "2025-12-27 13:00", "howMany": 2, "lat": 41.6877722, "lng": -87.9814202, "obsValid": true, "obsReviewed": false, "locationPrivate": false, "subId": "S290604642"}, {"speciesCode": "merlin", "comName": "Merlin", "sciName": "Falco columbarius", "locId": "L2717205", "locName": "Centennial Trail--West of Route 83 (DuPage Co.)", "obsDt": "2025-12-27 13:00", "howMany": 1, "lat": 41.6877722, "lng": -87.9814202, "obsValid": true, "obsReviewed": false, "locationPrivate": false, "subId": "S290604642"}, {"speciesCode": "carwre", "comName": "Carolina Wren", "sciName": "Thryothorus ludovicianus", "locId": "L2717205", "locName": "Centennial Trail--West of Route 83 (DuPage Co.)", "obsDt": "2025-12-27 13:00", "howMany": 1, "lat": 41.6877722, "lng": -87.9814202, "obsValid": true, "obsReviewed": false, "locationPrivate": false, "subId": "S290604642"}, {"speciesCode": "amegfi", "comName": "American Goldfinch", "sciName": "Spinus tristis", "locId": "L1860772", "locName": "Home Glen Ellyn, IL", "obsDt": "2025-12-27 12:48", "howMany": 2, "lat": 41.819899, "lng": -88.068351, "obsValid": true, "obsReviewed": false, "locationPrivate": true, "subId": "S290592617"}, {"speciesCode": "rebnut", "comName": "Red-breasted Nuthatch", "sciName": "Sitta canadensis", "locId": "L40211598", "locName": "9024 Hampstead Ct, Woodridge US-IL 41.71731, -88.01749", "obsDt": "2025-12-27 12:30", "howMany": 1, "lat": 41.717313, "lng": -88.017489, "obsValid": true, "obsReviewed": false, "locationPrivate": true, "subId": "S290588369"}, {"speciesCode": "cedwax", "comName": "Cedar Waxwing", "sciName": "Bombycilla cedrorum", "locId": "L132618", "locName": "Morton Arboretum--East Side", "obsDt": "2025-12-27 12:12", "howMany": 5, "lat": 41.8143142, "lng": -88.0647755, "obsValid": true, "obsReviewed": false, "locationPrivate": false, "subId": "S290584871"}, {"speciesCode": "norsho", "comName": "Northern Shoveler", "sciName": "Spatula clypeata", "locId": "L152722", "locName": "Springbrook Prairie Forest Preserve", "obsDt": "2025-12-27 11:35", "howMany": 4, "lat": 41.7392, "lng": -88.1754, "obsValid": true, "obsReviewed": false, "locationPrivate": false, "subId": "S290611842"}, {"speciesCode": "gnwtea", "comName": "Green-winged Teal", "sciName": "Anas crecca", "locId": "L152722", "locName": "Springbrook Prairie Forest Preserve", "obsDt": "2025-12-27 11:35", "howMany": 2, "lat": 41.7392, "lng": -88.1754, "obsValid": true, "obsReviewed": false, "locationPrivate": false, "subId": "S290611842"}, {"speciesCode": "norhar2", "comName": "Northern Harrier", "sciName": "Circus hudsonius", "locId": "L152722", "locName": "Springbrook Prairie Forest Preserve", "obsDt": "2025-12-27 11:35", "howMany": 3, "lat": 41.7392, "lng": -88.1754, "obsValid": true, "obsReviewed": false, "locationPrivate": false, "subId": "S290611842"}, {"speciesCode": "purfin", "comName": "Purple Finch", "sciName": "Haemorhous purpureus", "locId": "L152637", "locName": "Fermilab (DuPage Co.)", "obsDt": "2025-12-27 11:19", "howMany": 4, "lat": 41.8395126, "lng": -88.2190218, "obsValid": true, "obsReviewed": false, "locationPrivate": false, "subId": "S292493965"}, {"speciesCode": "foxspa", "comName": "Fox Sparrow", "sciName": "Passerella iliaca", "locId": "L152637", "locName": "Fermilab (DuPage Co.)", "obsDt": "2025-12-27 11:19", "howMany": 2, "lat": 41.8395126, "lng": -88.2190218, "obsValid": true, "obsReviewed": false, "locationPrivate": false, "subId": "S292493965"}, {"speciesCode": "norshr4", "comName": "Northern Shrike", "sciName": "Lanius borealis", "locId": "L387547", "locName": "Blackwell Forest Preserve--Silver Lake area", "obsDt": "2025-12-27 10:49", "howMany": 1, "lat": 41.834188, "lng": -88.1759614, "obsValid": true, "obsReviewed": false, "locationPrivate": false, "subId": "S290662277"}, {"speciesCode": "yebsap", "comName": "Yellow-bellied Sapsucker", "sciName": "Sphyrapicus varius", "locId": "L132618", "locName": "Morton Arboretum--East Side", "obsDt": "2025-12-27 09:54", "howMany": 1, "lat": 41.8143142, "lng": -88.0647755, "obsValid": true, "obsReviewed": false, "locationPrivate": false, "subId": "S290577251"}, {"speciesCode": "pilwoo", "comName": "Pileated Woodpecker", "sciName": "Dryocopus pileatus", "locId": "L132618", "locName": "Morton Arboretum--East Side", "obsDt": "2025-12-27 09:54", "howMany": 2, "lat": 41.8143142, "lng": -88.0647755, "obsValid": true, "obsReviewed": false, "locationPrivate": false, "subId": "S290577251"}, {"speciesCode": "whcspa", "comName": "White-crowned Sparrow", "sciName": "Zonotrichia leucophrys", "locId": "L9062714", "locName": "Morton Arboretum Area 15", "obsDt": "2025-12-27 09:30", "howMany": 4, "lat": 41.8177104, "lng": -88.0743897, "obsValid": true, "obsReviewed": false, "locationPrivate": true, "subId": "S290556410"}, {"speciesCode": "gadwal", "comName": "Gadwall", "sciName": "Mareca strepera", "locId": "L2306429", "locName": "Bensenville Ditch", "obsDt": "2025-12-27 09:16", "howMany": 1, "lat": 41.9430427, "lng": -87.9301588, "obsValid": true, "obsReviewed": false, "locationPrivate": false, "subId": "S290587106"}, {"speciesCode": "rebmer", "comName": "Red-breasted Merganser", "sciName": "Mergus serrator", "locId": "L2306429", "locName": "Bensenville Ditch", "obsDt": "2025-12-27 09:16", "howMany": 8, "lat": 41.9430427, "lng": -87.9301588, "obsValid": true, "obsReviewed": false, "locationPrivate": false, "subId": "S290587106"}, {"speciesCode": "amhgul1", "comName": "American Herring Gull", "sciName": "Larus smithsonianus", "locId": "L2306429", "locName": "Bensenville Ditch", "obsDt": "2025-12-27 09:16", "howMany": 3, "lat": 41.9430427, "lng": -87.9301588, "obsValid": true, "obsReviewed": false, "locationPrivate": false, "subId": "S290587106"}, {"speciesCode": "winwre3", "comName": "Winter Wren", "sciName": "Troglodytes hiemalis", "locId": "L2717205", "locName": "Centennial Trail--West of Route 83 (DuPage Co.)", "obsDt": "2025-12-27 08:26", "howMany": 1, "lat": 41.6877722, "lng": -87.9814202, "obsValid": true, "obsReviewed": false, "locationPrivate": false, "subId": "S290544286"}, {"speciesCode": "easblu", "comName": "Eastern Bluebird", "sciName": "Sialia sialis", "locId": "L2717205", "locName": "Centennial Trail--West of Route 83 (DuPage Co.)", "obsDt": "2025-12-27 08:26", "howMany": 9, "lat": 41.6877722, "lng": -87.9814202, "obsValid": true, "obsReviewed": false, "locationPrivate": false, "subId": "S290544286"}, {"speciesCode": "swaspa", "comName": "Swamp Sparrow", "sciName": "Melospiza georgiana", "locId": "L2717205", "locName": "Centennial Trail--West of Route 83 (DuPage Co.)", "obsDt": "2025-12-27 08:26", "howMany": 6, "lat": 41.6877722, "lng": -87.9814202, "obsValid": true, "obsReviewed": false, "locationPrivate": false, "subId": "S290544286"}, {"speciesCode": "killde", "comName": "Killdeer", "sciName": "Charadrius vociferus", "locId": "L55071961", "locName": "Wheaton", "obsDt": "2025-12-27 08:25", "howMany": 1, "lat": 41.855388, "lng": -88.098872, "obsValid": true, "obsReviewed": false, "locationPrivate": true, "subId": "S290515785"}, {"speciesCode": "rewbla", "comName": "Red-winged Blackbird", "sciName": "Agelaius phoeniceus", "locId": "L55071961", "locName": "Wheaton", "obsDt": "2025-12-27 08:25", "howMany": 1, "lat": 41.855388, "lng": -88.098872, "obsValid": true, "obsReviewed": false, "locationPrivate": true, "subId": "S290515785"}, {"speciesCode": "yerwar", "comName": "Yellow-rumped Warbler", "sciName": "Setophaga coronata", "locId": "L1092324", "locName": "East Branch Riverway Forest Preserve--North", "obsDt": "2025-12-27 08:25", "howMany": 1, "lat": 41.8626256, "lng": -88.0447555, "obsValid": true, "obsReviewed": false, "locationPrivate": false, "subId": "S290531069"}, {"speciesCode": "cacgoo1", "comName": "Cackling Goose", "sciName": "Branta hutchinsii", "locId": "L387547", "locName": "Blackwell Forest Preserve--Silver Lake area", "obsDt": "2025-12-27 08:16", "howMany": 1, "lat": 41.834188, "lng": -88.1759614, "obsValid": true, "obsReviewed": false, "locationPrivate": false, "subId": "S290522609"}, {"speciesCode": "pinsis", "comName": "Pine Siskin", "sciName": "Spinus pinus", "locId": "L633350", "locName": "Morton Arboretum--West Side", "obsDt": "2025-12-27 07:55", "howMany": 3, "lat": 41.8160414, "lng": -88.0836153, "obsValid": true, "obsReviewed": false, "locationPrivate": false, "subId": "S290604447"}, {"speciesCode": "brdowl", "comName": "Barred Owl", "sciName": "Strix varia", "locId": "L749660", "locName": "St. James Farm Forest Preserve", "obsDt": "2025-12-27 07:52", "howMany": 1, "lat": 41.8375952, "lng": -88.1614208, "obsValid": true, "obsReviewed": false, "locationPrivate": false, "subId": "S290521251"}]