[{"speciesCode": "moudov", "comName": "Mourning Dove", "sciName": "Zenaida macroura", "locId": "L20176403", "locName": "Prestwick South", "obsDt": "2025-12-31 19:13", "howMany": 14, "lat": 41.4913926, "lng": -87.7977388, "obsValid": true, "obsReviewed": false, "locationPrivate": true, "subId": "S291754187"}, {"speciesCode": "coohaw", "comName": "Cooper's Hawk", "sciName": "Astur cooperii", "locId": "L20176403", "locName": "Prestwick South", "obsDt": "2025-12-31 19:13", "howMany": 1, "lat": 41.4913926, "lng": -87.7977388, "obsValid": true, "obsReviewed": false, "locationPrivate": true, "subId": "S291754187"}, {"speciesCode": "rebwoo", "comName": "Red-bellied Woodpecker", "sciName": "Melanerpes carolinus", "locId": "L20176403", "locName": "Prestwick South", "obsDt": "2025-12-31 19:13", "howMany": 1, "lat": 41.4913926, "lng": -87.7977388, "obsValid": true, "obsReviewed": false, "locationPrivate": true, "subId": "S291754187"}, {"speciesCode": "dowwoo", "comName": "Downy Woodpecker", "sciName": "Dryobates pubescens", "locId": "L20176403", "locName": "Prestwick South", "obsDt": "2025-12-31 19:13", "howMany": 2, "lat": 41.4913926, "lng": -87.7977388, "obsValid": true, "obsReviewed": false, "locationPrivate": true, "subId": "S291754187"}, {"speciesCode": "haiwoo", "comName": "Hairy Woodpecker", "sciName": "Leuconotopicus villosus", "locId": "L20176403", "locName": "Prestwick South", "obsDt": "2025-12-31 19:13", "howMany": 1, "lat": 41.4913926, "lng": -87.7977388, "obsValid": true, "obsReviewed": false, "locationPrivate": true, "subId": "S291754187"}, {"speciesCode": "norfli", "comName": "Northern Flicker", "sciName": "Colaptes auratus", "locId": "L20176403", "locName": "Prestwick South", "obsDt": "2025-12-31 19:13", "howMany": 1, "lat": 41.4913926, "lng": -87.7977388, "obsValid": true, "obsReviewed": false, "locationPrivate": true, "subId": "S291754187"}, {"speciesCode": "blujay", "comName": "Blue Jay", "sciName": "Cyanocitta cristata", "locId": "L20176403", "locName": "Prestwick South", "obsDt": "2025-12-31 19:13", "howMany": 1, "lat": 41.4913926, "lng": -87.7977388, "obsValid": true, "obsReviewed": false, "locationPrivate": true, "subId": "S291754187"}, {"speciesCode": "bkcchi", "comName": "Black-capped Chickadee", "sciName": "Poecile atricapillus", "locId": "L20176403", "locName": "Prestwick South", "obsDt": "2025-12-31 19:13", "howMany": 1, "lat": 41.4913926, "lng": -87.7977388, "obsValid": true, "obsReviewed": false, "locationPrivate": true, "subId": "S291754187"}, {"speciesCode": "tuftit", "comName": "Tufted Titmouse", "sciName": "Baeolophus bicolor", "locId": "L20176403", "locName": "Prestwick South", "obsDt": "2025-12-31 19:13", "howMany": 1, "lat": 41.4913926, "lng": -87.7977388, "obsValid": true, "obsReviewed": false, "locationPrivate": true, "subId": "S291754187"}, {"speciesCode": "gockin", "comName": "Golden-crowned Kinglet", "sciName": "Regulus satrapa", "locId": "L20176403", "locName": "Prestwick South", "obsDt": "2025-12-31 19:13", "howMany": 1, "lat": 41.4913926, "lng": -87.7977388, "obsValid": true, "obsReviewed": false, "locationPrivate": true, "subId": "S291754187"}, {"speciesCode": "whbnut", "comName": "White-breasted Nuthatch", "sciName": "Sitta carolinensis", "locId": "L20176403", "locName": "Prestwick South", "obsDt": "2025-12-31 19:13", "howMany": 2, "lat": 41.4913926, "lng": -87.7977388, "obsValid": true, "obsReviewed": false, "locationPrivate": true, "subId": "S291754187"}, {"speciesCode": "rebnut", "comName": "Red-breasted Nuthatch", "sciName": "Sitta canadensis", "locId": "L20176403", "locName": "Prestwick South", "obsDt": "2025-12-31 19:13", "howMany": 1, "lat": 41.4913926, "lng": -87.7977388, "obsValid": true, "obsReviewed": false, "locationPrivate": true, "subId": "S291754187"}, {"speciesCode": "brncre", "comName": "Brown Creeper", "sciName": "Certhia americana", "locId": "L20176403", "locName": "Prestwick South", "obsDt": "2025-12-31 19:13", "howMany": 1, "lat": 41.4913926, "lng": -87.7977388, "obsValid": true, "obsReviewed": false, "locationPrivate": true, "subId": "S291754187"}, {"speciesCode": "carwre", "comName": "Carolina Wren", "sciName": "Thryothorus ludovicianus", "locId": "L20176403", "locName": "Prestwick South", "obsDt": "2025-12-31 19:13", "howMany": 1, "lat": 41.4913926, "lng": -87.7977388, "obsValid": true, "obsReviewed": false, "locationPrivate": true, "subId": "S291754187"}, {"speciesCode": "amerob", "comName": "American Robin", "sciName": "Turdus migratorius", "locId": "L20176403", "locName": "Prestwick South", "obsDt": "2025-12-31 19:13", "howMany": 2, "lat": 41.4913926, "lng": -87.7977388, "obsValid": true, "obsReviewed": false, "locationPrivate": true, "subId": "S291754187"}, {"speciesCode": "houspa", "comName": "House Sparrow", "sciName": "Passer domesticus", "locId": "L20176403", "locName": "Prestwick South", "obsDt": "2025-12-31 19:13", "howMany": 1, "lat": 41.4913926, "lng": -87.7977388, "obsValid": true, "obsReviewed": false, "locationPrivate": true, "subId": "S291754187", "exoticCategory": "N"}, {"speciesCode": "houfin", "comName": "House Finch", "sciName": "Haemorhous mexicanus", "locId": "L20176403", "locName": "Prestwick South", "obsDt": "2025-12-31 19:13", "howMany": 13, "lat": 41.4913926, "lng": -87.7977388, "obsValid": true, "obsReviewed": false, "locationPrivate": true, "subId": "S291754187", "exoticCategory": "N"}, {"speciesCode": "amegfi", "comName": "American Goldfinch", "sciName": "Spinus tristis", "locId": "L20176403", "locName": "Prestwick South", "obsDt": "2025-12-31 19:13", "howMany": 6, "lat": 41.4913926, "lng": -87.7977388, "obsValid": true, "obsReviewed": false, "locationPrivate": true, "subId": "S291754187"}, {"speciesCode": "amtspa", "comName": "American Tree Sparrow", "sciName": "Spizelloides arborea", "locId": "L20176403", "locName": "Prestwick South", "obsDt": "2025-12-31 19:13", "howMany": 1, "lat": 41.4913926, "lng": -87.7977388, "obsValid": true, "obsReviewed": false, "locationPrivate": true, "subId": "S291754187"}, {"speciesCode": "daejun", "comName": "Dark-eyed Junco", "sciName": "Junco hyemalis", "locId": "L20176403", "locName": "Prestwick South", "obsDt": "2025-12-31 19:13", "howMany": 34, "lat": 41.4913926, "lng": -87.7977388, "obsValid": true, "obsReviewed": false, "locationPrivate": true, "subId": "S291754187"}, {"speciesCode": "norcar", "comName": "Northern Cardinal", "sciName": "Cardinalis cardinalis", "locId": "L20176403", "locName": "Prestwick South", "obsDt": "2025-12-31 19:13", "howMany": 1, "lat": 41.4913926, "lng": -87.7977388, "obsValid": true, "obsReviewed": false, "locationPrivate": true, "subId": "S291754187"}, {"speciesCode": "cangoo", "comName": "Canada Goose", "sciName": "Branta canadensis", "locId": "L56628603", "locName": "Veterans Memorial Tollway, Bolingbrook, Illinois, US (41.711, -88.032)", "obsDt": "2025-12-31 16:24", "howMany": 25, "lat": 41.7113239, "lng": -88.0319404, "obsValid": true, "obsReviewed": false, "locationPrivate": true, "subId": "S291476128"}, {"speciesCode": "amekes", "comName": "American Kestrel", "sciName": "Falco sparverius", "locId": "L16070375", "locName": "Carlson Pond (Private Property)", "obsDt": "2025-12-31 14:54", "howMany": 1, "lat": 41.4095732, "lng": -87.7179467, "obsValid": true, "obsReviewed": false, "locationPrivate": true, "subId": "S291462362"}, {"speciesCode": "eursta", "comName": "European Starling", "sciName": "Sturnus vulgaris", "locId": "L16070375", "locName": "Carlson Pond (Private Property)", "obsDt": "2025-12-31 14:54", "howMany": 3, "lat": 41.4095732, "lng": -87.7179467, "obsValid": true, "obsReviewed": false, "locationPrivate": true, "subId": "S291462362", "exoticCategory": "N"}, {"speciesCode": "whcspa", "comName": "White-crowned Sparrow", "sciName": "Zonotrichia leucophrys", "locId": "L16070375", "locName": "Carlson Pond (Private Property)", "obsDt": "2025-12-31 14:54", "howMany": 11, "lat": 41.4095732, "lng": -87.7179467, "obsValid": true, "obsReviewed": false, "locationPrivate": true, "subId": "S291462362"}, {"speciesCode": "bnhcow", "comName": "Brown-headed Cowbird", "sciName": "Molothrus ater", "locId": "L16070375", "locName": "Carlson Pond (Private Property)", "obsDt": "2025-12-31 14:54", "howMany": 20, "lat": 41.4095732, "lng": -87.7179467, "obsValid": true, "obsReviewed": false, "locationPrivate": true, "subId": "S291462362"}, {"speciesCode": "rolhaw", "comName": "Rough-legged Hawk", "sciName": "Buteo lagopus", "locId": "L1819244", "locName": "Prairie Bluff Preserve", "obsDt": "2025-12-31 14:32", "howMany": 1, "lat": 41.5893846, "lng": -88.1023693, "obsValid": true, "obsReviewed": false, "locationPrivate": false, "subId": "S291456535"}, {"speciesCode": "mallar3", "comName": "Mallard", "sciName": "Anas platyrhynchos", "locId": "L252503", "locName": "Whalon Lake Forest Preserve", "obsDt": "2025-12-31 14:09", "howMany": 24, "lat": 41.7159803, "lng": -88.0946875, "obsValid": true, "obsReviewed": false, "locationPrivate": false, "subId": "S291456670"}, {"speciesCode": "hoomer", "comName": "Hooded Merganser", "sciName": "Lophodytes cucullatus", "locId": "L252503", "locName": "Whalon Lake Forest Preserve", "obsDt": "2025-12-31 14:09", "howMany": 18, "lat": 41.7159803, "lng": -88.0946875, "obsValid": true, "obsReviewed": false, "locationPrivate": false, "subId": "S291456670"}, {"speciesCode": "commer", "comName": "Common Merganser", "sciName": "Mergus merganser", "locId": "L252503", "locName": "Whalon Lake Forest Preserve", "obsDt": "2025-12-31 14:09", "howMany": 12, "lat": 41.7159803, "lng": -88.0946875, "obsValid": true, "obsReviewed": false, "locationPrivate": false, "subId": "S291456670"}, {"speciesCode": "amhgul1", "comName": "American Herring Gull", "sciName": "Larus smithsonianus", "locId": "L252503", "locName": "Whalon Lake Forest Preserve", "obsDt": "2025-12-31 14:09", "howMany": 5, "lat": 41.7159803, "lng": -88.0946875, "obsValid": true, "obsReviewed": false, "locationPrivate": false, "subId": "S291456670"}, {"speciesCode": "rethaw", "comName": "Red-tailed Hawk", "sciName": "Buteo jamaicensis", "locId": "L1807949", "locName": "Mather Woods Forest Preserve", "obsDt": "2025-12-31 13:50", "howMany": 1, "lat": 41.594433, "lng": -88.228072, "obsValid": true, "obsReviewed": false, "locationPrivate": false, "subId": "S291474075"}, {"speciesCode": "belkin1", "comName": "Belted Kingfisher", "sciName": "Megaceryle alcyon", "locId": "L1807949", "locName": "Mather Woods Forest Preserve", "obsDt": "2025-12-31 13:50", "howMany": 1, "lat": 41.594433, "lng": -88.228072, "obsValid": true, "obsReviewed": false, "locationPrivate": false, "subId": "S291474075"}, {"speciesCode": "purfin", "comName": "Purple Finch", "sciName": "Haemorhous purpureus", "locId": "L1807949", "locName": "Mather Woods Forest Preserve", "obsDt": "2025-12-31 13:50", "howMany": 1, "lat": 41.594433, "lng": -88.228072, "obsValid": true, "obsReviewed": false, "locationPrivate": false, "subId": "S291474075"}, {"speciesCode": "cacgoo1", "comName": "Cackling Goose", "sciName": "Branta hutchinsii", "locId": "L17034055", "locName": "South Arsenal Rd, Wilmington IL", "obsDt": "2025-12-31 13:25", "howMany": 7, "lat": 41.335502, "lng": -88.102433, "obsValid": true, "obsReviewed": false, "locationPrivate": true, "subId": "S291505214"}, {"speciesCode": "rocpig", "comName": "Rock Pigeon", "sciName": "Columba livia", "locId": "L17034055", "locName": "South Arsenal Rd, Wilmington IL", "obsDt": "2025-12-31 13:25", "howMany": 20, "lat": 41.335502, "lng": -88.102433, "obsValid": true, "obsReviewed": false, "locationPrivate": true, "subId": "S291505214", "exoticCategory": "N"}, {"speciesCode": "ribgul", "comName": "Ring-billed Gull", "sciName": "Larus delawarensis", "locId": "L17034055", "locName": "South Arsenal Rd, Wilmington IL", "obsDt": "2025-12-31 13:25", "howMany": 60, "lat": 41.335502, "lng": -88.102433, "obsValid": true, "obsReviewed": false, "locationPrivate": true, "subId": "S291505214"}, {"speciesCode": "gbbgul", "comName": "Great Black-backed Gull", "sciName": "Larus marinus", "locId": "L17034055", "locName": "South Arsenal Rd, Wilmington IL", "obsDt": "2025-12-31 13:25", "howMany": 2, "lat": 41.335502, "lng": -88.102433, "obsValid": true, "obsReviewed": true, "locationPrivate": true, "subId": "S291505214"}, {"speciesCode": "glagul", "comName": "Glaucous Gull", "sciName": "Larus hyperboreus", "locId": "L17034055", "locName": "South Arsenal Rd, Wilmington IL", "obsDt": "2025-12-31 13:25", "howMany": 1, "lat": 41.335502, "lng": -88.102433, "obsValid": true, "obsReviewed": false, "locationPrivate": true, "subId": "S291505214"}, {"speciesCode": "lbbgul", "comName": "Lesser Black-backed Gull", "sciName": "Larus fuscus", "locId": "L17034055", "locName": "South Arsenal Rd, Wilmington IL", "obsDt": "2025-12-31 13:25", "howMany": 4, "lat": 41.335502, "lng": -88.102433, "obsValid": true, "obsReviewed": true, "locationPrivate": true, "subId": "S291505214"}, {"speciesCode": "y00478", "comName": "Iceland Gull", "sciName": "Larus glaucoides", "locId": "L17034055", "locName": "South Arsenal Rd, Wilmington IL", "obsDt": "2025-12-31 13:25", "howMany": 1, "lat": 41.335502, "lng": -88.102433, "obsValid": true, "obsReviewed": false, "locationPrivate": true, "subId": "S291505214"}, {"speciesCode": "baleag", "comName": "Bald Eagle", "sciName": "Haliaeetus leucocephalus", "locId": "L17034055", "locName": "South Arsenal Rd, Wilmington IL", "obsDt": "2025-12-31 13:25", "howMany": 2, "lat": 41.335502, "lng": -88.102433, "obsValid": true, "obsReviewed": false, "locationPrivate": true, "subId": "S291505214"}, {"speciesCode": "norhar2", "comName": "Northern Harrier", "sciName": "Circus hudsonius", "locId": "L56619501", "locName": "Arsenal field", "obsDt": "2025-12-31 12:48", "howMany": 1, "lat": 41.335481, "lng": -88.105985, "obsValid": true, "obsReviewed": false, "locationPrivate": true, "subId": "S291438611"}, {"speciesCode": "redhea", "comName": "Redhead", "sciName": "Aythya americana", "locId": "L801422", "locName": "Rock Run Rookery Preserve", "obsDt": "2025-12-31 12:11", "howMany": 9, "lat": 41.4689912, "lng": -88.1701026, "obsValid": true, "obsReviewed": false, "locationPrivate": false, "subId": "S291430252"}, {"speciesCode": "rinduc", "comName": "Ring-necked Duck", "sciName": "Aythya collaris", "locId": "L801422", "locName": "Rock Run Rookery Preserve", "obsDt": "2025-12-31 12:11", "howMany": 20, "lat": 41.4689912, "lng": -88.1701026, "obsValid": true, "obsReviewed": false, "locationPrivate": false, "subId": "S291430252"}, {"speciesCode": "comgol", "comName": "Common Goldeneye", "sciName": "Bucephala clangula", "locId": "L801422", "locName": "Rock Run Rookery Preserve", "obsDt": "2025-12-31 12:11", "howMany": 75, "lat": 41.4689912, "lng": -88.1701026, "obsValid": true, "obsReviewed": false, "locationPrivate": false, "subId": "S291430252"}, {"speciesCode": "amecro", "comName": "American Crow", "sciName": "Corvus brachyrhynchos", "locId": "L801422", "locName": "Rock Run Rookery Preserve", "obsDt": "2025-12-31 12:11", "howMany": 2, "lat": 41.4689912, "lng": -88.1701026, "obsValid": true, "obsReviewed": false, "locationPrivate": false, "subId": "S291430252"}, {"speciesCode": "mutswa", "comName": "Mute Swan", "sciName": "Cygnus olor", "locId": "L27337313", "locName": "Des Plaines SFWA--Widewaters Boat Launch", "obsDt": "2025-12-31 12:08", "howMany": 4, "lat": 41.4206047, "lng": -88.2159457, "obsValid": true, "obsReviewed": false, "locationPrivate": false, "subId": "S291433223", "exoticCategory": "N"}, {"speciesCode": "norsho", "comName": "Northern Shoveler", "sciName": "Spatula clypeata", "locId": "L27337313", "locName": "Des Plaines SFWA--Widewaters Boat Launch", "obsDt": "2025-12-31 12:08", "howMany": 1, "lat": 41.4206047, "lng": -88.2159457, "obsValid": true, "obsReviewed": false, "locationPrivate": false, "subId": "S291433223"}, {"speciesCode": "gadwal", "comName": "Gadwall", "sciName": "Mareca strepera", "locId": "L27337313", "locName": "Des Plaines SFWA--Widewaters Boat Launch", "obsDt": "2025-12-31 12:08", "howMany": 120, "lat": 41.4206047, "lng": -88.2159457, "obsValid": true, "obsReviewed": false, "locationPrivate": false, "subId": "S291433223"}, {"speciesCode": "grbher3", "comName": "Great Blue Heron", "sciName": "Ardea herodias", "locId": "L27337313", "locName": "Des Plaines SFWA--Widewaters Boat Launch", "obsDt": "2025-12-31 12:08", "howMany": 3, "lat": 41.4206047, "lng": -88.2159457, "obsValid": true, "obsReviewed": false, "locationPrivate": false, "subId": "S291433223"}, {"speciesCode": "whtspa", "comName": "White-throated Sparrow", "sciName": "Zonotrichia albicollis", "locId": "L152617", "locName": "Channahon State Park", "obsDt": "2025-12-31 11:17", "howMany": 5, "lat": 41.4233127, "lng": -88.2281822, "obsValid": true, "obsReviewed": false, "locationPrivate": false, "subId": "S292419416"}, {"speciesCode": "y00475", "comName": "American Coot", "sciName": "Fulica americana", "locId": "L1064362", "locName": "McKinley Woods--Moose Island", "obsDt": "2025-12-31 11:16", "howMany": 2, "lat": 41.4124473, "lng": -88.2196999, "obsValid": true, "obsReviewed": false, "locationPrivate": false, "subId": "S291428403"}, {"speciesCode": "shshaw", "comName": "Sharp-shinned Hawk", "sciName": "Accipiter striatus", "locId": "L1064362", "locName": "McKinley Woods--Moose Island", "obsDt": "2025-12-31 11:16", "howMany": 1, "lat": 41.4124473, "lng": -88.2196999, "obsValid": true, "obsReviewed": false, "locationPrivate": false, "subId": "S291428403"}, {"speciesCode": "pinsis", "comName": "Pine Siskin", "sciName": "Spinus pinus", "locId": "L1064362", "locName": "McKinley Woods--Moose Island", "obsDt": "2025-12-31 11:16", "howMany": 2, "lat": 41.4124473, "lng": -88.2196999, "obsValid": true, "obsReviewed": false, "locationPrivate": false, "subId": "S291428403"}, {"speciesCode": "sonspa", "comName": "Song Sparrow", "sciName": "Melospiza melodia", "locId": "L1064362", "locName": "McKinley Woods--Moose Island", "obsDt": "2025-12-31 11:16", "howMany": 1, "lat": 41.4124473, "lng": -88.2196999, "obsValid": true, "obsReviewed": false, "locationPrivate": false, "subId": "S291428403"}, {"speciesCode": "eucdov", "comName": "Eurasian Collared-Dove", "sciName": "Streptopelia decaocto", "locId": "L39593403", "locName": "Techni Rd. & John Kirkham Dr.", "obsDt": "2025-12-31 10:45", "howMany": 16, "lat": 41.6131336, "lng": -88.0891611, "obsValid": true, "obsReviewed": false, "locationPrivate": true, "subId": "S291444023", "exoticCategory": "N"}, {"speciesCode": "ambduc", "comName": "American Black Duck", "sciName": "Anas rubripes", "locId": "L801422", "locName": "Rock Run Rookery Preserve", "obsDt": "2025-12-31 10:04", "howMany": 1, "lat": 41.4689912, "lng": -88.1701026, "obsValid": true, "obsReviewed": false, "locationPrivate": false, "subId": "S291416616"}, {"speciesCode": "gresca", "comName": "Greater Scaup", "sciName": "Aythya marila", "locId": "L801422", "locName": "Rock Run Rookery Preserve", "obsDt": "2025-12-31 10:04", "howMany": 1, "lat": 41.4689912, "lng": -88.1701026, "obsValid": true, "obsReviewed": false, "locationPrivate": false, "subId": "S291416616"}, {"speciesCode": "lessca", "comName": "Lesser Scaup", "sciName": "Aythya affinis", "locId": "L801422", "locName": "Rock Run Rookery Preserve", "obsDt": "2025-12-31 10:04", "howMany": 4, "lat": 41.4689912, "lng": -88.1701026, "obsValid": true, "obsReviewed": false, "locationPrivate": false, "subId": "S291416616"}, {"speciesCode": "rebmer", "comName": "Red-breasted Merganser", "sciName": "Mergus serrator", "locId": "L801422", "locName": "Rock Run Rookery Preserve", "obsDt": "2025-12-31 10:04", "howMany": 4, "lat": 41.4689912, "lng": -88.1701026, "obsValid": true, "obsReviewed": false, "locationPrivate": false, "subId": "S291416616"}, {"speciesCode": "yerwar", "comName": "Yellow-rumped Warbler", "sciName": "Setophaga coronata", "locId": "L801422", "locName": "Rock Run Rookery Preserve", "obsDt": "2025-12-31 10:04", "howMany": 1, "lat": 41.4689912, "lng": -88.1701026, "obsValid": true, "obsReviewed": false, "locationPrivate": false, "subId": "S291416616"}, {"speciesCode": "foxspa", "comName": "Fox Sparrow", "sciName": "Passerella iliaca", "locId": "L16368777", "locName": "25912 W Timber Ridge Dr, Channahon US-IL 41.42399, -88.24084", "obsDt": "2025-12-31 09:40", "howMany": 1, "lat": 41.423985, "lng": -88.240839, "obsValid": true, "obsReviewed": false, "locationPrivate": true, "subId": "S291400837"}, {"speciesCode": "amewig", "comName": "American Wigeon", "sciName": "Mareca americana", "locId": "L801422", "locName": "Rock Run Rookery Preserve", "obsDt": "2025-12-31 08:46", "howMany": 1, "lat": 41.4689912, "lng": -88.1701026, "obsValid": true, "obsReviewed": false, "locationPrivate": false, "subId": "S291445240"}, {"speciesCode": "cedwax", "comName": "Cedar Waxwing", "sciName": "Bombycilla cedrorum", "locId": "L801422", "locName": "Rock Run Rookery Preserve", "obsDt": "2025-12-31 08:46", "howMany": 8, "lat": 41.4689912, "lng": -88.1701026, "obsValid": true, "obsReviewed": false, "locationPrivate": false, "subId": "S291445240"}, {"speciesCode": "rudduc", "comName": "Ruddy Duck", "sciName": "Oxyura jamaicensis", "locId": "L1085012", "locName": "Brandon Road Lock and Dam", "obsDt": "2025-12-31 08:35", "howMany": 11, "lat": 41.500221, "lng": -88.1034422, "obsValid": true, "obsReviewed": false, "locationPrivate": false, "subId": "S291443822"}]