[{"speciesCode": "houspa", "comName": "House Sparrow", "sciName": "Passer domesticus", "locId": "L18603136", "locName": "Applebees", "obsDt": "2025-12-04 17:16", "howMany": 1, "lat": 41.1597659, "lng": -87.8507778, "obsValid": true, "obsReviewed": false, "locationPrivate": true, "subId": "S287382355", "exoticCategory": "N"}, {"speciesCode": "daejun", "comName": "Dark-eyed Junco", "sciName": "Junco hyemalis", "locId": "L21714967", "locName": "Feeder", "obsDt": "2025-12-04 16:18", "howMany": 3, "lat": 41.1644667, "lng": -87.8347419, "obsValid": true, "obsReviewed": false, "locationPrivate": true, "subId": "S287438793"}, {"speciesCode": "moudov", "comName": "Mourning Dove", "sciName": "Zenaida macroura", "locId": "L13765492", "locName": "Home", "obsDt": "2025-12-04 15:38", "howMany": 2, "lat": 41.164451, "lng": -87.835035, "obsValid": true, "obsReviewed": false, "locationPrivate": true, "subId": "S287316782"}, {"speciesCode": "houfin", "comName": "House Finch", "sciName": "Haemorhous mexicanus", "locId": "L13765492", "locName": "Home", "obsDt": "2025-12-04 15:38", "howMany": 1, "lat": 41.164451, "lng": -87.835035, "obsValid": true, "obsReviewed": false, "locationPrivate": true, "subId": "S287316782", "exoticCategory": "N"}, {"speciesCode": "amegfi", "comName": "American Goldfinch", "sciName": "Spinus tristis", "locId": "L13765492", "locName": "Home", "obsDt": "2025-12-04 15:38", "howMany": 2, "lat": 41.164451, "lng": -87.835035, "obsValid": true, "obsReviewed": false, "locationPrivate": true, "subId": "S287316782"}, {"speciesCode": "cangoo", "comName": "Canada Goose", "sciName": "Branta canadensis", "locId": "L54875067", "locName": "Maternity BVM school", "obsDt": "2025-12-04 14:55", "howMany": 350, "lat": 41.157458, "lng": -87.875376, "obsValid": true, "obsReviewed": false, "locationPrivate": true, "subId": "S287310000"}, {"speciesCode": "sancra", "comName": "Sandhill Crane", "sciName": "Antigone canadensis", "locId": "L54875067", "locName": "Maternity BVM school", "obsDt": "2025-12-04 14:55", "howMany": 11, "lat": 41.157458, "lng": -87.875376, "obsValid": true, "obsReviewed": false, "locationPrivate": true, "subId": "S287310000"}, {"speciesCode": "coohaw", "comName": "Cooper's Hawk", "sciName": "Astur cooperii", "locId": "L54875067", "locName": "Maternity BVM school", "obsDt": "2025-12-04 14:55", "howMany": 1, "lat": 41.157458, "lng": -87.875376, "obsValid": true, "obsReviewed": false, "locationPrivate": true, "subId": "S287310000"}, {"speciesCode": "amecro", "comName": "American Crow", "sciName": "Corvus brachyrhynchos", "locId": "L54875067", "locName": "Maternity BVM school", "obsDt": "2025-12-04 14:55", "howMany": 1, "lat": 41.157458, "lng": -87.875376, "obsValid": true, "obsReviewed": false, "locationPrivate": true, "subId": "S287310000"}, {"speciesCode": "amtspa", "comName": "American Tree Sparrow", "sciName": "Spizelloides arborea", "locId": "L13765492", "locName": "Home", "obsDt": "2025-12-04 13:51", "howMany": 1, "lat": 41.164451, "lng": -87.835035, "obsValid": true, "obsReviewed": false, "locationPrivate": true, "subId": "S287382702"}, {"speciesCode": "dowwoo", "comName": "Downy Woodpecker", "sciName": "Dryobates pubescens", "locId": "L13505158", "locName": "Bird Nerd", "obsDt": "2025-12-04 12:28", "howMany": 1, "lat": 41.1084502, "lng": -87.9512693, "obsValid": true, "obsReviewed": false, "locationPrivate": true, "subId": "S287321443"}, {"speciesCode": "haiwoo", "comName": "Hairy Woodpecker", "sciName": "Leuconotopicus villosus", "locId": "L13505158", "locName": "Bird Nerd", "obsDt": "2025-12-04 12:28", "howMany": 1, "lat": 41.1084502, "lng": -87.9512693, "obsValid": true, "obsReviewed": false, "locationPrivate": true, "subId": "S287321443"}, {"speciesCode": "blujay", "comName": "Blue Jay", "sciName": "Cyanocitta cristata", "locId": "L13505158", "locName": "Bird Nerd", "obsDt": "2025-12-04 12:28", "howMany": 3, "lat": 41.1084502, "lng": -87.9512693, "obsValid": true, "obsReviewed": false, "locationPrivate": true, "subId": "S287321443"}, {"speciesCode": "bkcchi", "comName": "Black-capped Chickadee", "sciName": "Poecile atricapillus", "locId": "L13505158", "locName": "Bird Nerd", "obsDt": "2025-12-04 12:28", "howMany": 2, "lat": 41.1084502, "lng": -87.9512693, "obsValid": true, "obsReviewed": false, "locationPrivate": true, "subId": "S287321443"}, {"speciesCode": "whbnut", "comName": "White-breasted Nuthatch", "sciName": "Sitta carolinensis", "locId": "L13505158", "locName": "Bird Nerd", "obsDt": "2025-12-04 12:28", "howMany": 1, "lat": 41.1084502, "lng": -87.9512693, "obsValid": true, "obsReviewed": false, "locationPrivate": true, "subId": "S287321443"}, {"speciesCode": "carwre", "comName": "Carolina Wren", "sciName": "Thryothorus ludovicianus", "locId": "L13505158", "locName": "Bird Nerd", "obsDt": "2025-12-04 12:28", "howMany": 2, "lat": 41.1084502, "lng": -87.9512693, "obsValid": true, "obsReviewed": false, "locationPrivate": true, "subId": "S287321443"}, {"speciesCode": "norcar", "comName": "Northern Cardinal", "sciName": "Cardinalis cardinalis", "locId": "L13505158", "locName": "Bird Nerd", "obsDt": "2025-12-04 12:28", "howMany": 3, "lat": 41.1084502, "lng": -87.9512693, "obsValid": true, "obsReviewed": false, "locationPrivate": true, "subId": "S287321443"}, {"speciesCode": "tuftit", "comName": "Tufted Titmouse", "sciName": "Baeolophus bicolor", "locId": "L11202018", "locName": "Home", "obsDt": "2025-12-04 09:19", "howMany": 1, "lat": 41.190515, "lng": -87.9604199, "obsValid": true, "obsReviewed": false, "locationPrivate": true, "subId": "S287270933"}, {"speciesCode": "comgra", "comName": "Common Grackle", "sciName": "Quiscalus quiscula", "locId": "L11202018", "locName": "Home", "obsDt": "2025-12-04 09:19", "howMany": 2, "lat": 41.190515, "lng": -87.9604199, "obsValid": true, "obsReviewed": false, "locationPrivate": true, "subId": "S287270933"}, {"speciesCode": "redpol1", "comName": "Redpoll", "sciName": "Acanthis flammea", "locId": "L13765492", "locName": "Home", "obsDt": "2025-12-04 08:16", "howMany": 1, "lat": 41.164451, "lng": -87.835035, "obsValid": true, "obsReviewed": false, "locationPrivate": true, "subId": "S287279201"}, {"speciesCode": "yerwar", "comName": "Yellow-rumped Warbler", "sciName": "Setophaga coronata", "locId": "L13765492", "locName": "Home", "obsDt": "2025-12-04 08:16", "howMany": 1, "lat": 41.164451, "lng": -87.835035, "obsValid": true, "obsReviewed": false, "locationPrivate": true, "subId": "S287279201"}, {"speciesCode": "ruckin", "comName": "Ruby-crowned Kinglet", "sciName": "Corthylio calendula", "locId": "L13765492", "locName": "Home", "obsDt": "2025-12-04 07:23", "howMany": 1, "lat": 41.164451, "lng": -87.835035, "obsValid": true, "obsReviewed": false, "locationPrivate": true, "subId": "S287279193"}, {"speciesCode": "eursta", "comName": "European Starling", "sciName": "Sturnus vulgaris", "locId": "L13765492", "locName": "Home", "obsDt": "2025-12-04 07:23", "howMany": 2, "lat": 41.164451, "lng": -87.835035, "obsValid": true, "obsReviewed": false, "locationPrivate": true, "subId": "S287279193", "exoticCategory": "N"}, {"speciesCode": "amerob", "comName": "American Robin", "sciName": "Turdus migratorius", "locId": "L13765492", "locName": "Home", "obsDt": "2025-12-04 07:23", "howMany": 1, "lat": 41.164451, "lng": -87.835035, "obsValid": true, "obsReviewed": false, "locationPrivate": true, "subId": "S287279193"}, {"speciesCode": "rewbla", "comName": "Red-winged Blackbird", "sciName": "Agelaius phoeniceus", "locId": "L13765492", "locName": "Home", "obsDt": "2025-12-04 07:23", "howMany": 2, "lat": 41.164451, "lng": -87.835035, "obsValid": true, "obsReviewed": false, "locationPrivate": true, "subId": "S287279193"}, {"speciesCode": "bnhcow", "comName": "Brown-headed Cowbird", "sciName": "Molothrus ater", "locId": "L13765492", "locName": "Home", "obsDt": "2025-12-04 07:23", "howMany": 1, "lat": 41.164451, "lng": -87.835035, "obsValid": true, "obsReviewed": false, "locationPrivate": true, "subId": "S287279193"}]