[{"speciesCode": "cangoo", "comName": "Canada Goose", "sciName": "Branta canadensis", "locId": "L322155", "locName": "Moraine Hills SP--McHenry Dam", "obsDt": "2025-12-30 15:58", "howMany": 7, "lat": 42.3084966, "lng": -88.2494274, "obsValid": true, "obsReviewed": false, "locationPrivate": false, "subId": "S291261112"}, {"speciesCode": "mallar3", "comName": "Mallard", "sciName": "Anas platyrhynchos", "locId": "L322155", "locName": "Moraine Hills SP--McHenry Dam", "obsDt": "2025-12-30 15:58", "howMany": 2, "lat": 42.3084966, "lng": -88.2494274, "obsValid": true, "obsReviewed": false, "locationPrivate": false, "subId": "S291261112"}, {"speciesCode": "ambduc", "comName": "American Black Duck", "sciName": "Anas rubripes", "locId": "L322155", "locName": "Moraine Hills SP--McHenry Dam", "obsDt": "2025-12-30 15:58", "howMany": 4, "lat": 42.3084966, "lng": -88.2494274, "obsValid": true, "obsReviewed": false, "locationPrivate": false, "subId": "S291261112"}, {"speciesCode": "hoomer", "comName": "Hooded Merganser", "sciName": "Lophodytes cucullatus", "locId": "L322155", "locName": "Moraine Hills SP--McHenry Dam", "obsDt": "2025-12-30 15:58", "howMany": 10, "lat": 42.3084966, "lng": -88.2494274, "obsValid": true, "obsReviewed": false, "locationPrivate": false, "subId": "S291261112"}, {"speciesCode": "sancra", "comName": "Sandhill Crane", "sciName": "Antigone canadensis", "locId": "L322155", "locName": "Moraine Hills SP--McHenry Dam", "obsDt": "2025-12-30 15:58", "howMany": 7, "lat": 42.3084966, "lng": -88.2494274, "obsValid": true, "obsReviewed": false, "locationPrivate": false, "subId": "S291261112"}, {"speciesCode": "ribgul", "comName": "Ring-billed Gull", "sciName": "Larus delawarensis", "locId": "L322155", "locName": "Moraine Hills SP--McHenry Dam", "obsDt": "2025-12-30 15:58", "howMany": 1, "lat": 42.3084966, "lng": -88.2494274, "obsValid": true, "obsReviewed": false, "locationPrivate": false, "subId": "S291261112"}, {"speciesCode": "amhgul1", "comName": "American Herring Gull", "sciName": "Larus smithsonianus", "locId": "L322155", "locName": "Moraine Hills SP--McHenry Dam", "obsDt": "2025-12-30 15:58", "howMany": 1, "lat": 42.3084966, "lng": -88.2494274, "obsValid": true, "obsReviewed": false, "locationPrivate": false, "subId": "S291261112"}, {"speciesCode": "shshaw", "comName": "Sharp-shinned Hawk", "sciName": "Accipiter striatus", "locId": "L322155", "locName": "Moraine Hills SP--McHenry Dam", "obsDt": "2025-12-30 15:58", "howMany": 1, "lat": 42.3084966, "lng": -88.2494274, "obsValid": true, "obsReviewed": false, "locationPrivate": false, "subId": "S291261112"}, {"speciesCode": "baleag", "comName": "Bald Eagle", "sciName": "Haliaeetus leucocephalus", "locId": "L322155", "locName": "Moraine Hills SP--McHenry Dam", "obsDt": "2025-12-30 15:58", "howMany": 1, "lat": 42.3084966, "lng": -88.2494274, "obsValid": true, "obsReviewed": false, "locationPrivate": false, "subId": "S291261112"}, {"speciesCode": "eursta", "comName": "European Starling", "sciName": "Sturnus vulgaris", "locId": "L322155", "locName": "Moraine Hills SP--McHenry Dam", "obsDt": "2025-12-30 15:58", "howMany": 5, "lat": 42.3084966, "lng": -88.2494274, "obsValid": true, "obsReviewed": false, "locationPrivate": false, "subId": "S291261112", "exoticCategory": "N"}, {"speciesCode": "amtspa", "comName": "American Tree Sparrow", "sciName": "Spizelloides arborea", "locId": "L322155", "locName": "Moraine Hills SP--McHenry Dam", "obsDt": "2025-12-30 15:58", "howMany": 4, "lat": 42.3084966, "lng": -88.2494274, "obsValid": true, "obsReviewed": false, "locationPrivate": false, "subId": "S291261112"}, {"speciesCode": "daejun", "comName": "Dark-eyed Junco", "sciName": "Junco hyemalis", "locId": "L322155", "locName": "Moraine Hills SP--McHenry Dam", "obsDt": "2025-12-30 15:58", "howMany": 1, "lat": 42.3084966, "lng": -88.2494274, "obsValid": true, "obsReviewed": false, "locationPrivate": false, "subId": "S291261112"}, {"speciesCode": "rethaw", "comName": "Red-tailed Hawk", "sciName": "Buteo jamaicensis", "locId": "L152686", "locName": "Moraine Hills State Park", "obsDt": "2025-12-30 15:22", "howMany": 1, "lat": 42.3241, "lng": -88.2279, "obsValid": true, "obsReviewed": false, "locationPrivate": false, "subId": "S291256194"}, {"speciesCode": "bkcchi", "comName": "Black-capped Chickadee", "sciName": "Poecile atricapillus", "locId": "L152686", "locName": "Moraine Hills State Park", "obsDt": "2025-12-30 15:22", "howMany": 3, "lat": 42.3241, "lng": -88.2279, "obsValid": true, "obsReviewed": false, "locationPrivate": false, "subId": "S291256194"}, {"speciesCode": "whbnut", "comName": "White-breasted Nuthatch", "sciName": "Sitta carolinensis", "locId": "L152686", "locName": "Moraine Hills State Park", "obsDt": "2025-12-30 15:22", "howMany": 2, "lat": 42.3241, "lng": -88.2279, "obsValid": true, "obsReviewed": false, "locationPrivate": false, "subId": "S291256194"}, {"speciesCode": "houfin", "comName": "House Finch", "sciName": "Haemorhous mexicanus", "locId": "L152686", "locName": "Moraine Hills State Park", "obsDt": "2025-12-30 15:22", "howMany": 7, "lat": 42.3241, "lng": -88.2279, "obsValid": true, "obsReviewed": false, "locationPrivate": false, "subId": "S291256194", "exoticCategory": "N"}, {"speciesCode": "amegfi", "comName": "American Goldfinch", "sciName": "Spinus tristis", "locId": "L152686", "locName": "Moraine Hills State Park", "obsDt": "2025-12-30 15:22", "howMany": 1, "lat": 42.3241, "lng": -88.2279, "obsValid": true, "obsReviewed": false, "locationPrivate": false, "subId": "S291256194"}, {"speciesCode": "norcar", "comName": "Northern Cardinal", "sciName": "Cardinalis cardinalis", "locId": "L152686", "locName": "Moraine Hills State Park", "obsDt": "2025-12-30 15:22", "howMany": 6, "lat": 42.3241, "lng": -88.2279, "obsValid": true, "obsReviewed": false, "locationPrivate": false, "subId": "S291256194"}, {"speciesCode": "rinduc", "comName": "Ring-necked Duck", "sciName": "Aythya collaris", "locId": "L19284986", "locName": "Prairie Trail--Fox River to Souwanas Tr. (McHenry Co.)", "obsDt": "2025-12-30 14:31", "howMany": 1, "lat": 42.1616369, "lng": -88.2936728, "obsValid": true, "obsReviewed": false, "locationPrivate": false, "subId": "S291251369"}, {"speciesCode": "comgol", "comName": "Common Goldeneye", "sciName": "Bucephala clangula", "locId": "L19284986", "locName": "Prairie Trail--Fox River to Souwanas Tr. (McHenry Co.)", "obsDt": "2025-12-30 14:31", "howMany": 125, "lat": 42.1616369, "lng": -88.2936728, "obsValid": true, "obsReviewed": false, "locationPrivate": false, "subId": "S291251369"}, {"speciesCode": "houspa", "comName": "House Sparrow", "sciName": "Passer domesticus", "locId": "L19284986", "locName": "Prairie Trail--Fox River to Souwanas Tr. (McHenry Co.)", "obsDt": "2025-12-30 14:31", "howMany": 20, "lat": 42.1616369, "lng": -88.2936728, "obsValid": true, "obsReviewed": false, "locationPrivate": false, "subId": "S291251369", "exoticCategory": "N"}, {"speciesCode": "dowwoo", "comName": "Downy Woodpecker", "sciName": "Dryobates pubescens", "locId": "L14814133", "locName": "Home", "obsDt": "2025-12-30 13:21", "howMany": 1, "lat": 42.3894386, "lng": -88.2254847, "obsValid": true, "obsReviewed": false, "locationPrivate": true, "subId": "S291234847"}, {"speciesCode": "pinsis", "comName": "Pine Siskin", "sciName": "Spinus pinus", "locId": "L14814133", "locName": "Home", "obsDt": "2025-12-30 13:21", "howMany": 1, "lat": 42.3894386, "lng": -88.2254847, "obsValid": true, "obsReviewed": false, "locationPrivate": true, "subId": "S291234847"}, {"speciesCode": "moudov", "comName": "Mourning Dove", "sciName": "Zenaida macroura", "locId": "L9396416", "locName": "Algonquin yard", "obsDt": "2025-12-30 12:38", "howMany": 1, "lat": 42.161452, "lng": -88.300658, "obsValid": true, "obsReviewed": false, "locationPrivate": true, "subId": "S291228285"}, {"speciesCode": "amekes", "comName": "American Kestrel", "sciName": "Falco sparverius", "locId": "L160856", "locName": "Lippold Park, Crystal Lake", "obsDt": "2025-12-30 12:25", "howMany": 1, "lat": 42.24293, "lng": -88.3637, "obsValid": true, "obsReviewed": false, "locationPrivate": false, "subId": "S291222027"}, {"speciesCode": "amecro", "comName": "American Crow", "sciName": "Corvus brachyrhynchos", "locId": "L160856", "locName": "Lippold Park, Crystal Lake", "obsDt": "2025-12-30 12:25", "howMany": 1, "lat": 42.24293, "lng": -88.3637, "obsValid": true, "obsReviewed": false, "locationPrivate": false, "subId": "S291222027"}, {"speciesCode": "blujay", "comName": "Blue Jay", "sciName": "Cyanocitta cristata", "locId": "L3609378", "locName": "Hennen Conservation Area", "obsDt": "2025-12-30 11:30", "howMany": 2, "lat": 42.261388, "lng": -88.447723, "obsValid": true, "obsReviewed": false, "locationPrivate": false, "subId": "S291452359"}, {"speciesCode": "rebnut", "comName": "Red-breasted Nuthatch", "sciName": "Sitta canadensis", "locId": "L3609378", "locName": "Hennen Conservation Area", "obsDt": "2025-12-30 11:30", "howMany": 2, "lat": 42.261388, "lng": -88.447723, "obsValid": true, "obsReviewed": false, "locationPrivate": false, "subId": "S291452359"}, {"speciesCode": "brncre", "comName": "Brown Creeper", "sciName": "Certhia americana", "locId": "L3609378", "locName": "Hennen Conservation Area", "obsDt": "2025-12-30 11:30", "howMany": 1, "lat": 42.261388, "lng": -88.447723, "obsValid": true, "obsReviewed": false, "locationPrivate": false, "subId": "S291452359"}, {"speciesCode": "horlar", "comName": "Horned Lark", "sciName": "Eremophila alpestris", "locId": "L56571188", "locName": "23000\u201323900 Poplar Rd, Marengo US-IL 42.15348, -88.65601", "obsDt": "2025-12-30 11:13", "howMany": 2, "lat": 42.153479, "lng": -88.656015, "obsValid": true, "obsReviewed": false, "locationPrivate": true, "subId": "S291208588"}, {"speciesCode": "norhar2", "comName": "Northern Harrier", "sciName": "Circus hudsonius", "locId": "L7460230", "locName": "Chain-o-Lakes SP--West (McHenry Co.)", "obsDt": "2025-12-30 10:25", "howMany": 1, "lat": 42.4575798, "lng": -88.2051365, "obsValid": true, "obsReviewed": false, "locationPrivate": false, "subId": "S291198631"}, {"speciesCode": "winwre3", "comName": "Winter Wren", "sciName": "Troglodytes hiemalis", "locId": "L3610351", "locName": "Silver Creek Conservation Area", "obsDt": "2025-12-30 09:40", "howMany": 2, "lat": 42.242875, "lng": -88.22187, "obsValid": true, "obsReviewed": false, "locationPrivate": false, "subId": "S291249856"}, {"speciesCode": "easblu", "comName": "Eastern Bluebird", "sciName": "Sialia sialis", "locId": "L3610351", "locName": "Silver Creek Conservation Area", "obsDt": "2025-12-30 09:40", "howMany": 2, "lat": 42.242875, "lng": -88.22187, "obsValid": true, "obsReviewed": false, "locationPrivate": false, "subId": "S291249856"}, {"speciesCode": "amerob", "comName": "American Robin", "sciName": "Turdus migratorius", "locId": "L3610351", "locName": "Silver Creek Conservation Area", "obsDt": "2025-12-30 09:40", "howMany": 9, "lat": 42.242875, "lng": -88.22187, "obsValid": true, "obsReviewed": false, "locationPrivate": false, "subId": "S291249856"}, {"speciesCode": "whtspa", "comName": "White-throated Sparrow", "sciName": "Zonotrichia albicollis", "locId": "L3610351", "locName": "Silver Creek Conservation Area", "obsDt": "2025-12-30 09:40", "howMany": 1, "lat": 42.242875, "lng": -88.22187, "obsValid": true, "obsReviewed": false, "locationPrivate": false, "subId": "S291249856"}, {"speciesCode": "rebwoo", "comName": "Red-bellied Woodpecker", "sciName": "Melanerpes carolinus", "locId": "L55641623", "locName": "5018 North Brookshire Drive, McHenry, Illinois, US (42.4, -88.267)", "obsDt": "2025-12-30 09:15", "howMany": 2, "lat": 42.3999373, "lng": -88.2666329, "obsValid": true, "obsReviewed": false, "locationPrivate": true, "subId": "S291187416"}, {"speciesCode": "bnhcow", "comName": "Brown-headed Cowbird", "sciName": "Molothrus ater", "locId": "L55641623", "locName": "5018 North Brookshire Drive, McHenry, Illinois, US (42.4, -88.267)", "obsDt": "2025-12-30 09:15", "howMany": 1, "lat": 42.3999373, "lng": -88.2666329, "obsValid": true, "obsReviewed": false, "locationPrivate": true, "subId": "S291187416"}, {"speciesCode": "purfin", "comName": "Purple Finch", "sciName": "Haemorhous purpureus", "locId": "L3742591", "locName": "Gurgone, Bull Valley", "obsDt": "2025-12-30 08:21", "howMany": 7, "lat": 42.3381369, "lng": -88.353697, "obsValid": true, "obsReviewed": false, "locationPrivate": true, "subId": "S291182320"}, {"speciesCode": "mutswa", "comName": "Mute Swan", "sciName": "Cygnus olor", "locId": "L38373758", "locName": "Pistakee Yacht Club", "obsDt": "2025-12-30 07:28", "howMany": 1, "lat": 42.3738739, "lng": -88.2184865, "obsValid": true, "obsReviewed": false, "locationPrivate": true, "subId": "S291163147", "exoticCategory": "N"}, {"speciesCode": "easowl1", "comName": "Eastern Screech-Owl", "sciName": "Megascops asio", "locId": "L4376875", "locName": "Pistakee Lake--Bald Knob", "obsDt": "2025-12-30 06:32", "howMany": 1, "lat": 42.3850813, "lng": -88.2065463, "obsValid": true, "obsReviewed": false, "locationPrivate": false, "subId": "S291154351"}, {"speciesCode": "grhowl", "comName": "Great Horned Owl", "sciName": "Bubo virginianus", "locId": "L30138898", "locName": "3203 North Bayview Lane, McHenry, Illinois, US (42.372, -88.202)", "obsDt": "2025-12-30 05:31", "howMany": 2, "lat": 42.3716541, "lng": -88.2022467, "obsValid": true, "obsReviewed": false, "locationPrivate": true, "subId": "S291149338"}]