[{"speciesCode": "grhowl", "comName": "Great Horned Owl", "sciName": "Bubo virginianus", "locId": "L11194826", "locName": "Peterson Park", "obsDt": "2025-12-24 16:57", "howMany": 2, "lat": 41.9884691, "lng": -87.7203715, "obsValid": true, "obsReviewed": false, "locationPrivate": false, "subId": "S290068548"}, {"speciesCode": "houspa", "comName": "House Sparrow", "sciName": "Passer domesticus", "locId": "L11194826", "locName": "Peterson Park", "obsDt": "2025-12-24 16:57", "howMany": 10, "lat": 41.9884691, "lng": -87.7203715, "obsValid": true, "obsReviewed": false, "locationPrivate": false, "subId": "S290068548", "exoticCategory": "N"}, {"speciesCode": "mallar3", "comName": "Mallard", "sciName": "Anas platyrhynchos", "locId": "L56101634", "locName": "Blake Lane, Glenview", "obsDt": "2025-12-24 16:53", "howMany": 3, "lat": 42.0996596, "lng": -87.8571698, "obsValid": true, "obsReviewed": false, "locationPrivate": true, "subId": "S290063489"}, {"speciesCode": "rebmer", "comName": "Red-breasted Merganser", "sciName": "Mergus serrator", "locId": "L161180", "locName": "Montrose Point Bird Sanctuary, Lincoln Park", "obsDt": "2025-12-24 16:24", "howMany": 4, "lat": 41.9633833, "lng": -87.6344204, "obsValid": true, "obsReviewed": false, "locationPrivate": false, "subId": "S290056828"}, {"speciesCode": "amerob", "comName": "American Robin", "sciName": "Turdus migratorius", "locId": "L56295927", "locName": "North Park University, Chicago US-IL 41.97367, -87.71116", "obsDt": "2025-12-24 16:14", "howMany": 1, "lat": 41.973667, "lng": -87.711156, "obsValid": true, "obsReviewed": false, "locationPrivate": true, "subId": "S290058677"}, {"speciesCode": "amtspa", "comName": "American Tree Sparrow", "sciName": "Spizelloides arborea", "locId": "L56295927", "locName": "North Park University, Chicago US-IL 41.97367, -87.71116", "obsDt": "2025-12-24 16:14", "howMany": 1, "lat": 41.973667, "lng": -87.711156, "obsValid": true, "obsReviewed": false, "locationPrivate": true, "subId": "S290058677"}, {"speciesCode": "whtspa", "comName": "White-throated Sparrow", "sciName": "Zonotrichia albicollis", "locId": "L56295927", "locName": "North Park University, Chicago US-IL 41.97367, -87.71116", "obsDt": "2025-12-24 16:14", "howMany": 1, "lat": 41.973667, "lng": -87.711156, "obsValid": true, "obsReviewed": false, "locationPrivate": true, "subId": "S290058677"}, {"speciesCode": "norcar", "comName": "Northern Cardinal", "sciName": "Cardinalis cardinalis", "locId": "L56295927", "locName": "North Park University, Chicago US-IL 41.97367, -87.71116", "obsDt": "2025-12-24 16:14", "howMany": 1, "lat": 41.973667, "lng": -87.711156, "obsValid": true, "obsReviewed": false, "locationPrivate": true, "subId": "S290058677"}, {"speciesCode": "cangoo", "comName": "Canada Goose", "sciName": "Branta canadensis", "locId": "L656262", "locName": "Stotz yard", "obsDt": "2025-12-24 16:10", "howMany": 4, "lat": 41.8437129, "lng": -87.8940502, "obsValid": true, "obsReviewed": false, "locationPrivate": true, "subId": "S290121946"}, {"speciesCode": "moudov", "comName": "Mourning Dove", "sciName": "Zenaida macroura", "locId": "L656262", "locName": "Stotz yard", "obsDt": "2025-12-24 16:10", "howMany": 3, "lat": 41.8437129, "lng": -87.8940502, "obsValid": true, "obsReviewed": false, "locationPrivate": true, "subId": "S290121946"}, {"speciesCode": "dowwoo", "comName": "Downy Woodpecker", "sciName": "Dryobates pubescens", "locId": "L656262", "locName": "Stotz yard", "obsDt": "2025-12-24 16:10", "howMany": 1, "lat": 41.8437129, "lng": -87.8940502, "obsValid": true, "obsReviewed": false, "locationPrivate": true, "subId": "S290121946"}, {"speciesCode": "eursta", "comName": "European Starling", "sciName": "Sturnus vulgaris", "locId": "L656262", "locName": "Stotz yard", "obsDt": "2025-12-24 16:10", "howMany": 3, "lat": 41.8437129, "lng": -87.8940502, "obsValid": true, "obsReviewed": false, "locationPrivate": true, "subId": "S290121946", "exoticCategory": "N"}, {"speciesCode": "amegfi", "comName": "American Goldfinch", "sciName": "Spinus tristis", "locId": "L656262", "locName": "Stotz yard", "obsDt": "2025-12-24 16:10", "howMany": 1, "lat": 41.8437129, "lng": -87.8940502, "obsValid": true, "obsReviewed": false, "locationPrivate": true, "subId": "S290121946"}, {"speciesCode": "daejun", "comName": "Dark-eyed Junco", "sciName": "Junco hyemalis", "locId": "L656262", "locName": "Stotz yard", "obsDt": "2025-12-24 16:10", "howMany": 1, "lat": 41.8437129, "lng": -87.8940502, "obsValid": true, "obsReviewed": false, "locationPrivate": true, "subId": "S290121946"}, {"speciesCode": "amewig", "comName": "American Wigeon", "sciName": "Mareca americana", "locId": "L552730", "locName": "River Park", "obsDt": "2025-12-24 15:56", "howMany": 1, "lat": 41.9739848, "lng": -87.7039111, "obsValid": true, "obsReviewed": false, "locationPrivate": false, "subId": "S290074263"}, {"speciesCode": "belkin1", "comName": "Belted Kingfisher", "sciName": "Megaceryle alcyon", "locId": "L552730", "locName": "River Park", "obsDt": "2025-12-24 15:56", "howMany": 1, "lat": 41.9739848, "lng": -87.7039111, "obsValid": true, "obsReviewed": false, "locationPrivate": false, "subId": "S290074263"}, {"speciesCode": "comgol", "comName": "Common Goldeneye", "sciName": "Bucephala clangula", "locId": "L2057479", "locName": "Montrose Harbor", "obsDt": "2025-12-24 15:55", "howMany": 40, "lat": 41.9614367, "lng": -87.6386046, "obsValid": true, "obsReviewed": false, "locationPrivate": false, "subId": "S290057544"}, {"speciesCode": "y00475", "comName": "American Coot", "sciName": "Fulica americana", "locId": "L2057479", "locName": "Montrose Harbor", "obsDt": "2025-12-24 15:55", "howMany": 1, "lat": 41.9614367, "lng": -87.6386046, "obsValid": true, "obsReviewed": false, "locationPrivate": false, "subId": "S290057544"}, {"speciesCode": "ribgul", "comName": "Ring-billed Gull", "sciName": "Larus delawarensis", "locId": "L2057479", "locName": "Montrose Harbor", "obsDt": "2025-12-24 15:55", "howMany": 20, "lat": 41.9614367, "lng": -87.6386046, "obsValid": true, "obsReviewed": false, "locationPrivate": false, "subId": "S290057544"}, {"speciesCode": "comloo", "comName": "Common Loon", "sciName": "Gavia immer", "locId": "L108497", "locName": "Axehead Lake/Chippewa Woods", "obsDt": "2025-12-24 15:49", "howMany": 1, "lat": 42.007636, "lng": -87.8646934, "obsValid": true, "obsReviewed": true, "locationPrivate": false, "subId": "S290056498"}, {"speciesCode": "rocpig", "comName": "Rock Pigeon", "sciName": "Columba livia", "locId": "L1453653", "locName": "Sag Quarries", "obsDt": "2025-12-24 15:44", "howMany": 3, "lat": 41.6927688, "lng": -87.9329488, "obsValid": true, "obsReviewed": false, "locationPrivate": false, "subId": "S292877181", "exoticCategory": "N"}, {"speciesCode": "easowl1", "comName": "Eastern Screech-Owl", "sciName": "Megascops asio", "locId": "L165597", "locName": "Lincoln Park (general)", "obsDt": "2025-12-24 15:40", "howMany": 1, "lat": 41.92284, "lng": -87.6336, "obsValid": true, "obsReviewed": true, "locationPrivate": false, "subId": "S290068734"}, {"speciesCode": "rethaw", "comName": "Red-tailed Hawk", "sciName": "Buteo jamaicensis", "locId": "L339153", "locName": "Thaddeus S. Lechowicz Woods", "obsDt": "2025-12-24 15:30", "howMany": 1, "lat": 41.9883626, "lng": -87.7628692, "obsValid": true, "obsReviewed": false, "locationPrivate": false, "subId": "S290055846"}, {"speciesCode": "rebwoo", "comName": "Red-bellied Woodpecker", "sciName": "Melanerpes carolinus", "locId": "L339153", "locName": "Thaddeus S. Lechowicz Woods", "obsDt": "2025-12-24 15:30", "howMany": 1, "lat": 41.9883626, "lng": -87.7628692, "obsValid": true, "obsReviewed": false, "locationPrivate": false, "subId": "S290055846"}, {"speciesCode": "haiwoo", "comName": "Hairy Woodpecker", "sciName": "Leuconotopicus villosus", "locId": "L339153", "locName": "Thaddeus S. Lechowicz Woods", "obsDt": "2025-12-24 15:30", "howMany": 1, "lat": 41.9883626, "lng": -87.7628692, "obsValid": true, "obsReviewed": false, "locationPrivate": false, "subId": "S290055846"}, {"speciesCode": "coohaw", "comName": "Cooper's Hawk", "sciName": "Astur cooperii", "locId": "L14728286", "locName": "Home", "obsDt": "2025-12-24 15:26", "howMany": 1, "lat": 41.5869489, "lng": -87.610162, "obsValid": true, "obsReviewed": false, "locationPrivate": true, "subId": "S290049270"}, {"speciesCode": "amhgul1", "comName": "American Herring Gull", "sciName": "Larus smithsonianus", "locId": "L6980773", "locName": "Legion Park", "obsDt": "2025-12-24 15:02", "howMany": 3, "lat": 41.9842495, "lng": -87.7065825, "obsValid": true, "obsReviewed": false, "locationPrivate": false, "subId": "S290082144"}, {"speciesCode": "grbher3", "comName": "Great Blue Heron", "sciName": "Ardea herodias", "locId": "L6980773", "locName": "Legion Park", "obsDt": "2025-12-24 15:02", "howMany": 1, "lat": 41.9842495, "lng": -87.7065825, "obsValid": true, "obsReviewed": false, "locationPrivate": false, "subId": "S290082144"}, {"speciesCode": "blujay", "comName": "Blue Jay", "sciName": "Cyanocitta cristata", "locId": "L6980773", "locName": "Legion Park", "obsDt": "2025-12-24 15:02", "howMany": 2, "lat": 41.9842495, "lng": -87.7065825, "obsValid": true, "obsReviewed": false, "locationPrivate": false, "subId": "S290082144"}, {"speciesCode": "amecro", "comName": "American Crow", "sciName": "Corvus brachyrhynchos", "locId": "L6980773", "locName": "Legion Park", "obsDt": "2025-12-24 15:02", "howMany": 4, "lat": 41.9842495, "lng": -87.7065825, "obsValid": true, "obsReviewed": false, "locationPrivate": false, "subId": "S290082144"}, {"speciesCode": "bkcchi", "comName": "Black-capped Chickadee", "sciName": "Poecile atricapillus", "locId": "L6980773", "locName": "Legion Park", "obsDt": "2025-12-24 15:02", "howMany": 1, "lat": 41.9842495, "lng": -87.7065825, "obsValid": true, "obsReviewed": false, "locationPrivate": false, "subId": "S290082144"}, {"speciesCode": "whbnut", "comName": "White-breasted Nuthatch", "sciName": "Sitta carolinensis", "locId": "L6980773", "locName": "Legion Park", "obsDt": "2025-12-24 15:02", "howMany": 2, "lat": 41.9842495, "lng": -87.7065825, "obsValid": true, "obsReviewed": false, "locationPrivate": false, "subId": "S290082144"}, {"speciesCode": "whcspa", "comName": "White-crowned Sparrow", "sciName": "Zonotrichia leucophrys", "locId": "L6980773", "locName": "Legion Park", "obsDt": "2025-12-24 15:02", "howMany": 3, "lat": 41.9842495, "lng": -87.7065825, "obsValid": true, "obsReviewed": false, "locationPrivate": false, "subId": "S290082144"}, {"speciesCode": "amekes", "comName": "American Kestrel", "sciName": "Falco sparverius", "locId": "L1573785", "locName": "Lincoln Park Zoo", "obsDt": "2025-12-24 15:01", "howMany": 1, "lat": 41.9207287, "lng": -87.6327196, "obsValid": true, "obsReviewed": false, "locationPrivate": false, "subId": "S290234097"}, {"speciesCode": "reshaw", "comName": "Red-shouldered Hawk", "sciName": "Buteo lineatus", "locId": "L125232", "locName": "Spring Valley Nature Sanctuary", "obsDt": "2025-12-24 14:48", "howMany": 1, "lat": 42.0252918, "lng": -88.0556774, "obsValid": true, "obsReviewed": false, "locationPrivate": false, "subId": "S290051129"}, {"speciesCode": "commer", "comName": "Common Merganser", "sciName": "Mergus merganser", "locId": "L351831", "locName": "Burnham Park--Promontory Point", "obsDt": "2025-12-24 14:30", "howMany": 6, "lat": 41.7960139, "lng": -87.5765064, "obsValid": true, "obsReviewed": false, "locationPrivate": false, "subId": "S290039657"}, {"speciesCode": "perfal", "comName": "Peregrine Falcon", "sciName": "Falco peregrinus", "locId": "L552730", "locName": "River Park", "obsDt": "2025-12-24 14:13", "howMany": 1, "lat": 41.9739848, "lng": -87.7039111, "obsValid": true, "obsReviewed": false, "locationPrivate": false, "subId": "S290043775"}, {"speciesCode": "rebnut", "comName": "Red-breasted Nuthatch", "sciName": "Sitta canadensis", "locId": "L552730", "locName": "River Park", "obsDt": "2025-12-24 14:13", "howMany": 1, "lat": 41.9739848, "lng": -87.7039111, "obsValid": true, "obsReviewed": false, "locationPrivate": false, "subId": "S290043775"}, {"speciesCode": "brncre", "comName": "Brown Creeper", "sciName": "Certhia americana", "locId": "L509700", "locName": "Teasons Woods Forest Preserve", "obsDt": "2025-12-24 14:10", "howMany": 1, "lat": 41.6840021, "lng": -87.8734589, "obsValid": true, "obsReviewed": false, "locationPrivate": false, "subId": "S290045151"}, {"speciesCode": "easblu", "comName": "Eastern Bluebird", "sciName": "Sialia sialis", "locId": "L509700", "locName": "Teasons Woods Forest Preserve", "obsDt": "2025-12-24 14:10", "howMany": 4, "lat": 41.6840021, "lng": -87.8734589, "obsValid": true, "obsReviewed": false, "locationPrivate": false, "subId": "S290045151"}, {"speciesCode": "houfin", "comName": "House Finch", "sciName": "Haemorhous mexicanus", "locId": "L509700", "locName": "Teasons Woods Forest Preserve", "obsDt": "2025-12-24 14:10", "howMany": 3, "lat": 41.6840021, "lng": -87.8734589, "obsValid": true, "obsReviewed": false, "locationPrivate": false, "subId": "S290045151", "exoticCategory": "N"}, {"speciesCode": "sonspa", "comName": "Song Sparrow", "sciName": "Melospiza melodia", "locId": "L509700", "locName": "Teasons Woods Forest Preserve", "obsDt": "2025-12-24 14:10", "howMany": 1, "lat": 41.6840021, "lng": -87.8734589, "obsValid": true, "obsReviewed": false, "locationPrivate": false, "subId": "S290045151"}, {"speciesCode": "horgre", "comName": "Horned Grebe", "sciName": "Podiceps auritus", "locId": "L1815416", "locName": "Glencoe Lakefront Park, Glencoe", "obsDt": "2025-12-24 13:45", "howMany": 1, "lat": 42.1383126, "lng": -87.7505758, "obsValid": true, "obsReviewed": false, "locationPrivate": false, "subId": "S290032060"}, {"speciesCode": "redhea", "comName": "Redhead", "sciName": "Aythya americana", "locId": "L2598668", "locName": "Burnham Park South--47th to 56th Streets", "obsDt": "2025-12-24 13:44", "howMany": 12, "lat": 41.8035663, "lng": -87.5802612, "obsValid": true, "obsReviewed": false, "locationPrivate": false, "subId": "S290037727"}, {"speciesCode": "lessca", "comName": "Lesser Scaup", "sciName": "Aythya affinis", "locId": "L2598668", "locName": "Burnham Park South--47th to 56th Streets", "obsDt": "2025-12-24 13:44", "howMany": 100, "lat": 41.8035663, "lng": -87.5802612, "obsValid": true, "obsReviewed": false, "locationPrivate": false, "subId": "S290037727"}, {"speciesCode": "ambduc", "comName": "American Black Duck", "sciName": "Anas rubripes", "locId": "L161180", "locName": "Montrose Point Bird Sanctuary, Lincoln Park", "obsDt": "2025-12-24 13:38", "howMany": 1, "lat": 41.9633833, "lng": -87.6344204, "obsValid": true, "obsReviewed": false, "locationPrivate": false, "subId": "S290075029"}, {"speciesCode": "cedwax", "comName": "Cedar Waxwing", "sciName": "Bombycilla cedrorum", "locId": "L122298", "locName": "Little Red Schoolhouse Nature Center", "obsDt": "2025-12-24 13:33", "howMany": 3, "lat": 41.709155, "lng": -87.8770047, "obsValid": true, "obsReviewed": false, "locationPrivate": false, "subId": "S290044668"}, {"speciesCode": "buffle", "comName": "Bufflehead", "sciName": "Bucephala albeola", "locId": "L152641", "locName": "Gillson Park", "obsDt": "2025-12-24 13:10", "howMany": 1, "lat": 42.078, "lng": -87.6819, "obsValid": true, "obsReviewed": false, "locationPrivate": false, "subId": "S290029589"}, {"speciesCode": "hoomer", "comName": "Hooded Merganser", "sciName": "Lophodytes cucullatus", "locId": "L152641", "locName": "Gillson Park", "obsDt": "2025-12-24 13:10", "howMany": 6, "lat": 42.078, "lng": -87.6819, "obsValid": true, "obsReviewed": false, "locationPrivate": false, "subId": "S290029589"}, {"speciesCode": "monpar", "comName": "Monk Parakeet", "sciName": "Myiopsitta monachus", "locId": "L17348432", "locName": "Chicago Monk Parakeet Colonies", "obsDt": "2025-12-24 13:03", "howMany": 48, "lat": 41.714599, "lng": -87.5377875, "obsValid": true, "obsReviewed": false, "locationPrivate": false, "subId": "S290053186", "exoticCategory": "N"}, {"speciesCode": "norfli", "comName": "Northern Flicker", "sciName": "Colaptes auratus", "locId": "L679333", "locName": "Memorial Park Cemetery", "obsDt": "2025-12-24 12:42", "howMany": 1, "lat": 42.0601904, "lng": -87.7402496, "obsValid": true, "obsReviewed": false, "locationPrivate": false, "subId": "S290042536"}, {"speciesCode": "merlin", "comName": "Merlin", "sciName": "Falco columbarius", "locId": "L679333", "locName": "Memorial Park Cemetery", "obsDt": "2025-12-24 12:42", "howMany": 1, "lat": 42.0601904, "lng": -87.7402496, "obsValid": true, "obsReviewed": false, "locationPrivate": false, "subId": "S290042536"}, {"speciesCode": "herthr", "comName": "Hermit Thrush", "sciName": "Catharus guttatus", "locId": "L679333", "locName": "Memorial Park Cemetery", "obsDt": "2025-12-24 12:42", "howMany": 1, "lat": 42.0601904, "lng": -87.7402496, "obsValid": true, "obsReviewed": false, "locationPrivate": false, "subId": "S290042536"}, {"speciesCode": "pinsis", "comName": "Pine Siskin", "sciName": "Spinus pinus", "locId": "L679333", "locName": "Memorial Park Cemetery", "obsDt": "2025-12-24 12:42", "howMany": 15, "lat": 42.0601904, "lng": -87.7402496, "obsValid": true, "obsReviewed": false, "locationPrivate": false, "subId": "S290042536"}, {"speciesCode": "foxspa", "comName": "Fox Sparrow", "sciName": "Passerella iliaca", "locId": "L679333", "locName": "Memorial Park Cemetery", "obsDt": "2025-12-24 12:42", "howMany": 1, "lat": 42.0601904, "lng": -87.7402496, "obsValid": true, "obsReviewed": false, "locationPrivate": false, "subId": "S290042536"}, {"speciesCode": "yerwar", "comName": "Yellow-rumped Warbler", "sciName": "Setophaga coronata", "locId": "L12159942", "locName": "Ardmore Manor", "obsDt": "2025-12-24 12:10", "howMany": 1, "lat": 41.9861008, "lng": -87.7648024, "obsValid": true, "obsReviewed": false, "locationPrivate": true, "subId": "S290055515"}, {"speciesCode": "cacgoo1", "comName": "Cackling Goose", "sciName": "Branta hutchinsii", "locId": "L289205", "locName": "Lemont Quarries (Cook Co.)", "obsDt": "2025-12-24 11:52", "howMany": 1, "lat": 41.6822668, "lng": -87.9812559, "obsValid": true, "obsReviewed": false, "locationPrivate": false, "subId": "S290073209"}, {"speciesCode": "norsho", "comName": "Northern Shoveler", "sciName": "Spatula clypeata", "locId": "L289205", "locName": "Lemont Quarries (Cook Co.)", "obsDt": "2025-12-24 11:52", "howMany": 18, "lat": 41.6822668, "lng": -87.9812559, "obsValid": true, "obsReviewed": true, "locationPrivate": false, "subId": "S290073209"}, {"speciesCode": "gadwal", "comName": "Gadwall", "sciName": "Mareca strepera", "locId": "L289205", "locName": "Lemont Quarries (Cook Co.)", "obsDt": "2025-12-24 11:52", "howMany": 9, "lat": 41.6822668, "lng": -87.9812559, "obsValid": true, "obsReviewed": false, "locationPrivate": false, "subId": "S290073209"}, {"speciesCode": "rinduc", "comName": "Ring-necked Duck", "sciName": "Aythya collaris", "locId": "L289205", "locName": "Lemont Quarries (Cook Co.)", "obsDt": "2025-12-24 11:52", "howMany": 2, "lat": 41.6822668, "lng": -87.9812559, "obsValid": true, "obsReviewed": false, "locationPrivate": false, "subId": "S290073209"}, {"speciesCode": "baleag", "comName": "Bald Eagle", "sciName": "Haliaeetus leucocephalus", "locId": "L289205", "locName": "Lemont Quarries (Cook Co.)", "obsDt": "2025-12-24 11:52", "howMany": 2, "lat": 41.6822668, "lng": -87.9812559, "obsValid": true, "obsReviewed": false, "locationPrivate": false, "subId": "S290073209"}, {"speciesCode": "rolhaw", "comName": "Rough-legged Hawk", "sciName": "Buteo lagopus", "locId": "L289205", "locName": "Lemont Quarries (Cook Co.)", "obsDt": "2025-12-24 11:52", "howMany": 1, "lat": 41.6822668, "lng": -87.9812559, "obsValid": true, "obsReviewed": false, "locationPrivate": false, "subId": "S290073209"}, {"speciesCode": "norpin", "comName": "Northern Pintail", "sciName": "Anas acuta", "locId": "L573817", "locName": "Harbert-Payne Park", "obsDt": "2025-12-24 11:21", "howMany": 1, "lat": 42.037628, "lng": -87.7095222, "obsValid": true, "obsReviewed": false, "locationPrivate": false, "subId": "S290010881"}, {"speciesCode": "gresca", "comName": "Greater Scaup", "sciName": "Aythya marila", "locId": "L3934103", "locName": "Park No. 566", "obsDt": "2025-12-24 11:20", "howMany": 54, "lat": 41.7487879, "lng": -87.5365198, "obsValid": true, "obsReviewed": false, "locationPrivate": false, "subId": "S290017929"}, {"speciesCode": "gockin", "comName": "Golden-crowned Kinglet", "sciName": "Regulus satrapa", "locId": "L56284460", "locName": "Plank Road Meadow Canoe Landing 60534, Lyons US-IL (41.8177,-87.8320)", "obsDt": "2025-12-24 11:07", "howMany": 1, "lat": 41.817745, "lng": -87.831963, "obsValid": true, "obsReviewed": false, "locationPrivate": true, "subId": "S290009385"}, {"speciesCode": "lotduc", "comName": "Long-tailed Duck", "sciName": "Clangula hyemalis", "locId": "L2057479", "locName": "Montrose Harbor", "obsDt": "2025-12-24 10:55", "howMany": 1, "lat": 41.9614367, "lng": -87.6386046, "obsValid": true, "obsReviewed": false, "locationPrivate": false, "subId": "S290744530"}, {"speciesCode": "bnhcow", "comName": "Brown-headed Cowbird", "sciName": "Molothrus ater", "locId": "L161180", "locName": "Montrose Point Bird Sanctuary, Lincoln Park", "obsDt": "2025-12-24 10:51", "howMany": 1, "lat": 41.9633833, "lng": -87.6344204, "obsValid": true, "obsReviewed": false, "locationPrivate": false, "subId": "S290082120"}, {"speciesCode": "shshaw", "comName": "Sharp-shinned Hawk", "sciName": "Accipiter striatus", "locId": "L56307620", "locName": "North Park University, Chicago US-IL (41.9725,-87.7114)", "obsDt": "2025-12-24 10:47", "howMany": 1, "lat": 41.972457, "lng": -87.711445, "obsValid": true, "obsReviewed": false, "locationPrivate": true, "subId": "S290106947"}, {"speciesCode": "carwre", "comName": "Carolina Wren", "sciName": "Thryothorus ludovicianus", "locId": "L56307620", "locName": "North Park University, Chicago US-IL (41.9725,-87.7114)", "obsDt": "2025-12-24 10:47", "howMany": 1, "lat": 41.972457, "lng": -87.711445, "obsValid": true, "obsReviewed": false, "locationPrivate": true, "subId": "S290106947"}, {"speciesCode": "y00478", "comName": "Iceland Gull", "sciName": "Larus glaucoides", "locId": "L2057479", "locName": "Montrose Harbor", "obsDt": "2025-12-24 10:10", "howMany": 1, "lat": 41.9614367, "lng": -87.6386046, "obsValid": true, "obsReviewed": false, "locationPrivate": false, "subId": "S290082009"}, {"speciesCode": "x00004", "comName": "Mallard x American Black Duck (hybrid)", "sciName": "Anas platyrhynchos x rubripes", "locId": "L552730", "locName": "River Park", "obsDt": "2025-12-24 09:44", "howMany": 1, "lat": 41.9739848, "lng": -87.7039111, "obsValid": true, "obsReviewed": false, "locationPrivate": false, "subId": "S290001135"}, {"speciesCode": "swaspa", "comName": "Swamp Sparrow", "sciName": "Melospiza georgiana", "locId": "L108479", "locName": "Columbus Park", "obsDt": "2025-12-24 08:29", "howMany": 2, "lat": 41.8751829, "lng": -87.7698144, "obsValid": true, "obsReviewed": false, "locationPrivate": false, "subId": "S290066241"}, {"speciesCode": "winwre3", "comName": "Winter Wren", "sciName": "Troglodytes hiemalis", "locId": "L724602", "locName": "Salt Creek Woods Nature Preserve", "obsDt": "2025-12-24 08:15", "howMany": 1, "lat": 41.8283222, "lng": -87.8887367, "obsValid": true, "obsReviewed": false, "locationPrivate": false, "subId": "S290003136"}, {"speciesCode": "wooduc", "comName": "Wood Duck", "sciName": "Aix sponsa", "locId": "L56283575", "locName": "Sunset Bridge Meadow 60171, River Grove US-IL 41.90960, -87.83227", "obsDt": "2025-12-24 08:11", "howMany": 6, "lat": 41.909598, "lng": -87.832272, "obsValid": true, "obsReviewed": false, "locationPrivate": true, "subId": "S290005247"}, {"speciesCode": "norhar2", "comName": "Northern Harrier", "sciName": "Circus hudsonius", "locId": "L224192", "locName": "Killdeer (Tinley Creek) Wetlands", "obsDt": "2025-12-24 08:07", "howMany": 5, "lat": 41.5439, "lng": -87.7545, "obsValid": true, "obsReviewed": false, "locationPrivate": false, "subId": "S289972267"}, {"speciesCode": "whwsco2", "comName": "White-winged Scoter", "sciName": "Melanitta deglandi", "locId": "L161180", "locName": "Montrose Point Bird Sanctuary, Lincoln Park", "obsDt": "2025-12-24 08:02", "howMany": 2, "lat": 41.9633833, "lng": -87.6344204, "obsValid": true, "obsReviewed": false, "locationPrivate": false, "subId": "S290000656"}, {"speciesCode": "retloo", "comName": "Red-throated Loon", "sciName": "Gavia stellata", "locId": "L161180", "locName": "Montrose Point Bird Sanctuary, Lincoln Park", "obsDt": "2025-12-24 08:02", "howMany": 1, "lat": 41.9633833, "lng": -87.6344204, "obsValid": true, "obsReviewed": false, "locationPrivate": false, "subId": "S290000656"}, {"speciesCode": "snobun", "comName": "Snow Bunting", "sciName": "Plectrophenax nivalis", "locId": "L161180", "locName": "Montrose Point Bird Sanctuary, Lincoln Park", "obsDt": "2025-12-24 08:02", "howMany": 2, "lat": 41.9633833, "lng": -87.6344204, "obsValid": true, "obsReviewed": false, "locationPrivate": false, "subId": "S290000656"}, {"speciesCode": "gnwtea", "comName": "Green-winged Teal", "sciName": "Anas crecca", "locId": "L4789089", "locName": "Techny Basin--north of Willow Rd.", "obsDt": "2025-12-24 07:46", "howMany": 1, "lat": 42.1097167, "lng": -87.8096223, "obsValid": true, "obsReviewed": false, "locationPrivate": false, "subId": "S290012729"}]